$GPRMC,000030.00,A,4852.4662492,N,00217.5805516,E,1.19,0.00,180502,0.0,E,A*3D
$GPGGA,000030.00,4852.4662492,N,00217.5805516,E,1,06,1.0,-8.469,M,0.000,M,0.0,*54
$GPGSA,A,3,01,08,10,16,21,23,,,,,,,2.2,1.3,1.8,1*29
$GPGSV,2,1,06,01,15,255,47,08,73,299,56,10,56,076,54,16,27,182,50,1*66
$GPGSV,2,2,06,21,45,263,53,23,28,048,50,,,,,,,,,1*63
$GPRMC,000031.00,A,4852.4660666,N,00217.5818076,E,0.53,0.00,180502,0.0,E,A*37
$GPGGA,000031.00,4852.4660666,N,00217.5818076,E,1,06,1.0,-9.726,M,0.000,M,0.0,*58
$GPGSA,A,3,01,08,10,16,21,23,,,,,,,2.2,1.3,1.8,1*29
$GPGSV,2,1,06,01,15,255,47,08,73,299,57,10,56,076,54,16,27,182,50,1*67
$GPGSV,2,2,06,21,45,263,54,23,28,048,50,,,,,,,,,1*64
$GPRMC,000032.00,A,4852.4666231,N,00217.5821068,E,1.28,0.00,180502,0.0,E,A*3C
$GPGGA,000032.00,4852.4666231,N,00217.5821068,E,1,06,1.0,-15.214,M,0.000,M,0.0,*67
$GPGSA,A,3,01,08,10,16,21,23,,,,,,,2.2,1.3,1.8,1*29
$GPGSV,2,1,06,01,15,255,48,08,73,299,57,10,56,076,54,16,27,182,50,1*68
$GPGSV,2,2,06,21,45,263,53,23,28,048,51,,,,,,,,,1*62
$GPRMC,000033.00,A,4852.4665524,N,00217.5806512,E,1.50,0.00,180502,0.0,E,A*3F
$GPGGA,000033.00,4852.4665524,N,00217.5806512,E,1,06,1.0,-15.328,M,0.000,M,0.0,*65
$GPGSA,A,3,01,08,10,16,21,23,,,,,,,2.2,1.3,1.8,1*29
$GPGSV,2,1,06,01,15,255,48,08,73,299,56,10,56,076,54,16,27,182,49,1*61
$GPGSV,2,2,06,21,45,263,54,23,28,048,50,,,,,,,,,1*64
$GPRMC,000034.00,A,4852.4668928,N,00217.5813428,E,1.85,0.00,180502,0.0,E,A*31
$GPGGA,000034.00,4852.4668928,N,00217.5813428,E,1,06,1.0,-13.871,M,0.000,M,0.0,*62
$GPGSA,A,3,01,08,10,16,21,23,,,,,,,2.2,1.3,1.8,1*29
$GPGSV,2,1,06,01,15,255,48,08,73,299,56,10,56,076,54,16,27,182,50,1*69
$GPGSV,2,2,06,21,45,263,52,23,28,048,50,,,,,,,,,1*62
$GPRMC,000035.00,A,4852.4661282,N,00217.5808878,E,0.37,0.00,180502,0.0,E,A*39
$GPGGA,000035.00,4852.4661282,N,00217.5808878,E,1,06,1.0,-7.653,M,0.000,M,0.0,*59
$GPGSA,A,3,01,08,10,16,21,23,,,,,,,2.2,1.3,1.8,1*29
$GPGSV,2,1,06,01,15,255,47,08,73,299,58,10,56,076,57,16,27,182,50,1*6B
$GPGSV,2,2,06,21,45,263,52,23,27,048,51,,,,,,,,,1*6C
$GPRMC,000036.00,A,4852.4672744,N,00217.5796390,E,0.93,0.00,180502,0.0,E,A*3C
$GPGGA,000036.00,4852.4672744,N,00217.5796390,E,1,06,1.0,-8.339,M,0.000,M,0.0,*54
$GPGSA,A,3,01,08,10,16,21,23,,,,,,,2.2,1.3,1.8,1*29
$GPGSV,2,1,06,01,15,255,49,08,73,299,57,10,56,076,57,16,27,182,51,1*6B
$GPGSV,2,2,06,21,45,263,54,23,27,048,50,,,,,,,,,1*6B
$GPRMC,000037.00,A,4852.4677448,N,00217.5783649,E,0.60,0.00,180502,0.0,E,A*3E
$GPGGA,000037.00,4852.4677448,N,00217.5783649,E,1,06,1.0,-2.621,M,0.000,M,0.0,*5C
$GPGSA,A,3,01,08,10,16,21,23,,,,,,,2.2,1.3,1.8,1*29
$GPGSV,2,1,06,01,15,255,47,08,73,299,59,10,56,076,56,16,27,182,49,1*63
$GPGSV,2,2,06,21,45,263,53,23,27,048,50,,,,,,,,,1*6C
$GPRMC,000038.00,A,4852.4664009,N,00217.5801735,E,0.54,0.00,180502,0.0,E,A*3A
$GPGGA,000038.00,4852.4664009,N,00217.5801735,E,1,06,1.0,-2.124,M,0.000,M,0.0,*5D
$GPGSA,A,3,01,08,10,16,21,23,,,,,,,2.2,1.3,1.8,1*29
$GPGSV,2,1,06,01,15,255,48,08,73,299,55,10,56,076,55,16,27,182,50,1*6B
$GPGSV,2,2,06,21,45,263,53,23,27,048,50,,,,,,,,,1*6C
$GPRMC,000039.00,A,4852.4669056,N,00217.5808812,E,0.79,0.00,180502,0.0,E,A*30
$GPGGA,000039.00,4852.4669056,N,00217.5808812,E,1,06,1.0,-7.797,M,0.000,M,0.0,*53
$GPGSA,A,3,01,08,10,16,21,23,,,,,,,2.2,1.3,1.8,1*29
$GPGSV,2,1,06,01,15,255,48,08,73,299,56,10,56,076,54,16,27,182,50,1*69
$GPGSV,2,2,06,21,45,263,52,23,27,048,52,,,,,,,,,1*6F
$GPRMC,000040.00,A,4852.4669743,N,00217.5787041,E,1.62,0.00,180502,0.0,E,A*30
$GPGGA,000040.00,4852.4669743,N,00217.5787041,E,1,06,1.0,-7.069,M,0.000,M,0.0,*5E
$GPGSA,A,3,01,08,10,16,21,23,,,,,,,2.2,1.3,1.8,1*29
$GPGSV,2,1,06,01,15,255,48,08,73,299,57,10,56,076,55,16,27,182,50,1*69
$GPGSV,2,2,06,21,45,263,52,23,27,048,50,,,,,,,,,1*6D
$GPRMC,000041.00,A,4852.4665634,N,00217.5803623,E,0.52,0.00,180502,0.0,E,A*3F
$GPGGA,000041.00,4852.4665634,N,00217.5803623,E,1,06,1.0,-10.928,M,0.000,M,0.0,*69
$GPGSA,A,3,01,08,10,16,21,23,,,,,,,2.2,1.3,1.8,1*29
$GPGSV,2,1,06,01,15,255,47,08,73,299,55,10,56,076,54,16,27,182,50,1*65
$GPGSV,2,2,06,21,45,263,54,23,27,048,50,,,,,,,,,1*6B
$GPRMC,000042.00,A,4852.4658040,N,00217.5820818,E,0.85,0.00,180502,0.0,E,A*3A
$GPGGA,000042.00,4852.4658040,N,00217.5820818,E,1,06,1.0,-14.036,M,0.000,M,0.0,*64
$GPGSA,A,3,01,08,10,16,21,23,,,,,,,2.2,1.3,1.8,1*29
$GPGSV,2,1,06,01,15,255,49,08,73,299,57,10,56,076,54,16,27,182,50,1*69
$GPGSV,2,2,06,21,45,263,53,23,27,048,50,,,,,,,,,1*6C
$GPRMC,000043.00,A,4852.4667886,N,00217.5812419,E,0.96,0.00,180502,0.0,E,A*3B
$GPGGA,000043.00,4852.4667886,N,00217.5812419,E,1,06,1.0,-16.884,M,0.000,M,0.0,*64
$GPGSA,A,3,01,08,10,16,21,23,,,,,,,2.2,1.3,1.8,1*29
$GPGSV,2,1,06,01,15,255,47,08,73,299,56,10,56,076,54,16,27,182,48,1*6F
$GPGSV,2,2,06,21,45,263,54,23,27,048,52,,,,,,,,,1*69
$GPRMC,000044.00,A,4852.4663460,N,00217.5806295,E,0.68,0.00,180502,0.0,E,A*3A
$GPGGA,000044.00,4852.4663460,N,00217.5806295,E,1,06,1.0,-13.084,M,0.000,M,0.0,*69
$GPGSA,A,3,01,08,10,16,21,23,,,,,,,2.2,1.3,1.8,1*29
$GPGSV,2,1,06,01,15,255,49,08,73,299,58,10,56,076,56,16,27,182,48,1*6D
$GPGSV,2,2,06,21,45,263,52,23,27,048,51,,,,,,,,,1*6C
$GPRMC,000045.00,A,4852.4664051,N,00217.5802257,E,0.41,0.00,180502,0.0,E,A*3B
$GPGGA,000045.00,4852.4664051,N,00217.5802257,E,1,06,1.0,-10.379,M,0.000,M,0.0,*61
$GPGSA,A,3,01,08,10,16,21,23,,,,,,,2.2,1.3,1.8,1*29
$GPGSV,2,1,06,01,15,255,48,08,73,299,57,10,56,076,56,16,27,182,48,1*63
$GPGSV,2,2,06,21,45,263,52,23,27,048,50,,,,,,,,,1*6D
$GPRMC,000046.00,A,4852.4672188,N,00217.5808335,E,0.46,0.00,180502,0.0,E,A*32
$GPGGA,000046.00,4852.4672188,N,00217.5808335,E,1,06,1.0,-11.115,M,0.000,M,0.0,*66
$GPGSA,A,3,01,08,10,16,21,23,,,,,,,2.2,1.3,1.8,1*29
$GPGSV,2,1,06,01,15,255,49,08,73,299,55,10,56,076,56,16,27,182,48,1*60
$GPGSV,2,2,06,21,45,263,51,23,27,048,50,,,,,,,,,1*6E
$GPRMC,000047.00,A,4852.4662430,N,00217.5796518,E,1.54,0.00,180502,0.0,E,A*37
$GPGGA,000047.00,4852.4662430,N,00217.5796518,E,1,06,1.0,-4.155,M,0.000,M,0.0,*51
$GPGSA,A,3,01,08,10,16,21,23,,,,,,,2.2,1.3,1.8,1*29
$GPGSV,2,1,06,01,15,255,50,08,73,299,57,10,56,076,58,16,27,182,49,1*65
$GPGSV,2,2,06,21,45,263,52,23,27,048,52,,,,,,,,,1*6F
$GPRMC,000048.00,A,4852.4673182,N,00217.5779564,E,1.32,0.00,180502,0.0,E,A*3E
$GPGGA,000048.00,4852.4673182,N,00217.5779564,E,1,06,1.0,-2.646,M,0.000,M,0.0,*5B
$GPGSA,A,3,01,08,10,16,21,23,,,,,,,2.2,1.3,1.8,1*29
$GPGSV,2,1,06,01,15,255,50,08,73,299,57,10,56,076,55,16,27,182,50,1*60
$GPGSV,2,2,06,21,45,263,54,23,27,048,49,,,,,,,,,1*63
$GPRMC,000049.00,A,4852.4672526,N,00217.5791419,E,1.43,0.00,180502,0.0,E,A*3F
$GPGGA,000049.00,4852.4672526,N,00217.5791419,E,1,06,1.0,-5.448,M,0.000,M,0.0,*57
$GPGSA,A,3,01,08,10,16,21,23,,,,,,,2.2,1.3,1.8,1*29
$GPGSV,2,1,06,01,15,255,49,08,73,299,57,10,56,076,54,16,27,182,49,1*61
$GPGSV,2,2,06,21,45,263,51,23,27,048,50,,,,,,,,,1*6E
$GPRMC,000050.00,A,4852.4658220,N,00217.5809996,E,1.13,0.00,180502,0.0,E,A*3F
$GPGGA,000050.00,4852.4658220,N,00217.5809996,E,1,06,1.0,-6.832,M,0.000,M,0.0,*50
$GPGSA,A,3,01,08,10,16,21,23,,,,,,,2.2,1.3,1.8,1*29
$GPGSV,2,1,06,01,15,255,49,08,73,299,56,10,56,076,55,16,27,182,51,1*68
$GPGSV,2,2,06,21,45,263,52,23,27,048,51,,,,,,,,,1*6C
$GPRMC,000051.00,A,4852.4671754,N,00217.5807525,E,1.18,0.00,180502,0.0,E,A*32
$GPGGA,000051.00,4852.4671754,N,00217.5807525,E,1,06,1.0,-9.575,M,0.000,M,0.0,*57
$GPGSA,A,3,01,08,10,16,21,23,,,,,,,2.2,1.3,1.8,1*29
$GPGSV,2,1,06,01,15,255,49,08,73,299,57,10,56,076,55,16,27,182,52,1*6A
$GPGSV,2,2,06,21,45,263,54,23,27,048,53,,,,,,,,,1*68
$GPRMC,000052.00,A,4852.4667832,N,00217.5797386,E,1.97,136.93,180502,0.0,E,A*39
$GPGGA,000052.00,4852.4667832,N,00217.5797386,E,1,06,1.0,-10.190,M,0.000,M,0.0,*62
$GPGSA,A,3,01,08,10,16,21,23,,,,,,,2.2,1.3,1.8,1*29
$GPGSV,2,1,06,01,15,255,48,08,73,299,56,10,56,076,56,16,27,182,49,1*63
$GPGSV,2,2,06,21,45,263,54,23,27,048,51,,,,,,,,,1*6A
$GPRMC,000053.00,A,4852.4661898,N,00217.5818645,E,1.41,136.93,180502,0.0,E,A*37
$GPGGA,000053.00,4852.4661898,N,00217.5818645,E,1,06,1.0,-15.896,M,0.000,M,0.0,*6D
$GPGSA,A,3,01,08,10,16,21,23,,,,,,,2.2,1.3,1.8,1*29
$GPGSV,2,1,06,01,15,255,48,08,73,299,57,10,56,076,56,16,27,182,49,1*62
$GPGSV,2,2,06,21,45,263,52,23,27,048,49,,,,,,,,,1*65
$GPRMC,000054.00,A,4852.4662704,N,00217.5830270,E,0.43,136.93,180502,0.0,E,A*32
$GPGGA,000054.00,4852.4662704,N,00217.5830270,E,1,06,1.0,-15.773,M,0.000,M,0.0,*6F
$GPGSA,A,3,01,08,10,16,21,23,,,,,,,2.2,1.3,1.8,1*29
$GPGSV,2,1,06,01,15,255,49,08,73,299,57,10,56,076,55,16,27,182,50,1*68
$GPGSV,2,2,06,21,45,263,53,23,27,048,49,,,,,,,,,1*64
$GPRMC,000055.00,A,4852.4663822,N,00217.5810495,E,0.51,136.93,180502,0.0,E,A*35
$GPGGA,000055.00,4852.4663822,N,00217.5810495,E,1,06,1.0,-12.194,M,0.000,M,0.0,*63
$GPGSA,A,3,01,08,10,16,21,23,,,,,,,2.2,1.3,1.8,1*29
$GPGSV,2,1,06,01,15,255,49,08,73,299,59,10,56,076,58,16,27,182,51,1*6A
$GPGSV,2,2,06,21,45,263,52,23,27,048,50,,,,,,,,,1*6D
$GPRMC,000056.00,A,4852.4665025,N,00217.5808808,E,1.24,136.93,180502,0.0,E,A*3D
$GPGGA,000056.00,4852.4665025,N,00217.5808808,E,1,06,1.0,-11.068,M,0.000,M,0.0,*69
$GPGSA,A,3,01,08,10,16,21,23,,,,,,,2.2,1.3,1.8,1*29
$GPGSV,2,1,06,01,15,255,48,08,73,299,58,10,56,076,56,16,27,182,48,1*6C
$GPGSV,2,2,06,21,45,263,54,23,27,048,50,,,,,,,,,1*6B
$GPRMC,000057.00,A,4852.4662532,N,00217.5814033,E,1.86,136.93,180502,0.0,E,A*3D
$GPGGA,000057.00,4852.4662532,N,00217.5814033,E,1,06,1.0,-6.117,M,0.000,M,0.0,*5E
$GPGSA,A,3,01,08,10,16,21,23,,,,,,,2.2,1.3,1.8,1*29
$GPGSV,2,1,06,01,16,255,50,08,73,299,57,10,56,076,55,16,27,182,50,1*63
$GPGSV,2,2,06,21,45,263,53,23,27,048,50,,,,,,,,,1*6C
$GPRMC,000058.00,A,4852.4667116,N,00217.5816928,E,1.12,136.93,180502,0.0,E,A*39
$GPGGA,000058.00,4852.4667116,N,00217.5816928,E,1,06,1.0,-5.228,M,0.000,M,0.0,*5B
$GPGSA,A,3,01,08,10,16,21,23,,,,,,,2.2,1.3,1.8,1*29
$GPGSV,2,1,06,01,16,255,48,08,73,299,57,10,56,076,56,16,27,182,51,1*68
$GPGSV,2,2,06,21,45,263,52,23,27,048,50,,,,,,,,,1*6D
$GPRMC,000059.00,A,4852.4667479,N,00217.5797485,E,0.89,136.93,180502,0.0,E,A*3B
$GPGGA,000059.00,4852.4667479,N,00217.5797485,E,1,06,1.0,-0.632,M,0.000,M,0.0,*50
$GPGSA,A,3,01,08,10,16,21,23,,,,,,,2.2,1.3,1.8,1*29
$GPGSV,2,1,06,01,16,255,50,08,73,299,57,10,56,076,57,16,26,182,52,1*62
$GPGSV,2,2,06,21,45,263,53,23,27,048,51,,,,,,,,,1*6D
$GPRMC,000100.00,A,4852.4668185,N,00217.5792587,E,0.66,136.93,180502,0.0,E,A*38
$GPGGA,000100.00,4852.4668185,N,00217.5792587,E,1,06,1.0,0.260,M,0.000,M,0.0,*7C
$GPGSA,A,3,01,08,10,16,21,23,,,,,,,2.2,1.3,1.8,1*29
$GPGSV,2,1,06,01,16,255,49,08,73,299,56,10,56,076,57,16,26,182,50,1*69
$GPGSV,2,2,06,21,45,263,53,23,27,048,50,,,,,,,,,1*6C
$GPRMC,000101.00,A,4852.4665771,N,00217.5817007,E,0.63,136.93,180502,0.0,E,A*33
$GPGGA,000101.00,4852.4665771,N,00217.5817007,E,1,06,1.0,-4.790,M,0.000,M,0.0,*51
$GPGSA,A,3,01,08,10,16,21,23,,,,,,,2.2,1.3,1.8,1*29
$GPGSV,2,1,06,01,16,255,48,08,73,299,55,10,56,076,55,16,26,182,50,1*69
$GPGSV,2,2,06,21,45,263,52,23,27,048,51,,,,,,,,,1*6C
$GPRMC,000102.00,A,4852.4655809,N,00217.5811277,E,0.55,136.93,180502,0.0,E,A*35
$GPGGA,000102.00,4852.4655809,N,00217.5811277,E,1,06,1.0,-5.527,M,0.000,M,0.0,*5D
$GPGSA,A,3,01,08,10,16,21,23,,,,,,,2.2,1.3,1.8,1*29
$GPGSV,2,1,06,01,16,255,49,08,73,299,56,10,56,076,55,16,26,182,49,1*63
$GPGSV,2,2,06,21,45,263,53,23,27,048,50,,,,,,,,,1*6C
$GPRMC,000103.00,A,4852.4671296,N,00217.5809527,E,1.54,136.93,180502,0.0,E,A*35
$GPGGA,000103.00,4852.4671296,N,00217.5809527,E,1,06,1.0,-8.956,M,0.000,M,0.0,*5A
$GPGSA,A,3,01,08,10,16,21,23,,,,,,,2.2,1.3,1.8,1*29
$GPGSV,2,1,06,01,16,255,48,08,73,299,56,10,56,076,56,16,26,182,50,1*69
$GPGSV,2,2,06,21,45,263,53,23,27,048,51,,,,,,,,,1*6D
$GPRMC,000104.00,A,4852.4663696,N,00217.5814615,E,1.60,136.93,180502,0.0,E,A*3C
$GPGGA,000104.00,4852.4663696,N,00217.5814615,E,1,06,1.0,-9.880,M,0.000,M,0.0,*5F
$GPGSA,A,3,01,08,10,16,21,23,,,,,,,2.2,1.3,1.8,1*29
$GPGSV,2,1,06,01,16,255,47,08,73,299,58,10,56,076,56,16,26,182,50,1*68
$GPGSV,2,2,06,21,45,263,54,23,27,048,50,,,,,,,,,1*6B
$GPRMC,000105.00,A,4852.4656430,N,00217.5829099,E,2.01,353.07,180502,0.0,E,A*31
$GPGGA,000105.00,4852.4656430,N,00217.5829099,E,1,06,1.0,-13.273,M,0.000,M,0.0,*67
$GPGSA,A,3,01,08,10,16,21,23,,,,,,,2.2,1.3,1.8,1*29
$GPGSV,2,1,06,01,16,255,48,08,73,299,58,10,56,076,55,16,26,182,50,1*64
$GPGSV,2,2,06,21,45,263,53,23,27,048,50,,,,,,,,,1*6C
$GPRMC,000106.00,A,4852.4668493,N,00217.5825929,E,1.16,353.07,180502,0.0,E,A*3D
$GPGGA,000106.00,4852.4668493,N,00217.5825929,E,1,06,1.0,-18.069,M,0.000,M,0.0,*6C
$GPGSA,A,3,01,08,10,16,21,23,,,,,,,2.2,1.3,1.8,1*29
$GPGSV,2,1,06,01,16,255,48,08,73,299,56,10,56,076,55,16,26,182,51,1*6B
$GPGSV,2,2,06,21,45,263,53,23,27,048,50,,,,,,,,,1*6C
$GPRMC,000107.00,A,4852.4662285,N,00217.5809543,E,1.03,353.07,180502,0.0,E,A*3D
$GPGGA,000107.00,4852.4662285,N,00217.5809543,E,1,06,1.0,-11.559,M,0.000,M,0.0,*67
$GPGSA,A,3,01,08,10,16,21,23,,,,,,,2.2,1.3,1.8,1*29
$GPGSV,2,1,06,01,16,255,47,08,73,299,56,10,56,076,54,16,26,182,50,1*64
$GPGSV,2,2,06,21,45,263,51,23,27,048,51,,,,,,,,,1*6F
$GPRMC,000108.00,A,4852.4654342,N,00217.5828766,E,10.30,116.77,180502,0.0,E,A*0F
$GPGGA,000108.00,4852.4654342,N,00217.5828766,E,1,06,1.0,-10.826,M,0.000,M,0.0,*65
$GPGSA,A,3,01,08,10,16,21,23,,,,,,,2.2,1.3,1.8,1*29
$GPGSV,2,1,06,01,16,255,48,08,73,299,56,10,56,076,55,16,26,182,50,1*6A
$GPGSV,2,2,06,21,45,263,52,23,27,048,51,,,,,,,,,1*6C
$GPRMC,000109.00,A,4852.4650448,N,00217.5881187,E,19.22,115.19,180502,0.0,E,A*0C
$GPGGA,000109.00,4852.4650448,N,00217.5881187,E,1,06,1.0,-11.785,M,0.000,M,0.0,*60
$GPGSA,A,3,01,08,10,16,21,23,,,,,,,2.2,1.3,1.8,1*29
$GPGSV,2,1,06,01,16,255,47,08,73,299,56,10,56,076,54,16,26,182,50,1*64
$GPGSV,2,2,06,21,45,263,54,23,27,048,52,,,,,,,,,1*69
$GPRMC,000110.00,A,4852.4610516,N,00217.5987149,E,29.74,116.13,180502,0.0,E,A*06
$GPGGA,000110.00,4852.4610516,N,00217.5987149,E,1,06,1.0,-7.837,M,0.000,M,0.0,*52
$GPGSA,A,3,01,08,10,16,21,23,,,,,,,2.2,1.3,1.8,1*29
$GPGSV,2,1,06,01,16,255,48,08,73,299,57,10,56,076,55,16,26,182,50,1*6B
$GPGSV,2,2,06,21,45,263,52,23,27,048,50,,,,,,,,,1*6D
$GPRMC,000111.00,A,4852.4572152,N,00217.6094710,E,32.91,116.46,180502,0.0,E,A*07
$GPGGA,000111.00,4852.4572152,N,00217.6094710,E,1,06,1.0,-5.740,M,0.000,M,0.0,*5F
$GPGSA,A,3,01,08,10,16,21,23,,,,,,,2.2,1.3,1.8,1*29
$GPGSV,2,1,06,01,16,255,49,08,73,299,55,10,56,076,57,16,26,182,50,1*6A
$GPGSV,2,2,06,21,45,263,53,23,27,048,51,,,,,,,,,1*6D
$GPRMC,000112.00,A,4852.4546224,N,00217.6202678,E,32.30,115.48,180502,0.0,E,A*05
$GPGGA,000112.00,4852.4546224,N,00217.6202678,E,1,06,1.0,-2.628,M,0.000,M,0.0,*53
$GPGSA,A,3,01,08,10,16,21,23,,,,,,,2.2,1.3,1.8,1*29
$GPGSV,2,1,06,01,16,255,48,08,73,299,56,10,56,076,56,16,26,182,50,1*69
$GPGSV,2,2,06,21,45,263,54,23,27,048,50,,,,,,,,,1*6B
$GPRMC,000113.00,A,4852.4496022,N,00217.6329459,E,30.78,116.42,180502,0.0,E,A*02
$GPGGA,000113.00,4852.4496022,N,00217.6329459,E,1,06,1.0,-2.181,M,0.000,M,0.0,*57
$GPGSA,A,3,01,08,10,16,21,23,,,,,,,2.2,1.3,1.8,1*29
$GPGSV,2,1,06,01,16,255,49,08,73,299,57,10,56,076,58,16,26,182,49,1*6F
$GPGSV,2,2,06,21,45,263,54,23,27,048,52,,,,,,,,,1*69
$GPRMC,000114.00,A,4852.4457004,N,00217.6433502,E,21.96,121.81,180502,0.0,E,A*04
$GPGGA,000114.00,4852.4457004,N,00217.6433502,E,1,06,1.0,-1.719,M,0.000,M,0.0,*5E
$GPGSA,A,3,01,08,10,16,21,23,,,,,,,2.2,1.3,1.8,1*29
$GPGSV,2,1,06,01,16,255,48,08,73,299,57,10,56,076,56,16,26,182,48,1*61
$GPGSV,2,2,06,21,45,263,52,23,27,048,51,,,,,,,,,1*6C
$GPRMC,000115.00,A,4852.4431757,N,00217.6502941,E,12.06,139.31,180502,0.0,E,A*07
$GPGGA,000115.00,4852.4431757,N,00217.6502941,E,1,06,1.0,-4.611,M,0.000,M,0.0,*5A
$GPGSA,A,3,01,08,10,16,21,23,,,,,,,2.2,1.3,1.8,1*29
$GPGSV,2,1,06,01,16,255,46,08,73,299,57,10,56,076,55,16,26,182,48,1*6C
$GPGSV,2,2,06,21,45,263,55,23,27,048,52,,,,,,,,,1*68
$GPRMC,000116.00,A,4852.4401371,N,00217.6509619,E,10.20,162.66,180502,0.0,E,A*04
$GPGGA,000116.00,4852.4401371,N,00217.6509619,E,1,06,1.0,-5.553,M,0.000,M,0.0,*57
$GPGSA,A,3,01,08,10,16,21,23,,,,,,,2.2,1.3,1.8,1*29
$GPGSV,2,1,06,01,16,255,47,08,73,298,58,10,56,076,55,16,26,182,50,1*6A
$GPGSV,2,2,06,21,45,263,54,23,27,048,51,,,,,,,,,1*6A
$GPRMC,000117.00,A,4852.4368243,N,00217.6509512,E,19.50,177.65,180502,0.0,E,A*0C
$GPGGA,000117.00,4852.4368243,N,00217.6509512,E,1,06,1.0,-5.982,M,0.000,M,0.0,*56
$GPGSA,A,3,01,08,10,16,21,23,,,,,,,2.2,1.3,1.8,1*29
$GPGSV,2,1,06,01,16,255,49,08,73,298,58,10,56,076,56,16,26,182,50,1*67
$GPGSV,2,2,06,21,45,263,52,23,27,048,50,,,,,,,,,1*6D
$GPRMC,000118.00,A,4852.4300406,N,00217.6535960,E,23.91,179.82,180502,0.0,E,A*0F
$GPGGA,000118.00,4852.4300406,N,00217.6535960,E,1,06,1.0,-9.727,M,0.000,M,0.0,*5B
$GPGSA,A,3,01,08,10,16,21,23,,,,,,,2.2,1.3,1.8,1*29
$GPGSV,2,1,06,01,16,255,50,08,73,298,56,10,56,076,53,16,26,182,51,1*65
$GPGSV,2,2,06,21,45,263,52,23,27,048,50,,,,,,,,,1*6D
$GPRMC,000119.00,A,4852.4230187,N,00217.6543831,E,23.17,171.81,180502,0.0,E,A*01
$GPGGA,000119.00,4852.4230187,N,00217.6543831,E,1,06,1.0,-10.917,M,0.000,M,0.0,*65
$GPGSA,A,3,01,08,10,16,21,23,,,,,,,2.2,1.3,1.8,1*29
$GPGSV,2,1,06,01,16,255,49,08,74,298,55,10,56,076,52,16,26,182,50,1*69
$GPGSV,2,2,06,21,45,263,54,23,27,048,51,,,,,,,,,1*6A
$GPRMC,000120.00,A,4852.4170810,N,00217.6559502,E,21.24,161.54,180502,0.0,E,A*06
$GPGGA,000120.00,4852.4170810,N,00217.6559502,E,1,06,1.0,-12.194,M,0.000,M,0.0,*68
$GPGSA,A,3,01,08,10,16,21,23,,,,,,,2.2,1.3,1.8,1*29
$GPGSV,2,1,06,01,16,255,50,08,74,298,56,10,56,076,53,16,26,182,50,1*63
$GPGSV,2,2,06,21,45,263,52,23,27,048,49,,,,,,,,,1*65
$GPRMC,000121.00,A,4852.4121794,N,00217.6593659,E,21.09,152.41,180502,0.0,E,A*00
$GPGGA,000121.00,4852.4121794,N,00217.6593659,E,1,06,1.0,-14.483,M,0.000,M,0.0,*60
$GPGSA,A,3,01,08,10,16,21,23,,,,,,,2.2,1.3,1.8,1*29
$GPGSV,2,1,06,01,16,255,49,08,74,298,56,10,56,076,52,16,26,182,49,1*62
$GPGSV,2,2,06,21,45,263,53,23,27,048,51,,,,,,,,,1*6D
$GPRMC,000122.00,A,4852.4081824,N,00217.6632576,E,17.93,142.16,180502,0.0,E,A*0F
$GPGGA,000122.00,4852.4081824,N,00217.6632576,E,1,06,1.0,-16.204,M,0.000,M,0.0,*61
$GPGSA,A,3,01,08,10,16,21,23,,,,,,,2.2,1.3,1.8,1*29
$GPGSV,2,1,06,01,16,255,48,08,74,298,58,10,56,076,55,16,26,182,49,1*6A
$GPGSV,2,2,06,21,45,263,53,23,27,048,52,,,,,,,,,1*6E
$GPRMC,000123.00,A,4852.4046169,N,00217.6700304,E,17.90,130.98,180502,0.0,E,A*06
$GPGGA,000123.00,4852.4046169,N,00217.6700304,E,1,06,1.0,-16.924,M,0.000,M,0.0,*61
$GPGSA,A,3,01,08,10,16,21,23,,,,,,,2.2,1.3,1.8,1*29
$GPGSV,2,1,06,01,16,255,48,08,74,298,54,10,56,076,54,16,26,182,50,1*6F
$GPGSV,2,2,06,21,45,263,51,23,27,048,52,,,,,,,,,1*6C
$GPRMC,000124.00,A,4852.3997010,N,00217.6773185,E,19.34,121.64,180502,0.0,E,A*00
$GPGGA,000124.00,4852.3997010,N,00217.6773185,E,1,06,1.0,-11.875,M,0.000,M,0.0,*66
$GPGSA,A,3,01,08,10,16,21,23,,,,,,,2.2,1.3,1.8,1*29
$GPGSV,2,1,06,01,16,255,48,08,74,298,54,10,56,076,55,16,26,182,49,1*66
$GPGSV,2,2,06,21,45,263,52,23,27,048,51,,,,,,,,,1*6C
$GPRMC,000125.00,A,4852.3982803,N,00217.6823081,E,19.52,114.15,180502,0.0,E,A*00
$GPGGA,000125.00,4852.3982803,N,00217.6823081,E,1,06,1.0,-11.017,M,0.000,M,0.0,*6A
$GPGSA,A,3,01,08,10,16,21,23,,,,,,,2.2,1.3,1.8,1*29
$GPGSV,2,1,06,01,16,255,48,08,74,298,56,10,56,076,56,16,26,182,50,1*6F
$GPGSV,2,2,06,21,45,263,54,23,27,048,50,,,,,,,,,1*6B
$GPRMC,000126.00,A,4852.3963310,N,00217.6912064,E,19.92,105.98,180502,0.0,E,A*04
$GPGGA,000126.00,4852.3963310,N,00217.6912064,E,1,06,1.0,-10.796,M,0.000,M,0.0,*68
$GPGSA,A,3,01,08,10,16,21,23,,,,,,,2.2,1.3,1.8,1*29
$GPGSV,2,1,06,01,16,255,48,08,74,298,56,10,56,076,56,16,26,182,50,1*6F
$GPGSV,2,2,06,21,45,263,54,23,27,048,50,,,,,,,,,1*6B
$GPRMC,000127.00,A,4852.3959737,N,00217.6979702,E,18.36,96.26,180502,0.0,E,A*36
$GPGGA,000127.00,4852.3959737,N,00217.6979702,E,1,06,1.0,-9.447,M,0.000,M,0.0,*5C
$GPGSA,A,3,01,08,10,16,21,23,,,,,,,2.2,1.3,1.8,1*29
$GPGSV,2,1,06,01,16,255,47,08,74,298,56,10,56,076,56,16,26,182,52,1*62
$GPGSV,2,2,06,21,45,263,53,23,27,048,51,,,,,,,,,1*6D
$GPRMC,000128.00,A,4852.3960471,N,00217.7064803,E,20.25,87.32,180502,0.0,E,A*34
$GPGGA,000128.00,4852.3960471,N,00217.7064803,E,1,06,1.0,-8.255,M,0.000,M,0.0,*56
$GPGSA,A,3,01,08,10,16,21,23,,,,,,,2.2,1.3,1.8,1*29
$GPGSV,2,1,06,01,16,255,48,08,74,298,56,10,56,076,58,16,26,182,50,1*61
$GPGSV,2,2,06,21,45,263,53,23,27,048,50,,,,,,,,,1*6C
$GPRMC,000129.00,A,4852.3967586,N,00217.7134656,E,20.92,78.76,180502,0.0,E,A*3D
$GPGGA,000129.00,4852.3967586,N,00217.7134656,E,1,06,1.0,-2.487,M,0.000,M,0.0,*50
$GPGSA,A,3,01,08,10,16,21,23,,,,,,,2.2,1.3,1.8,1*29
$GPGSV,2,1,06,01,16,255,47,08,74,298,56,10,56,076,57,16,26,182,51,1*60
$GPGSV,2,2,06,21,45,263,54,23,27,048,52,,,,,,,,,1*69
$GPRMC,000130.00,A,4852.3988329,N,00217.7207663,E,22.17,69.03,180502,0.0,E,A*3F
$GPGGA,000130.00,4852.3988329,N,00217.7207663,E,1,06,1.0,-1.924,M,0.000,M,0.0,*58
$GPGSA,A,3,01,08,10,16,21,23,,,,,,,2.2,1.3,1.8,1*29
$GPGSV,2,1,06,01,16,255,48,08,74,298,55,10,56,076,52,16,26,182,52,1*6A
$GPGSV,2,2,06,21,45,263,53,23,27,048,51,,,,,,,,,1*6D
$GPRMC,000131.00,A,4852.4017767,N,00217.7287486,E,23.06,59.11,180502,0.0,E,A*38
$GPGGA,000131.00,4852.4017767,N,00217.7287486,E,1,06,1.0,0.380,M,0.000,M,0.0,*76
$GPGSA,A,3,01,08,10,16,21,23,,,,,,,2.2,1.3,1.8,1*29
$GPGSV,2,1,06,01,16,255,49,08,74,298,57,10,56,076,54,16,26,182,50,1*6D
$GPGSV,2,2,06,21,45,263,53,23,27,048,48,,,,,,,,,1*65
$GPRMC,000132.00,A,4852.4039546,N,00217.7389802,E,22.24,58.27,180502,0.0,E,A*3C
$GPGGA,000132.00,4852.4039546,N,00217.7389802,E,1,06,1.0,-0.481,M,0.000,M,0.0,*5C
$GPGSA,A,3,01,08,10,16,21,23,,,,,,,2.2,1.3,1.8,1*29
$GPGSV,2,1,06,01,16,255,49,08,74,298,56,10,56,076,53,16,26,182,51,1*6A
$GPGSV,2,2,06,21,45,263,54,23,27,048,49,,,,,,,,,1*63
$GPRMC,000133.00,A,4852.4067412,N,00217.7472090,E,16.99,63.02,180502,0.0,E,A*38
$GPGGA,000133.00,4852.4067412,N,00217.7472090,E,1,06,1.0,-2.286,M,0.000,M,0.0,*55
$GPGSA,A,3,01,08,10,16,21,23,,,,,,,2.2,1.3,1.8,1*29
$GPGSV,2,1,06,01,16,255,48,08,74,298,54,10,56,076,54,16,26,182,50,1*6F
$GPGSV,2,2,06,21,45,263,52,23,27,048,51,,,,,,,,,1*6C
$GPRMC,000134.00,A,4852.4084082,N,00217.7505008,E,9.32,78.24,180502,0.0,E,A*0E
$GPGGA,000134.00,4852.4084082,N,00217.7505008,E,1,06,1.0,-1.720,M,0.000,M,0.0,*58
$GPGSA,A,3,01,08,10,16,21,23,,,,,,,2.2,1.3,1.8,1*29
$GPGSV,2,1,06,01,16,255,47,08,74,298,55,10,56,076,55,16,26,182,50,1*60
$GPGSV,2,2,06,21,45,263,52,23,27,048,52,,,,,,,,,1*6F
$GPRMC,000135.00,A,4852.4086304,N,00217.7563518,E,17.24,101.18,180502,0.0,E,A*0C
$GPGGA,000135.00,4852.4086304,N,00217.7563518,E,1,06,1.0,-3.585,M,0.000,M,0.0,*5D
$GPGSA,A,3,01,08,10,16,21,23,,,,,,,2.2,1.3,1.8,1*29
$GPGSV,2,1,06,01,16,255,49,08,74,298,54,10,56,076,55,16,26,182,48,1*66
$GPGSV,2,2,06,21,45,263,54,23,27,048,50,,,,,,,,,1*6B
$GPRMC,000136.00,A,4852.4065549,N,00217.7641922,E,27.23,110.33,180502,0.0,E,A*06
$GPGGA,000136.00,4852.4065549,N,00217.7641922,E,1,06,1.0,-4.022,M,0.000,M,0.0,*55
$GPGSA,A,3,01,08,10,16,21,23,,,,,,,2.2,1.3,1.8,1*29
$GPGSV,2,1,06,01,16,255,48,08,74,298,55,10,56,076,56,16,26,182,49,1*64
$GPGSV,2,2,06,21,45,263,52,23,27,048,50,,,,,,,,,1*6D
$GPRMC,000137.00,A,4852.4043751,N,00217.7780373,E,32.16,112.41,180502,0.0,E,A*0F
$GPGGA,000137.00,4852.4043751,N,00217.7780373,E,1,06,1.0,-8.245,M,0.000,M,0.0,*56
$GPGSA,A,3,01,08,10,16,21,23,,,,,,,2.2,1.3,1.8,1*29
$GPGSV,2,1,06,01,16,255,47,08,74,298,57,10,56,076,56,16,26,182,49,1*69
$GPGSV,2,2,06,21,45,263,53,23,27,048,52,,,,,,,,,1*6E
$GPRMC,000138.00,A,4852.3989650,N,00217.7911395,E,33.25,113.82,180502,0.0,E,A*09
$GPGGA,000138.00,4852.3989650,N,00217.7911395,E,1,06,1.0,-6.130,M,0.000,M,0.0,*50
$GPGSA,A,3,01,08,10,16,21,23,,,,,,,2.2,1.3,1.8,1*29
$GPGSV,2,1,06,01,16,255,48,08,74,298,54,10,56,076,54,16,26,182,50,1*6F
$GPGSV,2,2,06,21,45,263,50,23,27,048,50,,,,,,,,,1*6F
$GPRMC,000139.00,A,4852.3963733,N,00217.8034010,E,31.74,114.01,180502,0.0,E,A*0D
$GPGGA,000139.00,4852.3963733,N,00217.8034010,E,1,06,1.0,-7.920,M,0.000,M,0.0,*56
$GPGSA,A,3,01,08,10,16,21,23,,,,,,,2.2,1.3,1.8,1*29
$GPGSV,2,1,06,01,16,255,48,08,74,298,54,10,56,076,54,16,26,182,49,1*67
$GPGSV,2,2,06,21,45,263,53,23,27,048,51,,,,,,,,,1*6D
$GPRMC,000140.00,A,4852.3935978,N,00217.8121139,E,23.42,116.78,180502,0.0,E,A*04
$GPGGA,000140.00,4852.3935978,N,00217.8121139,E,1,06,1.0,-8.445,M,0.000,M,0.0,*54
$GPGSA,A,3,01,08,10,16,21,23,,,,,,,2.2,1.3,1.8,1*29
$GPGSV,2,1,06,01,16,255,48,08,74,298,56,10,56,076,55,16,26,182,50,1*6C
$GPGSV,2,2,06,21,45,263,55,23,27,048,52,,,,,,,,,1*68
$GPRMC,000141.00,A,4852.3900065,N,00217.8184949,E,14.48,129.73,180502,0.0,E,A*0F
$GPGGA,000141.00,4852.3900065,N,00217.8184949,E,1,06,1.0,-9.701,M,0.000,M,0.0,*54
$GPGSA,A,3,01,08,10,16,21,23,,,,,,,2.2,1.3,1.8,1*29
$GPGSV,2,1,06,01,16,255,48,08,74,298,57,10,56,076,56,16,26,182,53,1*6D
$GPGSV,2,2,06,21,45,263,54,23,27,048,51,,,,,,,,,1*6A
$GPRMC,000142.00,A,4852.3883612,N,00217.8231539,E,7.05,160.53,180502,0.0,E,A*32
$GPGGA,000142.00,4852.3883612,N,00217.8231539,E,1,06,1.0,-13.935,M,0.000,M,0.0,*6F
$GPGSA,A,3,01,08,10,16,21,23,,,,,,,2.2,1.3,1.8,1*29
$GPGSV,2,1,06,01,16,255,48,08,74,298,56,10,56,076,56,16,26,182,51,1*6E
$GPGSV,2,2,06,21,45,263,53,23,27,048,50,,,,,,,,,1*6C
$GPRMC,000143.00,A,4852.3853800,N,00217.8232153,E,13.04,190.07,180502,0.0,E,A*02
$GPGGA,000143.00,4852.3853800,N,00217.8232153,E,1,06,1.0,-14.680,M,0.000,M,0.0,*63
$GPGSA,A,3,01,08,10,16,21,23,,,,,,,2.2,1.3,1.8,1*29
$GPGSV,2,1,06,01,16,255,48,08,74,298,56,10,56,076,56,16,26,182,49,1*67
$GPGSV,2,2,06,21,45,263,51,23,27,048,50,,,,,,,,,1*6E
$GPRMC,000144.00,A,4852.3809933,N,00217.8191879,E,22.12,207.93,180502,0.0,E,A*05
$GPGGA,000144.00,4852.3809933,N,00217.8191879,E,1,06,1.0,-15.952,M,0.000,M,0.0,*60
$GPGSA,A,3,01,08,10,16,21,23,,,,,,,2.2,1.3,1.8,1*29
$GPGSV,2,1,06,01,16,255,49,08,74,298,56,10,56,076,56,16,26,182,50,1*6E
$GPGSV,2,2,06,21,45,263,52,23,27,048,52,,,,,,,,,1*6F
$GPRMC,000145.00,A,4852.3749763,N,00217.8130979,E,31.45,212.86,180502,0.0,E,A*0E
$GPGGA,000145.00,4852.3749763,N,00217.8130979,E,1,06,1.0,-14.153,M,0.000,M,0.0,*63
$GPGSA,A,3,01,08,10,16,21,23,,,,,,,2.2,1.3,1.8,1*29
$GPGSV,2,1,06,01,16,255,48,08,74,298,57,10,56,076,54,16,26,182,49,1*64
$GPGSV,2,2,06,21,45,263,53,23,27,048,50,,,,,,,,,1*6C
$GPRMC,000146.00,A,4852.3671497,N,00217.8057099,E,32.29,217.53,180502,0.0,E,A*0C
$GPGGA,000146.00,4852.3671497,N,00217.8057099,E,1,06,1.0,-13.192,M,0.000,M,0.0,*6F
$GPGSA,A,3,01,08,10,16,21,23,,,,,,,2.2,1.3,1.8,1*29
$GPGSV,2,1,06,01,16,255,48,08,74,298,58,10,56,076,57,16,26,182,49,1*68
$GPGSV,2,2,06,21,45,263,54,23,27,048,50,,,,,,,,,1*6B
$GPRMC,000147.00,A,4852.3609431,N,00217.7971005,E,26.64,225.19,180502,0.0,E,A*0A
$GPGGA,000147.00,4852.3609431,N,00217.7971005,E,1,06,1.0,-9.352,M,0.000,M,0.0,*5F
$GPGSA,A,3,01,08,10,16,21,23,,,,,,,2.2,1.3,1.8,1*29
$GPGSV,2,1,06,01,16,255,48,08,74,298,57,10,56,076,54,16,26,182,50,1*6C
$GPGSV,2,2,06,21,45,263,54,23,27,048,51,,,,,,,,,1*6A
$GPRMC,000148.00,A,4852.3571955,N,00217.7888079,E,24.49,232.51,180502,0.0,E,A*0D
$GPGGA,000148.00,4852.3571955,N,00217.7888079,E,1,06,1.0,-7.353,M,0.000,M,0.0,*50
$GPGSA,A,3,01,08,10,16,21,23,,,,,,,2.2,1.3,1.8,1*29
$GPGSV,2,1,06,01,16,255,48,08,74,298,54,10,55,076,51,16,26,182,50,1*69
$GPGSV,2,2,06,21,45,263,53,23,27,048,49,,,,,,,,,1*64
$GPRMC,000149.00,A,4852.3519054,N,00217.7792918,E,32.79,236.57,180502,0.0,E,A*06
$GPGGA,000149.00,4852.3519054,N,00217.7792918,E,1,06,1.0,-5.659,M,0.000,M,0.0,*50
$GPGSA,A,3,01,08,10,16,21,23,,,,,,,2.2,1.3,1.8,1*29
$GPGSV,2,1,06,01,16,255,49,08,74,298,57,10,55,076,55,16,26,182,50,1*6F
$GPGSV,2,2,06,21,45,263,55,23,27,048,48,,,,,,,,,1*63
$GPRMC,000150.00,A,4852.3477175,N,00217.7675633,E,33.09,242.89,180502,0.0,E,A*0D
$GPGGA,000150.00,4852.3477175,N,00217.7675633,E,1,06,1.0,-0.866,M,0.000,M,0.0,*5A
$GPGSA,A,3,01,08,10,16,21,23,,,,,,,2.2,1.3,1.8,1*29
$GPGSV,2,1,06,01,16,255,50,08,74,298,58,10,55,076,56,16,26,182,50,1*6B
$GPGSV,2,2,06,21,45,263,53,23,27,048,49,,,,,,,,,1*64
$GPRMC,000151.00,A,4852.3445380,N,00217.7527439,E,32.70,250.06,180502,0.0,E,A*02
$GPGGA,000151.00,4852.3445380,N,00217.7527439,E,1,06,1.0,-1.996,M,0.000,M,0.0,*51
$GPGSA,A,3,01,08,10,16,21,23,,,,,,,2.2,1.3,1.8,1*29
$GPGSV,2,1,06,01,16,255,48,08,74,298,57,10,55,075,54,16,26,182,51,1*6D
$GPGSV,2,2,06,21,45,263,52,23,27,048,49,,,,,,,,,1*65
$GPRMC,000152.00,A,4852.3426939,N,00217.7397195,E,32.50,258.49,180502,0.0,E,A*03
$GPGGA,000152.00,4852.3426939,N,00217.7397195,E,1,06,1.0,-5.438,M,0.000,M,0.0,*5C
$GPGSA,A,3,01,08,10,16,21,23,,,,,,,2.2,1.3,1.8,1*29
$GPGSV,2,1,06,01,16,255,48,08,74,298,57,10,55,075,55,16,26,182,50,1*6D
$GPGSV,2,2,06,21,45,263,52,23,27,048,50,,,,,,,,,1*6D
$GPRMC,000153.00,A,4852.3406033,N,00217.7281222,E,32.13,260.94,180502,0.0,E,A*06
$GPGGA,000153.00,4852.3406033,N,00217.7281222,E,1,06,1.0,-5.712,M,0.000,M,0.0,*5E
$GPGSA,A,3,01,08,10,16,21,23,,,,,,,2.2,1.3,1.8,1*29
$GPGSV,2,1,06,01,16,255,48,08,74,298,56,10,55,075,55,16,26,182,51,1*6D
$GPGSV,2,2,06,21,45,263,54,23,27,048,50,,,,,,,,,1*6B
$GPRMC,000154.00,A,4852.3398934,N,00217.7136011,E,32.43,263.91,180502,0.0,E,A*01
$GPGGA,000154.00,4852.3398934,N,00217.7136011,E,1,06,1.0,-9.697,M,0.000,M,0.0,*5A
$GPGSA,A,3,01,08,10,16,21,23,,,,,,,2.2,1.3,1.8,1*29
$GPGSV,2,1,06,01,16,255,49,08,74,298,58,10,55,075,56,16,26,182,50,1*60
$GPGSV,2,2,06,21,45,263,56,23,27,048,49,,,,,,,,,1*61
$GPRMC,000155.00,A,4852.3385514,N,00217.7007218,E,32.69,270.94,180502,0.0,E,A*05
$GPGGA,000155.00,4852.3385514,N,00217.7007218,E,1,06,1.0,-7.155,M,0.000,M,0.0,*56
$GPGSA,A,3,01,08,10,16,21,23,,,,,,,2.2,1.3,1.8,1*29
$GPGSV,2,1,06,01,16,255,48,08,74,298,55,10,55,075,55,16,26,182,50,1*6F
$GPGSV,2,2,06,21,45,263,54,23,27,048,50,,,,,,,,,1*6B
$GPRMC,000156.00,A,4852.3393635,N,00217.6891004,E,32.46,276.76,180502,0.0,E,A*0F
$GPGGA,000156.00,4852.3393635,N,00217.6891004,E,1,06,1.0,-12.036,M,0.000,M,0.0,*6B
$GPGSA,A,3,01,08,10,16,21,23,,,,,,,2.2,1.3,1.8,1*29
$GPGSV,2,1,06,01,16,255,48,08,74,298,57,10,55,075,55,16,26,182,49,1*65
$GPGSV,2,2,06,21,45,263,54,23,27,048,50,,,,,,,,,1*6B
$GPRMC,000157.00,A,4852.3399110,N,00217.6753874,E,32.31,280.56,180502,0.0,E,A*01
$GPGGA,000157.00,4852.3399110,N,00217.6753874,E,1,06,1.0,-12.036,M,0.000,M,0.0,*6E
$GPGSA,A,3,01,08,10,16,21,23,,,,,,,2.2,1.3,1.8,1*29
$GPGSV,2,1,06,01,16,255,49,08,74,298,58,10,55,075,56,16,26,182,49,1*68
$GPGSV,2,2,06,21,45,263,54,23,27,048,49,,,,,,,,,1*63
$GPRMC,000158.00,A,4852.3443305,N,00217.6609262,E,33.03,286.77,180502,0.0,E,A*0E
$GPGGA,000158.00,4852.3443305,N,00217.6609262,E,1,06,1.0,-19.531,M,0.000,M,0.0,*6D
$GPGSA,A,3,01,08,10,16,21,23,,,,,,,2.2,1.3,1.8,1*29
$GPGSV,2,1,06,01,16,255,49,08,74,298,56,10,55,075,54,16,26,182,48,1*65
$GPGSV,2,2,06,21,45,263,54,23,27,048,50,,,,,,,,,1*6B
$GPRMC,000159.00,A,4852.3460499,N,00217.6473680,E,31.74,289.53,180502,0.0,E,A*00
$GPGGA,000159.00,4852.3460499,N,00217.6473680,E,1,06,1.0,-14.011,M,0.000,M,0.0,*62
$GPGSA,A,3,01,08,10,16,21,23,,,,,,,2.2,1.3,1.8,1*29
$GPGSV,2,1,06,01,16,255,48,08,74,298,56,10,55,075,55,16,26,182,49,1*64
$GPGSV,2,2,06,21,45,263,53,23,27,048,51,,,,,,,,,1*6D
$GPRMC,000200.00,A,4852.3487449,N,00217.6347340,E,30.35,296.38,180502,0.0,E,A*05
$GPGGA,000200.00,4852.3487449,N,00217.6347340,E,1,06,1.0,-9.061,M,0.000,M,0.0,*5B
$GPGSA,A,3,01,08,10,16,21,23,,,,,,,2.2,1.3,1.8,1*29
$GPGSV,2,1,06,01,16,255,48,08,74,298,54,10,55,075,54,16,26,182,50,1*6F
$GPGSV,2,2,06,21,45,263,53,23,27,048,50,,,,,,,,,1*6C
$GPRMC,000201.00,A,4852.3531314,N,00217.6250812,E,23.55,302.38,180502,0.0,E,A*04
$GPGGA,000201.00,4852.3531314,N,00217.6250812,E,1,06,1.0,-8.693,M,0.000,M,0.0,*58
$GPGSA,A,3,01,08,10,16,21,23,,,,,,,2.2,1.3,1.8,1*29
$GPGSV,2,1,06,01,16,255,49,08,74,298,56,10,55,075,56,16,26,182,48,1*67
$GPGSV,2,2,06,21,45,263,52,23,27,048,50,,,,,,,,,1*6D
$GPRMC,000202.00,A,4852.3568464,N,00217.6168865,E,23.93,308.33,180502,0.0,E,A*08
$GPGGA,000202.00,4852.3568464,N,00217.6168865,E,1,06,1.0,-6.168,M,0.000,M,0.0,*52
$GPGSA,A,3,01,08,10,16,21,23,,,,,,,2.2,1.3,1.8,1*29
$GPGSV,2,1,06,01,16,255,49,08,74,298,56,10,55,075,55,16,26,182,50,1*6D
$GPGSV,2,2,06,21,45,263,51,23,27,048,49,,,,,,,,,1*66
$GPRMC,000203.00,A,4852.3616414,N,00217.6109998,E,24.51,310.05,180502,0.0,E,A*05
$GPGGA,000203.00,4852.3616414,N,00217.6109998,E,1,06,1.0,-4.209,M,0.000,M,0.0,*5C
$GPGSA,A,3,01,08,10,16,21,23,,,,,,,2.2,1.3,1.8,1*29
$GPGSV,2,1,06,01,16,255,46,08,74,298,57,10,55,075,54,16,26,182,50,1*62
$GPGSV,2,2,06,21,45,263,52,23,27,048,50,,,,,,,,,1*6D
$GPRMC,000204.00,A,4852.3656837,N,00217.6019318,E,22.17,315.20,180502,0.0,E,A*0F
$GPGGA,000204.00,4852.3656837,N,00217.6019318,E,1,06,1.0,-1.229,M,0.000,M,0.0,*57
$GPGSA,A,3,01,08,10,16,21,23,,,,,,,2.2,1.3,1.8,1*29
$GPGSV,2,1,06,01,16,255,47,08,74,298,56,10,55,075,57,16,26,182,50,1*61
$GPGSV,2,2,06,21,45,263,52,23,27,048,52,,,,,,,,,1*6F
$GPRMC,000205.00,A,4852.3699977,N,00217.5951061,E,28.51,322.81,180502,0.0,E,A*04
$GPGGA,000205.00,4852.3699977,N,00217.5951061,E,1,06,1.0,1.304,M,0.000,M,0.0,*78
$GPGSA,A,3,01,08,10,16,21,23,,,,,,,2.2,1.3,1.8,1*29
$GPGSV,2,1,06,01,16,255,47,08,74,298,56,10,55,075,58,16,26,182,50,1*6E
$GPGSV,2,2,06,21,45,263,52,23,27,047,52,,,,,,,,,1*60
$GPRMC,000206.00,A,4852.3781719,N,00217.5886718,E,33.51,329.64,180502,0.0,E,A*01
$GPGGA,000206.00,4852.3781719,N,00217.5886718,E,1,06,1.0,-4.137,M,0.000,M,0.0,*5D
$GPGSA,A,3,01,08,10,16,21,23,,,,,,,2.2,1.3,1.8,1*29
$GPGSV,2,1,06,01,16,255,48,08,74,298,59,10,55,075,57,16,26,182,50,1*61
$GPGSV,2,2,06,21,45,263,53,23,27,047,51,,,,,,,,,1*62
$GPRMC,000207.00,A,4852.3858359,N,00217.5827900,E,31.73,333.59,180502,0.0,E,A*00
$GPGGA,000207.00,4852.3858359,N,00217.5827900,E,1,06,1.0,-7.118,M,0.000,M,0.0,*55
$GPGSA,A,3,01,08,10,16,21,23,,,,,,,2.2,1.3,1.8,1*29
$GPGSV,2,1,06,01,16,255,48,08,74,298,57,10,55,075,55,16,26,182,50,1*6D
$GPGSV,2,2,06,21,45,263,54,23,27,047,49,,,,,,,,,1*6C
$GPRMC,000208.00,A,4852.3939870,N,00217.5754518,E,32.25,338.03,180502,0.0,E,A*03
$GPGGA,000208.00,4852.3939870,N,00217.5754518,E,1,06,1.0,-8.470,M,0.000,M,0.0,*56
$GPGSA,A,3,01,08,10,16,21,23,,,,,,,2.2,1.3,1.8,1*29
$GPGSV,2,1,06,01,16,255,48,08,74,298,55,10,55,075,54,16,26,182,50,1*6E
$GPGSV,2,2,06,21,45,263,54,23,27,047,51,,,,,,,,,1*65
$GPRMC,000209.00,A,4852.4028294,N,00217.5712452,E,32.51,343.42,180502,0.0,E,A*0B
$GPGGA,000209.00,4852.4028294,N,00217.5712452,E,1,06,1.0,-11.261,M,0.000,M,0.0,*6A
$GPGSA,A,3,01,08,10,16,21,23,,,,,,,2.2,1.3,1.8,1*29
$GPGSV,2,1,06,01,16,255,49,08,74,298,57,10,55,075,55,16,26,182,50,1*6C
$GPGSV,2,2,06,21,45,263,52,23,27,047,52,,,,,,,,,1*60
$GPRMC,000210.00,A,4852.4108083,N,00217.5694677,E,32.02,348.31,180502,0.0,E,A*07
$GPGGA,000210.00,4852.4108083,N,00217.5694677,E,1,06,1.0,-12.478,M,0.000,M,0.0,*62
$GPGSA,A,3,01,08,10,16,21,23,,,,,,,2.2,1.3,1.8,1*29
$GPGSV,2,1,06,01,16,255,48,08,74,298,56,10,55,075,53,16,26,182,50,1*6A
$GPGSV,2,2,06,21,45,263,54,23,27,047,52,,,,,,,,,1*66
$GPRMC,000211.00,A,4852.4203189,N,00217.5672558,E,31.14,351.33,180502,0.0,E,A*0D
$GPGGA,000211.00,4852.4203189,N,00217.5672558,E,1,06,1.0,-16.070,M,0.000,M,0.0,*6E
$GPGSA,A,3,01,08,10,16,21,23,,,,,,,2.2,1.3,1.8,1*29
$GPGSV,2,1,06,01,16,255,47,08,74,298,55,10,55,075,53,16,26,182,48,1*6F
$GPGSV,2,2,06,21,45,263,54,23,27,047,50,,,,,,,,,1*64
$GPRMC,000212.00,A,4852.4290946,N,00217.5649645,E,33.37,355.78,180502,0.0,E,A*00
$GPGGA,000212.00,4852.4290946,N,00217.5649645,E,1,06,1.0,-16.182,M,0.000,M,0.0,*67
$GPGSA,A,3,01,08,10,16,21,23,,,,,,,2.2,1.3,1.8,1*29
$GPGSV,2,1,06,01,16,255,49,08,74,298,56,10,55,075,56,16,26,182,49,1*66
$GPGSV,2,2,06,21,45,263,53,23,27,047,48,,,,,,,,,1*6A
$GPRMC,000213.00,A,4852.4372799,N,00217.5648196,E,31.62,2.85,180502,0.0,E,A*09
$GPGGA,000213.00,4852.4372799,N,00217.5648196,E,1,06,1.0,-12.396,M,0.000,M,0.0,*6C
$GPGSA,A,3,01,08,10,16,21,23,,,,,,,2.2,1.3,1.8,1*29
$GPGSV,2,1,06,01,16,255,46,08,74,298,54,10,55,075,54,16,26,182,50,1*61
$GPGSV,2,2,06,21,45,263,54,23,27,047,50,,,,,,,,,1*64
$GPRMC,000214.00,A,4852.4468673,N,00217.5670791,E,32.70,8.54,180502,0.0,E,A*0B
$GPGGA,000214.00,4852.4468673,N,00217.5670791,E,1,06,1.0,-11.796,M,0.000,M,0.0,*6F
$GPGSA,A,3,01,08,10,16,21,23,,,,,,,2.2,1.3,1.8,1*29
$GPGSV,2,1,06,01,16,255,48,08,74,298,56,10,55,075,54,16,26,182,50,1*6D
$GPGSV,2,2,06,21,45,263,53,23,27,047,49,,,,,,,,,1*6B
$GPRMC,000215.00,A,4852.4542100,N,00217.5697500,E,23.02,14.60,180502,0.0,E,A*3C
$GPGGA,000215.00,4852.4542100,N,00217.5697500,E,1,06,1.0,-10.672,M,0.000,M,0.0,*6D
$GPGSA,A,3,01,08,10,16,21,23,,,,,,,2.2,1.3,1.8,1*29
$GPGSV,2,1,06,01,16,255,48,08,74,298,56,10,55,075,54,16,26,182,50,1*6D
$GPGSV,2,2,06,21,45,263,54,23,27,047,50,,,,,,,,,1*64
$GPRMC,000216.00,A,4852.4593793,N,00217.5719130,E,14.64,17.67,180502,0.0,E,A*3F
$GPGGA,000216.00,4852.4593793,N,00217.5719130,E,1,06,1.0,-11.203,M,0.000,M,0.0,*6D
$GPGSA,A,3,01,08,10,16,21,23,,,,,,,2.2,1.3,1.8,1*29
$GPGSV,2,1,06,01,16,255,48,08,74,298,56,10,55,075,54,16,26,182,50,1*6D
$GPGSV,2,2,06,21,45,263,53,23,27,047,50,,,,,,,,,1*63
$GPRMC,000217.00,A,4852.4611952,N,00217.5720312,E,4.39,20.82,180502,0.0,E,A*0A
$GPGGA,000217.00,4852.4611952,N,00217.5720312,E,1,06,1.0,-6.722,M,0.000,M,0.0,*5E
$GPGSA,A,3,01,08,10,16,21,23,,,,,,,2.2,1.3,1.8,1*29
$GPGSV,2,1,06,01,16,255,48,08,74,298,56,10,55,075,55,16,26,182,49,1*64
$GPGSV,2,2,06,21,45,263,52,23,27,047,50,,,,,,,,,1*62
$GPRMC,000218.00,A,4852.4620318,N,00217.5720864,E,1.04,20.82,180502,0.0,E,A*02
$GPGGA,000218.00,4852.4620318,N,00217.5720864,E,1,06,1.0,-5.417,M,0.000,M,0.0,*5B
$GPGSA,A,3,01,08,10,16,21,23,,,,,,,2.2,1.3,1.8,1*29
$GPGSV,2,1,06,01,16,255,50,08,74,298,56,10,55,075,57,16,26,182,50,1*67
$GPGSV,2,2,06,21,45,263,52,23,27,047,50,,,,,,,,,1*62
$GPRMC,000219.00,A,4852.4613363,N,00217.5715577,E,0.80,20.82,180502,0.0,E,A*0B
$GPGGA,000219.00,4852.4613363,N,00217.5715577,E,1,06,1.0,-6.057,M,0.000,M,0.0,*5C
$GPGSA,A,3,01,08,10,16,21,23,,,,,,,2.2,1.3,1.8,1*29
$GPGSV,2,1,06,01,16,255,48,08,74,298,56,10,55,075,55,16,26,182,52,1*6E
$GPGSV,2,2,06,21,45,263,51,23,27,047,50,,,,,,,,,1*61
$GPRMC,000220.00,A,4852.4610322,N,00217.5719673,E,1.20,20.82,180502,0.0,E,A*07
$GPGGA,000220.00,4852.4610322,N,00217.5719673,E,1,06,1.0,-5.478,M,0.000,M,0.0,*51
$GPGSA,A,3,01,08,10,16,21,23,,,,,,,2.2,1.3,1.8,1*29
$GPGSV,2,1,06,01,16,255,50,08,74,298,55,10,55,075,54,16,26,182,51,1*66
$GPGSV,2,2,06,21,45,263,52,23,27,047,50,,,,,,,,,1*62
$GPRMC,000221.00,A,4852.4626903,N,00217.5708489,E,1.88,20.82,180502,0.0,E,A*0F
$GPGGA,000221.00,4852.4626903,N,00217.5708489,E,1,06,1.0,-3.811,M,0.000,M,0.0,*5E
$GPGSA,A,3,01,08,10,16,21,23,,,,,,,2.2,1.3,1.8,1*29
$GPGSV,2,1,06,01,16,255,49,08,74,298,56,10,55,075,55,16,26,182,50,1*6D
$GPGSV,2,2,06,21,45,263,54,23,27,047,50,,,,,,,,,1*64
$GPRMC,000222.00,A,4852.4625700,N,00217.5691392,E,0.78,20.82,180502,0.0,E,A*00
$GPGGA,000222.00,4852.4625700,N,00217.5691392,E,1,06,1.0,-2.086,M,0.000,M,0.0,*58
$GPGSA,A,3,01,08,10,16,21,23,,,,,,,2.2,1.3,1.8,1*29
$GPGSV,2,1,06,01,16,255,48,08,74,298,55,10,55,075,54,16,26,182,50,1*6E
$GPGSV,2,2,06,21,45,263,54,23,27,047,50,,,,,,,,,1*64
