$GPRMC,000030.00,A,4852.4662587,N,00217.5805414,E,1.19,0.00,180502,0.0,E,A*3B
$GPGGA,000030.00,4852.4662587,N,00217.5805414,E,1,06,1.0,-8.476,M,0.000,M,0.0,*5C
$GPGSA,A,3,01,08,10,16,21,23,,,,,,,2.2,1.3,1.8,1*29
$GPGSV,2,1,06,01,15,255,47,08,73,299,56,10,56,076,54,16,27,182,50,1*66
$GPGSV,2,2,06,21,45,263,53,23,28,048,50,,,,,,,,,1*63
$GPRMC,000031.00,A,4852.4660686,N,00217.5818028,E,0.54,0.00,180502,0.0,E,A*35
$GPGGA,000031.00,4852.4660686,N,00217.5818028,E,1,06,1.0,-9.741,M,0.000,M,0.0,*5C
$GPGSA,A,3,01,08,10,16,21,23,,,,,,,2.2,1.3,1.8,1*29
$GPGSV,2,1,06,01,15,255,47,08,73,299,57,10,56,076,54,16,27,182,50,1*67
$GPGSV,2,2,06,21,45,263,54,23,28,048,50,,,,,,,,,1*64
$GPRMC,000032.00,A,4852.4666250,N,00217.5821019,E,1.28,0.00,180502,0.0,E,A*3D
$GPGGA,000032.00,4852.4666250,N,00217.5821019,E,1,06,1.0,-15.230,M,0.000,M,0.0,*60
$GPGSA,A,3,01,08,10,16,21,23,,,,,,,2.2,1.3,1.8,1*29
$GPGSV,2,1,06,01,15,255,48,08,73,299,57,10,56,076,54,16,27,182,50,1*68
$GPGSV,2,2,06,21,45,263,53,23,28,048,51,,,,,,,,,1*62
$GPRMC,000033.00,A,4852.4665700,N,00217.5806397,E,1.51,0.00,180502,0.0,E,A*31
$GPGGA,000033.00,4852.4665700,N,00217.5806397,E,1,06,1.0,-15.322,M,0.000,M,0.0,*60
$GPGSA,A,3,01,08,10,16,21,23,,,,,,,2.2,1.3,1.8,1*29
$GPGSV,2,1,06,01,15,255,48,08,73,299,56,10,56,076,54,16,27,182,49,1*61
$GPGSV,2,2,06,21,45,263,54,23,28,048,50,,,,,,,,,1*64
$GPRMC,000034.00,A,4852.4669008,N,00217.5813381,E,1.85,0.00,180502,0.0,E,A*3F
$GPGGA,000034.00,4852.4669008,N,00217.5813381,E,1,06,1.0,-13.868,M,0.000,M,0.0,*64
$GPGSA,A,3,01,08,10,16,21,23,,,,,,,2.2,1.3,1.8,1*29
$GPGSV,2,1,06,01,15,255,48,08,73,299,56,10,56,076,54,16,27,182,50,1*69
$GPGSV,2,2,06,21,45,263,52,23,28,048,50,,,,,,,,,1*62
$GPRMC,000035.00,A,4852.4661282,N,00217.5808878,E,0.37,0.00,180502,0.0,E,A*39
$GPGGA,000035.00,4852.4661282,N,00217.5808878,E,1,06,1.0,-7.653,M,0.000,M,0.0,*59
$GPGSA,A,3,01,08,10,16,21,23,,,,,,,2.2,1.3,1.8,1*29
$GPGSV,2,1,06,01,15,255,47,08,73,299,58,10,56,076,57,16,27,182,50,1*6B
$GPGSV,2,2,06,21,45,263,52,23,27,048,51,,,,,,,,,1*6C
$GPRMC,000036.00,A,4852.4672744,N,00217.5796390,E,0.93,0.00,180502,0.0,E,A*3C
$GPGGA,000036.00,4852.4672744,N,00217.5796390,E,1,06,1.0,-8.339,M,0.000,M,0.0,*54
$GPGSA,A,3,01,08,10,16,21,23,,,,,,,2.2,1.3,1.8,1*29
$GPGSV,2,1,06,01,15,255,49,08,73,299,57,10,56,076,57,16,27,182,51,1*6B
$GPGSV,2,2,06,21,45,263,54,23,27,048,50,,,,,,,,,1*6B
$GPRMC,000037.00,A,4852.4677441,N,00217.5783639,E,0.60,0.00,180502,0.0,E,A*30
$GPGGA,000037.00,4852.4677441,N,00217.5783639,E,1,06,1.0,-2.601,M,0.000,M,0.0,*50
$GPGSA,A,3,01,08,10,16,21,23,,,,,,,2.2,1.3,1.8,1*29
$GPGSV,2,1,06,01,15,255,47,08,73,299,59,10,56,076,56,16,27,182,49,1*63
$GPGSV,2,2,06,21,45,263,53,23,27,048,50,,,,,,,,,1*6C
$GPRMC,000038.00,A,4852.4664009,N,00217.5801735,E,0.53,0.00,180502,0.0,E,A*3D
$GPGGA,000038.00,4852.4664009,N,00217.5801735,E,1,06,1.0,-2.124,M,0.000,M,0.0,*5D
$GPGSA,A,3,01,08,10,16,21,23,,,,,,,2.2,1.3,1.8,1*29
$GPGSV,2,1,06,01,15,255,48,08,73,299,55,10,56,076,55,16,27,182,50,1*6B
$GPGSV,2,2,06,21,45,263,53,23,27,048,50,,,,,,,,,1*6C
$GPRMC,000039.00,A,4852.4669056,N,00217.5808812,E,0.80,0.00,180502,0.0,E,A*36
$GPGGA,000039.00,4852.4669056,N,00217.5808812,E,1,06,1.0,-7.797,M,0.000,M,0.0,*53
$GPGSA,A,3,01,08,10,16,21,23,,,,,,,2.2,1.3,1.8,1*29
$GPGSV,2,1,06,01,15,255,48,08,73,299,56,10,56,076,54,16,27,182,50,1*69
$GPGSV,2,2,06,21,45,263,52,23,27,048,52,,,,,,,,,1*6F
$GPRMC,000040.00,A,4852.4669671,N,00217.5787055,E,1.62,0.00,180502,0.0,E,A*35
$GPGGA,000040.00,4852.4669671,N,00217.5787055,E,1,06,1.0,-7.037,M,0.000,M,0.0,*50
$GPGSA,A,3,01,08,10,16,21,23,,,,,,,2.2,1.3,1.8,1*29
$GPGSV,2,1,06,01,15,255,48,08,73,299,57,10,56,076,55,16,27,182,50,1*69
$GPGSV,2,2,06,21,45,263,52,23,27,048,50,,,,,,,,,1*6D
$GPRMC,000041.00,A,4852.4665695,N,00217.5803625,E,0.52,0.00,180502,0.0,E,A*32
$GPGGA,000041.00,4852.4665695,N,00217.5803625,E,1,06,1.0,-10.909,M,0.000,M,0.0,*67
$GPGSA,A,3,01,08,10,16,21,23,,,,,,,2.2,1.3,1.8,1*29
$GPGSV,2,1,06,01,15,255,47,08,73,299,55,10,56,076,54,16,27,182,50,1*65
$GPGSV,2,2,06,21,45,263,54,23,27,048,50,,,,,,,,,1*6B
$GPRMC,000042.00,A,4852.4658059,N,00217.5820770,E,0.85,0.00,180502,0.0,E,A*33
$GPGGA,000042.00,4852.4658059,N,00217.5820770,E,1,06,1.0,-14.052,M,0.000,M,0.0,*6F
$GPGSA,A,3,01,08,10,16,21,23,,,,,,,2.2,1.3,1.8,1*29
$GPGSV,2,1,06,01,15,255,49,08,73,299,57,10,56,076,54,16,27,182,50,1*69
$GPGSV,2,2,06,21,45,263,53,23,27,048,50,,,,,,,,,1*6C
$GPRMC,000043.00,A,4852.4667966,N,00217.5812372,E,0.96,0.00,180502,0.0,E,A*3E
$GPGGA,000043.00,4852.4667966,N,00217.5812372,E,1,06,1.0,-16.881,M,0.000,M,0.0,*64
$GPGSA,A,3,01,08,10,16,21,23,,,,,,,2.2,1.3,1.8,1*29
$GPGSV,2,1,06,01,15,255,47,08,73,299,56,10,56,076,54,16,27,182,48,1*6F
$GPGSV,2,2,06,21,45,263,54,23,27,048,52,,,,,,,,,1*69
$GPRMC,000044.00,A,4852.4663513,N,00217.5806330,E,0.68,0.00,180502,0.0,E,A*31
$GPGGA,000044.00,4852.4663513,N,00217.5806330,E,1,06,1.0,-13.101,M,0.000,M,0.0,*6E
$GPGSA,A,3,01,08,10,16,21,23,,,,,,,2.2,1.3,1.8,1*29
$GPGSV,2,1,06,01,15,255,49,08,73,299,58,10,56,076,56,16,27,182,48,1*6D
$GPGSV,2,2,06,21,45,263,52,23,27,048,51,,,,,,,,,1*6C
$GPRMC,000045.00,A,4852.4664017,N,00217.5802173,E,0.41,0.00,180502,0.0,E,A*3C
$GPGGA,000045.00,4852.4664017,N,00217.5802173,E,1,06,1.0,-10.377,M,0.000,M,0.0,*68
$GPGSA,A,3,01,08,10,16,21,23,,,,,,,2.2,1.3,1.8,1*29
$GPGSV,2,1,06,01,15,255,48,08,73,299,57,10,56,076,56,16,27,182,48,1*63
$GPGSV,2,2,06,21,45,263,52,23,27,048,50,,,,,,,,,1*6D
$GPRMC,000046.00,A,4852.4672188,N,00217.5808335,E,0.46,0.00,180502,0.0,E,A*32
$GPGGA,000046.00,4852.4672188,N,00217.5808335,E,1,06,1.0,-11.115,M,0.000,M,0.0,*66
$GPGSA,A,3,01,08,10,16,21,23,,,,,,,2.2,1.3,1.8,1*29
$GPGSV,2,1,06,01,15,255,49,08,73,299,55,10,56,076,56,16,27,182,48,1*60
$GPGSV,2,2,06,21,45,263,51,23,27,048,50,,,,,,,,,1*6E
$GPRMC,000047.00,A,4852.4662316,N,00217.5796481,E,1.54,0.00,180502,0.0,E,A*35
$GPGGA,000047.00,4852.4662316,N,00217.5796481,E,1,06,1.0,-4.157,M,0.000,M,0.0,*51
$GPGSA,A,3,01,08,10,16,21,23,,,,,,,2.2,1.3,1.8,1*29
$GPGSV,2,1,06,01,15,255,50,08,73,299,57,10,56,076,58,16,27,182,49,1*65
$GPGSV,2,2,06,21,45,263,52,23,27,048,52,,,,,,,,,1*6F
$GPRMC,000048.00,A,4852.4673102,N,00217.5779611,E,1.33,0.00,180502,0.0,E,A*36
$GPGGA,000048.00,4852.4673102,N,00217.5779611,E,1,06,1.0,-2.649,M,0.000,M,0.0,*5D
$GPGSA,A,3,01,08,10,16,21,23,,,,,,,2.2,1.3,1.8,1*29
$GPGSV,2,1,06,01,15,255,50,08,73,299,57,10,56,076,55,16,27,182,50,1*60
$GPGSV,2,2,06,21,45,263,54,23,27,048,49,,,,,,,,,1*63
$GPRMC,000049.00,A,4852.4672530,N,00217.5791391,E,1.43,0.00,180502,0.0,E,A*3F
$GPGGA,000049.00,4852.4672530,N,00217.5791391,E,1,06,1.0,-5.463,M,0.000,M,0.0,*5E
$GPGSA,A,3,01,08,10,16,21,23,,,,,,,2.2,1.3,1.8,1*29
$GPGSV,2,1,06,01,15,255,49,08,73,299,57,10,56,076,54,16,27,182,49,1*61
$GPGSV,2,2,06,21,45,263,51,23,27,048,50,,,,,,,,,1*6E
$GPRMC,000050.00,A,4852.4658268,N,00217.5809868,E,1.13,0.00,180502,0.0,E,A*33
$GPGGA,000050.00,4852.4658268,N,00217.5809868,E,1,06,1.0,-6.842,M,0.000,M,0.0,*5B
$GPGSA,A,3,01,08,10,16,21,23,,,,,,,2.2,1.3,1.8,1*29
$GPGSV,2,1,06,01,15,255,49,08,73,299,56,10,56,076,55,16,27,182,51,1*68
$GPGSV,2,2,06,21,45,263,52,23,27,048,51,,,,,,,,,1*6C
$GPRMC,000051.00,A,4852.4671726,N,00217.5807607,E,1.18,0.00,180502,0.0,E,A*34
$GPGGA,000051.00,4852.4671726,N,00217.5807607,E,1,06,1.0,-9.595,M,0.000,M,0.0,*5F
$GPGSA,A,3,01,08,10,16,21,23,,,,,,,2.2,1.3,1.8,1*29
$GPGSV,2,1,06,01,15,255,49,08,73,299,57,10,56,076,55,16,27,182,52,1*6A
$GPGSV,2,2,06,21,45,263,54,23,27,048,53,,,,,,,,,1*68
$GPRMC,000052.00,A,4852.4667832,N,00217.5797386,E,1.97,136.90,180502,0.0,E,A*3A
$GPGGA,000052.00,4852.4667832,N,00217.5797386,E,1,06,1.0,-10.190,M,0.000,M,0.0,*62
$GPGSA,A,3,01,08,10,16,21,23,,,,,,,2.2,1.3,1.8,1*29
$GPGSV,2,1,06,01,15,255,48,08,73,299,56,10,56,076,56,16,27,182,49,1*63
$GPGSV,2,2,06,21,45,263,54,23,27,048,51,,,,,,,,,1*6A
$GPRMC,000053.00,A,4852.4661845,N,00217.5818610,E,1.41,136.90,180502,0.0,E,A*34
$GPGGA,000053.00,4852.4661845,N,00217.5818610,E,1,06,1.0,-15.879,M,0.000,M,0.0,*6C
$GPGSA,A,3,01,08,10,16,21,23,,,,,,,2.2,1.3,1.8,1*29
$GPGSV,2,1,06,01,15,255,48,08,73,299,57,10,56,076,56,16,27,182,49,1*62
$GPGSV,2,2,06,21,45,263,52,23,27,048,49,,,,,,,,,1*65
$GPRMC,000054.00,A,4852.4662698,N,00217.5830260,E,0.43,136.90,180502,0.0,E,A*34
$GPGGA,000054.00,4852.4662698,N,00217.5830260,E,1,06,1.0,-15.753,M,0.000,M,0.0,*68
$GPGSA,A,3,01,08,10,16,21,23,,,,,,,2.2,1.3,1.8,1*29
$GPGSV,2,1,06,01,15,255,49,08,73,299,57,10,56,076,55,16,27,182,50,1*68
$GPGSV,2,2,06,21,45,263,53,23,27,048,49,,,,,,,,,1*64
$GPRMC,000055.00,A,4852.4663742,N,00217.5810542,E,0.52,136.90,180502,0.0,E,A*37
$GPGGA,000055.00,4852.4663742,N,00217.5810542,E,1,06,1.0,-12.197,M,0.000,M,0.0,*62
$GPGSA,A,3,01,08,10,16,21,23,,,,,,,2.2,1.3,1.8,1*29
$GPGSV,2,1,06,01,15,255,49,08,73,299,59,10,56,076,58,16,27,182,51,1*6A
$GPGSV,2,2,06,21,45,263,52,23,27,048,50,,,,,,,,,1*6D
$GPRMC,000056.00,A,4852.4665025,N,00217.5808808,E,1.23,136.90,180502,0.0,E,A*39
$GPGGA,000056.00,4852.4665025,N,00217.5808808,E,1,06,1.0,-11.068,M,0.000,M,0.0,*69
$GPGSA,A,3,01,08,10,16,21,23,,,,,,,2.2,1.3,1.8,1*29
$GPGSV,2,1,06,01,15,255,48,08,73,299,58,10,56,076,56,16,27,182,48,1*6C
$GPGSV,2,2,06,21,45,263,54,23,27,048,50,,,,,,,,,1*6B
$GPRMC,000057.00,A,4852.4662541,N,00217.5814003,E,1.86,136.90,180502,0.0,E,A*39
$GPGGA,000057.00,4852.4662541,N,00217.5814003,E,1,06,1.0,-6.096,M,0.000,M,0.0,*51
$GPGSA,A,3,01,08,10,16,21,23,,,,,,,2.2,1.3,1.8,1*29
$GPGSV,2,1,06,01,16,255,50,08,73,299,57,10,56,076,55,16,27,182,50,1*63
$GPGSV,2,2,06,21,45,263,53,23,27,048,50,,,,,,,,,1*6C
$GPRMC,000058.00,A,4852.4667102,N,00217.5816984,E,1.12,136.90,180502,0.0,E,A*39
$GPGGA,000058.00,4852.4667102,N,00217.5816984,E,1,06,1.0,-5.218,M,0.000,M,0.0,*5B
$GPGSA,A,3,01,08,10,16,21,23,,,,,,,2.2,1.3,1.8,1*29
$GPGSV,2,1,06,01,16,255,48,08,73,299,57,10,56,076,56,16,27,182,51,1*68
$GPGSV,2,2,06,21,45,263,52,23,27,048,50,,,,,,,,,1*6D
$GPRMC,000059.00,A,4852.4667399,N,00217.5797532,E,0.89,136.90,180502,0.0,E,A*3C
$GPGGA,000059.00,4852.4667399,N,00217.5797532,E,1,06,1.0,-0.635,M,0.000,M,0.0,*53
$GPGSA,A,3,01,08,10,16,21,23,,,,,,,2.2,1.3,1.8,1*29
$GPGSV,2,1,06,01,16,255,50,08,73,299,57,10,56,076,57,16,26,182,52,1*62
$GPGSV,2,2,06,21,45,263,53,23,27,048,51,,,,,,,,,1*6D
$GPRMC,000100.00,A,4852.4668237,N,00217.5792622,E,0.66,136.90,180502,0.0,E,A*3D
$GPGGA,000100.00,4852.4668237,N,00217.5792622,E,1,06,1.0,0.243,M,0.000,M,0.0,*7B
$GPGSA,A,3,01,08,10,16,21,23,,,,,,,2.2,1.3,1.8,1*29
$GPGSV,2,1,06,01,16,255,49,08,73,299,56,10,56,076,57,16,26,182,50,1*69
$GPGSV,2,2,06,21,45,263,53,23,27,048,50,,,,,,,,,1*6C
$GPRMC,000101.00,A,4852.4665771,N,00217.5817007,E,0.63,136.90,180502,0.0,E,A*30
$GPGGA,000101.00,4852.4665771,N,00217.5817007,E,1,06,1.0,-4.790,M,0.000,M,0.0,*51
$GPGSA,A,3,01,08,10,16,21,23,,,,,,,2.2,1.3,1.8,1*29
$GPGSV,2,1,06,01,16,255,48,08,73,299,55,10,56,076,55,16,26,182,50,1*69
$GPGSV,2,2,06,21,45,263,52,23,27,048,51,,,,,,,,,1*6C
$GPRMC,000102.00,A,4852.4655903,N,00217.5811175,E,0.55,136.90,180502,0.0,E,A*3C
$GPGGA,000102.00,4852.4655903,N,00217.5811175,E,1,06,1.0,-5.534,M,0.000,M,0.0,*55
$GPGSA,A,3,01,08,10,16,21,23,,,,,,,2.2,1.3,1.8,1*29
$GPGSV,2,1,06,01,16,255,49,08,73,299,56,10,56,076,55,16,26,182,49,1*63
$GPGSV,2,2,06,21,45,263,53,23,27,048,50,,,,,,,,,1*6C
$GPRMC,000103.00,A,4852.4671116,N,00217.5809670,E,1.54,136.90,180502,0.0,E,A*3C
$GPGGA,000103.00,4852.4671116,N,00217.5809670,E,1,06,1.0,-8.947,M,0.000,M,0.0,*50
$GPGSA,A,3,01,08,10,16,21,23,,,,,,,2.2,1.3,1.8,1*29
$GPGSV,2,1,06,01,16,255,48,08,73,299,56,10,56,076,56,16,26,182,50,1*69
$GPGSV,2,2,06,21,45,263,53,23,27,048,51,,,,,,,,,1*6D
$GPRMC,000104.00,A,4852.4663662,N,00217.5814720,E,1.60,136.90,180502,0.0,E,A*33
$GPGGA,000104.00,4852.4663662,N,00217.5814720,E,1,06,1.0,-9.855,M,0.000,M,0.0,*5B
$GPGSA,A,3,01,08,10,16,21,23,,,,,,,2.2,1.3,1.8,1*29
$GPGSV,2,1,06,01,16,255,47,08,73,299,58,10,56,076,56,16,26,182,50,1*68
$GPGSV,2,2,06,21,45,263,54,23,27,048,50,,,,,,,,,1*6B
$GPRMC,000105.00,A,4852.4656510,N,00217.5829052,E,2.02,353.10,180502,0.0,E,A*30
$GPGGA,000105.00,4852.4656510,N,00217.5829052,E,1,06,1.0,-13.270,M,0.000,M,0.0,*60
$GPGSA,A,3,01,08,10,16,21,23,,,,,,,2.2,1.3,1.8,1*29
$GPGSV,2,1,06,01,16,255,48,08,73,299,58,10,56,076,55,16,26,182,50,1*64
$GPGSV,2,2,06,21,45,263,53,23,27,048,50,,,,,,,,,1*6C
$GPRMC,000106.00,A,4852.4668654,N,00217.5825835,E,1.16,353.10,180502,0.0,E,A*3E
$GPGGA,000106.00,4852.4668654,N,00217.5825835,E,1,06,1.0,-18.063,M,0.000,M,0.0,*63
$GPGSA,A,3,01,08,10,16,21,23,,,,,,,2.2,1.3,1.8,1*29
$GPGSV,2,1,06,01,16,255,48,08,73,299,56,10,56,076,55,16,26,182,51,1*6B
$GPGSV,2,2,06,21,45,263,53,23,27,048,50,,,,,,,,,1*6C
$GPRMC,000107.00,A,4852.4662291,N,00217.5809553,E,0.89,353.10,180502,0.0,E,A*3C
$GPGGA,000107.00,4852.4662291,N,00217.5809553,E,1,06,1.0,-11.579,M,0.000,M,0.0,*61
$GPGSA,A,3,01,08,10,16,21,23,,,,,,,2.2,1.3,1.8,1*29
$GPGSV,2,1,06,01,16,255,47,08,73,299,56,10,56,076,54,16,26,182,50,1*64
$GPGSV,2,2,06,21,45,263,51,23,27,048,51,,,,,,,,,1*6F
$GPRMC,000108.00,A,4852.4656699,N,00217.5826910,E,9.92,112.82,180502,0.0,E,A*31
$GPGGA,000108.00,4852.4656699,N,00217.5826910,E,1,06,1.0,-11.771,M,0.000,M,0.0,*69
$GPGSA,A,3,01,08,10,16,21,23,,,,,,,2.2,1.3,1.8,1*29
$GPGSV,2,1,06,01,16,255,46,08,73,299,57,10,56,076,55,16,26,182,51,1*64
$GPGSV,2,2,06,21,45,263,51,23,27,048,52,,,,,,,,,1*6C
$GPRMC,000109.00,A,4852.4641751,N,00217.5897443,E,20.11,115.94,180502,0.0,E,A*02
$GPGGA,000109.00,4852.4641751,N,00217.5897443,E,1,06,1.0,-7.364,M,0.000,M,0.0,*5D
$GPGSA,A,3,01,08,10,16,21,23,,,,,,,2.2,1.3,1.8,1*29
$GPGSV,2,1,06,01,16,255,38,08,73,299,59,10,56,076,52,16,26,182,51,1*64
$GPGSV,2,2,06,21,45,263,44,23,27,048,54,,,,,,,,,1*6E
$GPRMC,000110.00,A,4852.4614825,N,00217.5981172,E,28.31,115.93,180502,0.0,E,A*0A
$GPGGA,000110.00,4852.4614825,N,00217.5981172,E,1,06,1.0,-8.754,M,0.000,M,0.0,*50
$GPGSA,A,3,01,08,10,16,21,23,,,,,,,2.2,1.3,1.8,1*29
$GPGSV,2,1,06,01,16,255,50,08,73,299,57,10,56,076,46,16,26,182,42,1*63
$GPGSV,2,2,06,21,45,263,52,23,27,048,46,,,,,,,,,1*6A
$GPRMC,000111.00,A,4852.4589238,N,00217.6091331,E,31.20,114.98,180502,0.0,E,A*06
$GPGGA,000111.00,4852.4589238,N,00217.6091331,E,1,06,1.0,-8.247,M,0.000,M,0.0,*59
$GPGSA,A,3,01,08,10,16,21,23,,,,,,,2.2,1.3,1.8,1*29
$GPGSV,2,1,06,01,16,255,53,08,73,299,48,10,56,076,53,16,26,182,38,1*67
$GPGSV,2,2,06,21,45,263,59,23,27,048,38,,,,,,,,,1*68
$GPRMC,000112.00,A,4852.4548888,N,00217.6203408,E,32.77,115.69,180502,0.0,E,A*03
$GPGGA,000112.00,4852.4548888,N,00217.6203408,E,1,06,1.0,-5.232,M,0.000,M,0.0,*5D
$GPGSA,A,3,01,08,10,16,21,23,,,,,,,2.2,1.3,1.8,1*29
$GPGSV,2,1,06,01,16,255,50,08,73,299,45,10,56,076,57,16,26,182,48,1*6A
$GPGSV,2,2,06,21,45,263,60,23,27,048,48,,,,,,,,,1*65
$GPRMC,000113.00,A,4852.4499957,N,00217.6337613,E,31.36,115.24,180502,0.0,E,A*0D
$GPGGA,000113.00,4852.4499957,N,00217.6337613,E,1,06,1.0,-4.308,M,0.000,M,0.0,*55
$GPGSA,A,3,01,08,10,16,21,23,,,,,,,2.2,1.3,1.8,1*29
$GPGSV,2,1,06,01,16,255,46,08,73,299,47,10,56,076,54,16,26,182,47,1*63
$GPGSV,2,2,06,21,45,263,52,23,27,048,48,,,,,,,,,1*64
$GPRMC,000114.00,A,4852.4443208,N,00217.6447762,E,22.85,121.28,180502,0.0,E,A*0A
$GPGGA,000114.00,4852.4443208,N,00217.6447762,E,1,06,1.0,1.973,M,0.000,M,0.0,*7D
$GPGSA,A,3,01,08,10,16,21,23,,,,,,,2.2,1.3,1.8,1*29
$GPGSV,2,1,06,01,16,255,43,08,73,299,41,10,56,076,50,16,26,182,43,1*60
$GPGSV,2,2,06,21,45,263,48,23,27,048,43,,,,,,,,,1*64
$GPRMC,000115.00,A,4852.4461978,N,00217.6524420,E,12.74,115.35,180502,0.0,E,A*00
$GPGGA,000115.00,4852.4461978,N,00217.6524420,E,1,06,1.0,-12.743,M,0.000,M,0.0,*63
$GPGSA,A,3,01,08,10,16,21,23,,,,,,,2.2,1.3,1.8,1*29
$GPGSV,2,1,06,01,16,255,38,08,73,299,42,10,56,076,44,16,26,182,38,1*66
$GPGSV,2,2,06,21,45,263,43,23,27,048,38,,,,,,,,,1*63
$GPRMC,000116.00,A,4852.4448338,N,00217.6562656,E,7.75,114.85,180502,0.0,E,A*38
$GPGGA,000116.00,4852.4448338,N,00217.6562656,E,1,06,1.0,-10.495,M,0.000,M,0.0,*6E
$GPGSA,A,3,01,08,10,16,21,23,,,,,,,2.2,1.3,1.8,1*29
$GPGSV,2,1,06,01,16,255,36,08,73,298,44,10,56,076,40,16,26,182,36,1*65
$GPGSV,2,2,06,21,45,263,40,23,27,048,35,,,,,,,,,1*6D
$GPRMC,000117.00,A,4852.4452705,N,00217.6627190,E,9.58,103.05,180502,0.0,E,A*38
$GPGGA,000117.00,4852.4452705,N,00217.6627190,E,1,06,1.0,-4.069,M,0.000,M,0.0,*53
$GPGSA,A,3,01,08,10,16,21,23,,,,,,,2.2,1.3,1.8,1*29
$GPGSV,2,1,06,01,16,255,34,08,73,298,57,10,56,076,36,16,26,182,34,1*66
$GPGSV,2,2,06,21,45,263,35,23,27,048,34,,,,,,,,,1*6E
$GPRMC,000118.00,A,4852.4496189,N,00217.6684089,E,13.10,108.74,180502,0.0,E,A*07
$GPGGA,000118.00,4852.4496189,N,00217.6684089,E,1,06,1.0,-11.700,M,0.000,M,0.0,*6A
$GPGSA,A,3,01,08,10,16,21,23,,,,,,,2.2,1.3,1.8,1*29
$GPGSV,2,1,06,01,16,255,34,08,73,298,54,10,56,076,34,16,26,182,34,1*67
$GPGSV,2,2,06,21,45,263,34,23,27,048,34,,,,,,,,,1*6F
$GPRMC,000119.00,A,4852.4462469,N,00217.6814693,E,15.80,110.24,180502,0.0,E,A*0F
$GPGGA,000119.00,4852.4462469,N,00217.6814693,E,1,06,1.0,-6.820,M,0.000,M,0.0,*5A
$GPGSA,A,3,01,08,10,16,21,23,,,,,,,2.2,1.3,1.8,1*29
$GPGSV,2,1,06,01,16,255,34,08,74,298,49,10,56,076,34,16,26,182,34,1*6C
$GPGSV,2,2,06,21,45,263,34,23,27,048,34,,,,,,,,,1*6F
$GPRMC,000120.00,A,4852.4463415,N,00217.6880613,E,13.44,122.07,180502,0.0,E,A*04
$GPGGA,000120.00,4852.4463415,N,00217.6880613,E,1,06,1.0,-10.560,M,0.000,M,0.0,*61
$GPGSA,A,3,01,08,10,16,21,23,,,,,,,2.2,1.3,1.8,1*29
$GPGSV,2,1,06,01,16,255,34,08,74,298,53,10,56,076,34,16,26,182,34,1*67
$GPGSV,2,2,06,21,45,263,34,23,27,048,34,,,,,,,,,1*6F
$GPRMC,000121.00,A,4852.4449228,N,00217.6922235,E,20.46,122.08,180502,0.0,E,A*01
$GPGGA,000121.00,4852.4449228,N,00217.6922235,E,1,06,1.0,-13.866,M,0.000,M,0.0,*61
$GPGSA,A,3,01,08,10,16,21,23,,,,,,,2.2,1.3,1.8,1*29
$GPGSV,2,1,06,01,16,255,34,08,74,298,54,10,56,076,36,16,26,182,34,1*62
$GPGSV,2,2,06,21,45,263,36,23,27,048,34,,,,,,,,,1*6D
$GPRMC,000122.00,A,4852.4437164,N,00217.7002622,E,18.00,83.76,180502,0.0,E,A*32
$GPGGA,000122.00,4852.4437164,N,00217.7002622,E,1,06,1.0,-7.956,M,0.000,M,0.0,*5F
$GPGSA,A,3,01,08,10,16,21,23,,,,,,,2.2,1.3,1.8,1*29
$GPGSV,2,1,06,01,16,255,34,08,74,298,51,10,56,076,37,16,26,182,34,1*66
$GPGSV,2,2,06,21,45,263,36,23,27,048,34,,,,,,,,,1*6D
$GPRMC,000123.00,A,4852.4430151,N,00217.7096364,E,20.11,115.05,180502,0.0,E,A*09
$GPGGA,000123.00,4852.4430151,N,00217.7096364,E,1,06,1.0,-22.327,M,0.000,M,0.0,*6E
$GPGSA,A,3,01,08,10,16,21,23,,,,,,,2.2,1.3,1.8,1*29
$GPGSV,2,1,06,01,16,255,36,08,74,298,50,10,56,076,40,16,26,182,36,1*67
$GPGSV,2,2,06,21,45,263,39,23,27,048,36,,,,,,,,,1*60
$GPRMC,000124.00,A,4852.4369675,N,00217.7123902,E,20.19,110.73,180502,0.0,E,A*0D
$GPGGA,000124.00,4852.4369675,N,00217.7123902,E,1,06,1.0,-22.064,M,0.000,M,0.0,*62
$GPGSA,A,3,01,08,10,16,21,23,,,,,,,2.2,1.3,1.8,1*29
$GPGSV,2,1,06,01,16,255,41,08,74,298,46,10,56,076,47,16,26,182,42,1*64
$GPGSV,2,2,06,21,45,263,46,23,27,048,42,,,,,,,,,1*6B
$GPRMC,000125.00,A,4852.4287670,N,00217.7262580,E,19.06,121.27,180502,0.0,E,A*0F
$GPGGA,000125.00,4852.4287670,N,00217.7262580,E,1,06,1.0,0.823,M,0.000,M,0.0,*71
$GPGSA,A,3,01,08,10,16,21,23,,,,,,,2.2,1.3,1.8,1*29
$GPGSV,2,1,06,01,16,255,46,08,74,298,52,10,56,076,48,16,26,182,44,1*6F
$GPGSV,2,2,06,21,45,263,52,23,27,048,46,,,,,,,,,1*6A
$GPRMC,000126.00,A,4852.4328605,N,00217.7290324,E,15.29,130.78,180502,0.0,E,A*04
$GPGGA,000126.00,4852.4328605,N,00217.7290324,E,1,06,1.0,-12.713,M,0.000,M,0.0,*63
$GPGSA,A,3,01,08,10,16,21,23,,,,,,,2.2,1.3,1.8,1*29
$GPGSV,2,1,06,01,16,255,40,08,74,298,52,10,56,076,44,16,26,182,39,1*6F
$GPGSV,2,2,06,21,45,263,44,23,27,048,39,,,,,,,,,1*65
$GPRMC,000127.00,A,4852.4303664,N,00217.7316379,E,18.81,134.32,180502,0.0,E,A*09
$GPGGA,000127.00,4852.4303664,N,00217.7316379,E,1,06,1.0,-7.486,M,0.000,M,0.0,*50
$GPGSA,A,3,01,08,10,16,21,23,,,,,,,2.2,1.3,1.8,1*29
$GPGSV,2,1,06,01,16,255,35,08,74,298,49,10,56,076,38,16,26,182,37,1*62
$GPGSV,2,2,06,21,45,263,38,23,27,048,35,,,,,,,,,1*62
$GPRMC,000128.00,A,4852.4276911,N,00217.7373709,E,23.74,140.96,180502,0.0,E,A*07
$GPGGA,000128.00,4852.4276911,N,00217.7373709,E,1,06,1.0,-7.013,M,0.000,M,0.0,*59
$GPGSA,A,3,01,08,10,16,21,23,,,,,,,2.2,1.3,1.8,1*29
$GPGSV,2,1,06,01,16,255,34,08,74,298,51,10,56,076,37,16,26,182,35,1*67
$GPGSV,2,2,06,21,45,263,36,23,27,048,34,,,,,,,,,1*6D
$GPRMC,000129.00,A,4852.4260569,N,00217.7432014,E,26.26,147.88,180502,0.0,E,A*01
$GPGGA,000129.00,4852.4260569,N,00217.7432014,E,1,06,1.0,-7.965,M,0.000,M,0.0,*5D
$GPGSA,A,3,01,08,10,16,21,23,,,,,,,2.2,1.3,1.8,1*29
$GPGSV,2,1,06,01,16,255,34,08,74,298,44,10,56,076,35,16,26,182,34,1*60
$GPGSV,2,2,06,21,45,263,35,23,27,048,34,,,,,,,,,1*6E
