$GPRMC,000030.00,A,4852.4662587,N,00217.5805414,E,1.19,0.00,180502,0.0,E,A*3B
$GPGGA,000030.00,4852.4662587,N,00217.5805414,E,1,06,1.0,-8.476,M,0.000,M,0.0,*5C
$GPGSA,A,3,01,08,10,16,21,23,,,,,,,2.2,1.3,1.8,1*29
$GPGSV,2,1,06,01,15,255,47,08,73,299,56,10,56,076,54,16,27,182,50,1*66
$GPGSV,2,2,06,21,45,263,53,23,28,048,50,,,,,,,,,1*63
$GPRMC,000031.00,A,4852.4660666,N,00217.5818076,E,0.53,0.00,180502,0.0,E,A*37
$GPGGA,000031.00,4852.4660666,N,00217.5818076,E,1,06,1.0,-9.726,M,0.000,M,0.0,*58
$GPGSA,A,3,01,08,10,16,21,23,,,,,,,2.2,1.3,1.8,1*29
$GPGSV,2,1,06,01,15,255,47,08,73,299,57,10,56,076,54,16,27,182,50,1*67
$GPGSV,2,2,06,21,45,263,54,23,28,048,50,,,,,,,,,1*64
$GPRMC,000032.00,A,4852.4666283,N,00217.5821103,E,1.28,0.00,180502,0.0,E,A*39
$GPGGA,000032.00,4852.4666283,N,00217.5821103,E,1,06,1.0,-15.231,M,0.000,M,0.0,*65
$GPGSA,A,3,01,08,10,16,21,23,,,,,,,2.2,1.3,1.8,1*29
$GPGSV,2,1,06,01,15,255,48,08,73,299,57,10,56,076,54,16,27,182,50,1*68
$GPGSV,2,2,06,21,45,263,53,23,28,048,51,,,,,,,,,1*62
$GPRMC,000033.00,A,4852.4665586,N,00217.5806516,E,1.50,0.00,180502,0.0,E,A*33
$GPGGA,000033.00,4852.4665586,N,00217.5806516,E,1,06,1.0,-15.324,M,0.000,M,0.0,*65
$GPGSA,A,3,01,08,10,16,21,23,,,,,,,2.2,1.3,1.8,1*29
$GPGSV,2,1,06,01,15,255,48,08,73,299,56,10,56,076,54,16,27,182,49,1*61
$GPGSV,2,2,06,21,45,263,54,23,28,048,50,,,,,,,,,1*64
$GPRMC,000034.00,A,4852.4668995,N,00217.5813440,E,1.85,0.00,180502,0.0,E,A*39
$GPGGA,000034.00,4852.4668995,N,00217.5813440,E,1,06,1.0,-13.873,M,0.000,M,0.0,*68
$GPGSA,A,3,01,08,10,16,21,23,,,,,,,2.2,1.3,1.8,1*29
$GPGSV,2,1,06,01,15,255,48,08,73,299,56,10,56,076,54,16,27,182,50,1*69
$GPGSV,2,2,06,21,45,263,52,23,28,048,50,,,,,,,,,1*62
$GPRMC,000035.00,A,4852.4661320,N,00217.5808781,E,0.37,0.00,180502,0.0,E,A*39
$GPGGA,000035.00,4852.4661320,N,00217.5808781,E,1,06,1.0,-7.684,M,0.000,M,0.0,*53
$GPGSA,A,3,01,08,10,16,21,23,,,,,,,2.2,1.3,1.8,1*29
$GPGSV,2,1,06,01,15,255,47,08,73,299,58,10,56,076,57,16,27,182,50,1*6B
$GPGSV,2,2,06,21,45,263,52,23,27,048,51,,,,,,,,,1*6C
$GPRMC,000036.00,A,4852.4672758,N,00217.5796335,E,0.93,0.00,180502,0.0,E,A*3E
$GPGGA,000036.00,4852.4672758,N,00217.5796335,E,1,06,1.0,-8.349,M,0.000,M,0.0,*51
$GPGSA,A,3,01,08,10,16,21,23,,,,,,,2.2,1.3,1.8,1*29
$GPGSV,2,1,06,01,15,255,49,08,73,299,57,10,56,076,57,16,27,182,51,1*6B
$GPGSV,2,2,06,21,45,263,54,23,27,048,50,,,,,,,,,1*6B
$GPRMC,000037.00,A,4852.4677467,N,00217.5783601,E,0.60,0.00,180502,0.0,E,A*3F
$GPGGA,000037.00,4852.4677467,N,00217.5783601,E,1,06,1.0,-2.637,M,0.000,M,0.0,*5A
$GPGSA,A,3,01,08,10,16,21,23,,,,,,,2.2,1.3,1.8,1*29
$GPGSV,2,1,06,01,15,255,47,08,73,299,59,10,56,076,56,16,27,182,49,1*63
$GPGSV,2,2,06,21,45,263,53,23,27,048,50,,,,,,,,,1*6C
$GPRMC,000038.00,A,4852.4663928,N,00217.5801782,E,0.53,0.00,180502,0.0,E,A*3C
$GPGGA,000038.00,4852.4663928,N,00217.5801782,E,1,06,1.0,-2.127,M,0.000,M,0.0,*5F
$GPGSA,A,3,01,08,10,16,21,23,,,,,,,2.2,1.3,1.8,1*29
$GPGSV,2,1,06,01,15,255,48,08,73,299,55,10,56,076,55,16,27,182,50,1*6B
$GPGSV,2,2,06,21,45,263,53,23,27,048,50,,,,,,,,,1*6C
$GPRMC,000039.00,A,4852.4669118,N,00217.5808817,E,0.80,0.00,180502,0.0,E,A*38
$GPGGA,000039.00,4852.4669118,N,00217.5808817,E,1,06,1.0,-7.794,M,0.000,M,0.0,*5E
$GPGSA,A,3,01,08,10,16,21,23,,,,,,,2.2,1.3,1.8,1*29
$GPGSV,2,1,06,01,15,255,48,08,73,299,56,10,56,076,54,16,27,182,50,1*69
$GPGSV,2,2,06,21,45,263,52,23,27,048,52,,,,,,,,,1*6F
$GPRMC,000040.00,A,4852.4669723,N,00217.5787090,E,1.61,0.00,180502,0.0,E,A*39
$GPGGA,000040.00,4852.4669723,N,00217.5787090,E,1,06,1.0,-7.054,M,0.000,M,0.0,*5A
$GPGSA,A,3,01,08,10,16,21,23,,,,,,,2.2,1.3,1.8,1*29
$GPGSV,2,1,06,01,15,255,48,08,73,299,57,10,56,076,55,16,27,182,50,1*69
$GPGSV,2,2,06,21,45,263,52,23,27,048,50,,,,,,,,,1*6D
$GPRMC,000041.00,A,4852.4665709,N,00217.5803569,E,0.52,0.00,180502,0.0,E,A*3D
$GPGGA,000041.00,4852.4665709,N,00217.5803569,E,1,06,1.0,-10.919,M,0.000,M,0.0,*69
$GPGSA,A,3,01,08,10,16,21,23,,,,,,,2.2,1.3,1.8,1*29
$GPGSV,2,1,06,01,15,255,47,08,73,299,55,10,56,076,54,16,27,182,50,1*65
$GPGSV,2,2,06,21,45,263,54,23,27,048,50,,,,,,,,,1*6B
$GPRMC,000042.00,A,4852.4658059,N,00217.5820770,E,0.85,0.00,180502,0.0,E,A*33
$GPGGA,000042.00,4852.4658059,N,00217.5820770,E,1,06,1.0,-14.052,M,0.000,M,0.0,*6F
$GPGSA,A,3,01,08,10,16,21,23,,,,,,,2.2,1.3,1.8,1*29
$GPGSV,2,1,06,01,15,255,49,08,73,299,57,10,56,076,54,16,27,182,50,1*69
$GPGSV,2,2,06,21,45,263,53,23,27,048,50,,,,,,,,,1*6C
$GPRMC,000043.00,A,4852.4667847,N,00217.5812516,E,0.96,0.00,180502,0.0,E,A*38
$GPGGA,000043.00,4852.4667847,N,00217.5812516,E,1,06,1.0,-16.853,M,0.000,M,0.0,*6D
$GPGSA,A,3,01,08,10,16,21,23,,,,,,,2.2,1.3,1.8,1*29
$GPGSV,2,1,06,01,15,255,47,08,73,299,56,10,56,076,54,16,27,182,48,1*6F
$GPGSV,2,2,06,21,45,263,54,23,27,048,52,,,,,,,,,1*69
$GPRMC,000044.00,A,4852.4663513,N,00217.5806330,E,0.68,0.00,180502,0.0,E,A*31
$GPGGA,000044.00,4852.4663513,N,00217.5806330,E,1,06,1.0,-13.101,M,0.000,M,0.0,*6E
$GPGSA,A,3,01,08,10,16,21,23,,,,,,,2.2,1.3,1.8,1*29
$GPGSV,2,1,06,01,15,255,49,08,73,299,58,10,56,076,56,16,27,182,48,1*6D
$GPGSV,2,2,06,21,45,263,52,23,27,048,51,,,,,,,,,1*6C
$GPRMC,000045.00,A,4852.4664017,N,00217.5802173,E,0.41,0.00,180502,0.0,E,A*3C
$GPGGA,000045.00,4852.4664017,N,00217.5802173,E,1,06,1.0,-10.377,M,0.000,M,0.0,*68
$GPGSA,A,3,01,08,10,16,21,23,,,,,,,2.2,1.3,1.8,1*29
$GPGSV,2,1,06,01,15,255,48,08,73,299,57,10,56,076,56,16,27,182,48,1*63
$GPGSV,2,2,06,21,45,263,52,23,27,048,50,,,,,,,,,1*6D
$GPRMC,000046.00,A,4852.4672188,N,00217.5808335,E,0.46,0.00,180502,0.0,E,A*32
$GPGGA,000046.00,4852.4672188,N,00217.5808335,E,1,06,1.0,-11.115,M,0.000,M,0.0,*66
$GPGSA,A,3,01,08,10,16,21,23,,,,,,,2.2,1.3,1.8,1*29
$GPGSV,2,1,06,01,15,255,49,08,73,299,55,10,56,076,56,16,27,182,48,1*60
$GPGSV,2,2,06,21,45,263,51,23,27,048,50,,,,,,,,,1*6E
$GPRMC,000047.00,A,4852.4662402,N,00217.5796600,E,1.54,0.00,180502,0.0,E,A*3C
$GPGGA,000047.00,4852.4662402,N,00217.5796600,E,1,06,1.0,-4.175,M,0.000,M,0.0,*58
$GPGSA,A,3,01,08,10,16,21,23,,,,,,,2.2,1.3,1.8,1*29
$GPGSV,2,1,06,01,15,255,50,08,73,299,57,10,56,076,58,16,27,182,49,1*65
$GPGSV,2,2,06,21,45,263,52,23,27,048,52,,,,,,,,,1*6F
$GPRMC,000048.00,A,4852.4673102,N,00217.5779611,E,1.33,0.00,180502,0.0,E,A*36
$GPGGA,000048.00,4852.4673102,N,00217.5779611,E,1,06,1.0,-2.649,M,0.000,M,0.0,*5D
$GPGSA,A,3,01,08,10,16,21,23,,,,,,,2.2,1.3,1.8,1*29
$GPGSV,2,1,06,01,15,255,50,08,73,299,57,10,56,076,55,16,27,182,50,1*60
$GPGSV,2,2,06,21,45,263,54,23,27,048,49,,,,,,,,,1*63
$GPRMC,000049.00,A,4852.4672517,N,00217.5791449,E,1.43,0.00,180502,0.0,E,A*38
$GPGGA,000049.00,4852.4672517,N,00217.5791449,E,1,06,1.0,-5.468,M,0.000,M,0.0,*52
$GPGSA,A,3,01,08,10,16,21,23,,,,,,,2.2,1.3,1.8,1*29
$GPGSV,2,1,06,01,15,255,49,08,73,299,57,10,56,076,54,16,27,182,49,1*61
$GPGSV,2,2,06,21,45,263,51,23,27,048,50,,,,,,,,,1*6E
$GPRMC,000050.00,A,4852.4658329,N,00217.5809870,E,1.13,0.00,180502,0.0,E,A*3E
$GPGGA,000050.00,4852.4658329,N,00217.5809870,E,1,06,1.0,-6.824,M,0.000,M,0.0,*56
$GPGSA,A,3,01,08,10,16,21,23,,,,,,,2.2,1.3,1.8,1*29
$GPGSV,2,1,06,01,15,255,49,08,73,299,56,10,56,076,55,16,27,182,51,1*68
$GPGSV,2,2,06,21,45,263,52,23,27,048,51,,,,,,,,,1*6C
$GPRMC,000051.00,A,4852.4671806,N,00217.5807560,E,1.18,0.00,180502,0.0,E,A*3B
$GPGGA,000051.00,4852.4671806,N,00217.5807560,E,1,06,1.0,-9.592,M,0.000,M,0.0,*57
$GPGSA,A,3,01,08,10,16,21,23,,,,,,,2.2,1.3,1.8,1*29
$GPGSV,2,1,06,01,15,255,49,08,73,299,57,10,56,076,55,16,27,182,52,1*6A
$GPGSV,2,2,06,21,45,263,54,23,27,048,53,,,,,,,,,1*68
$GPRMC,000052.00,A,4852.4667846,N,00217.5797328,E,1.97,136.97,180502,0.0,E,A*3A
$GPGGA,000052.00,4852.4667846,N,00217.5797328,E,1,06,1.0,-10.185,M,0.000,M,0.0,*61
$GPGSA,A,3,01,08,10,16,21,23,,,,,,,2.2,1.3,1.8,1*29
$GPGSV,2,1,06,01,15,255,48,08,73,299,56,10,56,076,56,16,27,182,49,1*63
$GPGSV,2,2,06,21,45,263,54,23,27,048,51,,,,,,,,,1*6A
$GPRMC,000053.00,A,4852.4661898,N,00217.5818645,E,1.41,136.97,180502,0.0,E,A*33
$GPGGA,000053.00,4852.4661898,N,00217.5818645,E,1,06,1.0,-15.896,M,0.000,M,0.0,*6D
$GPGSA,A,3,01,08,10,16,21,23,,,,,,,2.2,1.3,1.8,1*29
$GPGSV,2,1,06,01,15,255,48,08,73,299,57,10,56,076,56,16,27,182,49,1*62
$GPGSV,2,2,06,21,45,263,52,23,27,048,49,,,,,,,,,1*65
$GPRMC,000054.00,A,4852.4662704,N,00217.5830270,E,0.43,136.97,180502,0.0,E,A*36
$GPGGA,000054.00,4852.4662704,N,00217.5830270,E,1,06,1.0,-15.773,M,0.000,M,0.0,*6F
$GPGSA,A,3,01,08,10,16,21,23,,,,,,,2.2,1.3,1.8,1*29
$GPGSV,2,1,06,01,15,255,49,08,73,299,57,10,56,076,55,16,27,182,50,1*68
$GPGSV,2,2,06,21,45,263,53,23,27,048,49,,,,,,,,,1*64
$GPRMC,000055.00,A,4852.4663756,N,00217.5810486,E,0.52,136.97,180502,0.0,E,A*3C
$GPGGA,000055.00,4852.4663756,N,00217.5810486,E,1,06,1.0,-12.207,M,0.000,M,0.0,*64
$GPGSA,A,3,01,08,10,16,21,23,,,,,,,2.2,1.3,1.8,1*29
$GPGSV,2,1,06,01,15,255,49,08,73,299,59,10,56,076,58,16,27,182,51,1*6A
$GPGSV,2,2,06,21,45,263,52,23,27,048,50,,,,,,,,,1*6D
$GPRMC,000056.00,A,4852.4665054,N,00217.5808729,E,1.24,136.97,180502,0.0,E,A*33
$GPGGA,000056.00,4852.4665054,N,00217.5808729,E,1,06,1.0,-11.063,M,0.000,M,0.0,*68
$GPGSA,A,3,01,08,10,16,21,23,,,,,,,2.2,1.3,1.8,1*29
$GPGSV,2,1,06,01,15,255,48,08,73,299,58,10,56,076,56,16,27,182,48,1*6C
$GPGSV,2,2,06,21,45,263,54,23,27,048,50,,,,,,,,,1*6B
$GPRMC,000057.00,A,4852.4662526,N,00217.5814024,E,1.86,136.97,180502,0.0,E,A*3A
$GPGGA,000057.00,4852.4662526,N,00217.5814024,E,1,06,1.0,-6.096,M,0.000,M,0.0,*55
$GPGSA,A,3,01,08,10,16,21,23,,,,,,,2.2,1.3,1.8,1*29
$GPGSV,2,1,06,01,16,255,50,08,73,299,57,10,56,076,55,16,27,182,50,1*63
$GPGSV,2,2,06,21,45,263,53,23,27,048,50,,,,,,,,,1*6C
$GPRMC,000058.00,A,4852.4667116,N,00217.5816928,E,1.12,136.97,180502,0.0,E,A*3D
$GPGGA,000058.00,4852.4667116,N,00217.5816928,E,1,06,1.0,-5.228,M,0.000,M,0.0,*5B
$GPGSA,A,3,01,08,10,16,21,23,,,,,,,2.2,1.3,1.8,1*29
$GPGSV,2,1,06,01,16,255,48,08,73,299,57,10,56,076,56,16,27,182,51,1*68
$GPGSV,2,2,06,21,45,263,52,23,27,048,50,,,,,,,,,1*6D
$GPRMC,000059.00,A,4852.4667418,N,00217.5797483,E,0.89,136.97,180502,0.0,E,A*3E
$GPGGA,000059.00,4852.4667418,N,00217.5797483,E,1,06,1.0,-0.650,M,0.000,M,0.0,*55
$GPGSA,A,3,01,08,10,16,21,23,,,,,,,2.2,1.3,1.8,1*29
$GPGSV,2,1,06,01,16,255,50,08,73,299,57,10,56,076,57,16,26,182,52,1*62
$GPGSV,2,2,06,21,45,263,53,23,27,048,51,,,,,,,,,1*6D
$GPRMC,000100.00,A,4852.4668172,N,00217.5792646,E,0.66,136.97,180502,0.0,E,A*3A
$GPGGA,000100.00,4852.4668172,N,00217.5792646,E,1,06,1.0,0.255,M,0.000,M,0.0,*7C
$GPGSA,A,3,01,08,10,16,21,23,,,,,,,2.2,1.3,1.8,1*29
$GPGSV,2,1,06,01,16,255,49,08,73,299,56,10,56,076,57,16,26,182,50,1*69
$GPGSV,2,2,06,21,45,263,53,23,27,048,50,,,,,,,,,1*6C
$GPRMC,000101.00,A,4852.4665691,N,00217.5817054,E,0.63,136.97,180502,0.0,E,A*3E
$GPGGA,000101.00,4852.4665691,N,00217.5817054,E,1,06,1.0,-4.793,M,0.000,M,0.0,*5B
$GPGSA,A,3,01,08,10,16,21,23,,,,,,,2.2,1.3,1.8,1*29
$GPGSV,2,1,06,01,16,255,48,08,73,299,55,10,56,076,55,16,26,182,50,1*69
$GPGSV,2,2,06,21,45,263,52,23,27,048,51,,,,,,,,,1*6C
$GPRMC,000102.00,A,4852.4655809,N,00217.5811277,E,0.55,136.97,180502,0.0,E,A*31
$GPGGA,000102.00,4852.4655809,N,00217.5811277,E,1,06,1.0,-5.527,M,0.000,M,0.0,*5D
$GPGSA,A,3,01,08,10,16,21,23,,,,,,,2.2,1.3,1.8,1*29
$GPGSV,2,1,06,01,16,255,49,08,73,299,56,10,56,076,55,16,26,182,49,1*63
$GPGSV,2,2,06,21,45,263,53,23,27,048,50,,,,,,,,,1*6C
$GPRMC,000103.00,A,4852.4671135,N,00217.5809621,E,1.54,136.97,180502,0.0,E,A*3E
$GPGGA,000103.00,4852.4671135,N,00217.5809621,E,1,06,1.0,-8.962,M,0.000,M,0.0,*52
$GPGSA,A,3,01,08,10,16,21,23,,,,,,,2.2,1.3,1.8,1*29
$GPGSV,2,1,06,01,16,255,48,08,73,299,56,10,56,076,56,16,26,182,50,1*69
$GPGSV,2,2,06,21,45,263,53,23,27,048,51,,,,,,,,,1*6D
$GPRMC,000104.00,A,4852.4663643,N,00217.5814581,E,1.60,136.97,180502,0.0,E,A*3E
$GPGGA,000104.00,4852.4663643,N,00217.5814581,E,1,06,1.0,-9.863,M,0.000,M,0.0,*54
$GPGSA,A,3,01,08,10,16,21,23,,,,,,,2.2,1.3,1.8,1*29
$GPGSV,2,1,06,01,16,255,47,08,73,299,58,10,56,076,56,16,26,182,50,1*68
$GPGSV,2,2,06,21,45,263,54,23,27,048,50,,,,,,,,,1*6B
$GPRMC,000105.00,A,4852.4656530,N,00217.5829002,E,2.02,353.11,180502,0.0,E,A*36
$GPGGA,000105.00,4852.4656530,N,00217.5829002,E,1,06,1.0,-13.285,M,0.000,M,0.0,*6D
$GPGSA,A,3,01,08,10,16,21,23,,,,,,,2.2,1.3,1.8,1*29
$GPGSV,2,1,06,01,16,255,48,08,73,299,58,10,56,076,55,16,26,182,50,1*64
$GPGSV,2,2,06,21,45,263,53,23,27,048,50,,,,,,,,,1*6C
$GPRMC,000106.00,A,4852.4668654,N,00217.5825835,E,1.16,353.11,180502,0.0,E,A*3F
$GPGGA,000106.00,4852.4668654,N,00217.5825835,E,1,06,1.0,-18.063,M,0.000,M,0.0,*63
$GPGSA,A,3,01,08,10,16,21,23,,,,,,,2.2,1.3,1.8,1*29
$GPGSV,2,1,06,01,16,255,48,08,73,299,56,10,56,076,55,16,26,182,51,1*6B
$GPGSV,2,2,06,21,45,263,53,23,27,048,50,,,,,,,,,1*6C
$GPRMC,000107.00,A,4852.4662315,N,00217.5809474,E,0.89,353.11,180502,0.0,E,A*34
$GPGGA,000107.00,4852.4662315,N,00217.5809474,E,1,06,1.0,-11.610,M,0.000,M,0.0,*64
$GPGSA,A,3,01,08,10,16,21,23,,,,,,,2.2,1.3,1.8,1*29
$GPGSV,2,1,06,01,16,255,47,08,73,299,56,10,56,076,54,16,26,182,50,1*64
$GPGSV,2,2,06,21,45,263,51,23,27,048,51,,,,,,,,,1*6F
$GPRMC,000108.00,A,4852.4656499,N,00217.5827103,E,9.94,112.96,180502,0.0,E,A*3B
$GPGGA,000108.00,4852.4656499,N,00217.5827103,E,1,06,1.0,-11.747,M,0.000,M,0.0,*65
$GPGSA,A,3,01,08,10,16,21,23,,,,,,,2.2,1.3,1.8,1*29
$GPGSV,2,1,06,01,16,255,46,08,73,299,57,10,56,076,55,16,26,182,51,1*64
$GPGSV,2,2,06,21,45,263,51,23,27,048,52,,,,,,,,,1*6C
$GPRMC,000109.00,A,4852.4642402,N,00217.5891819,E,20.26,115.87,180502,0.0,E,A*07
$GPGGA,000109.00,4852.4642402,N,00217.5891819,E,1,06,1.0,-5.514,M,0.000,M,0.0,*5D
$GPGSA,A,3,01,08,10,16,21,23,,,,,,,2.2,1.3,1.8,1*29
$GPGSV,2,1,06,01,16,255,38,08,73,299,59,10,56,076,52,16,26,182,51,1*64
$GPGSV,2,2,06,21,45,263,43,23,27,048,54,,,,,,,,,1*69
$GPRMC,000110.00,A,4852.4623351,N,00217.5976447,E,28.14,115.63,180502,0.0,E,A*05
$GPGGA,000110.00,4852.4623351,N,00217.5976447,E,1,06,1.0,-8.807,M,0.000,M,0.0,*5E
$GPGSA,A,3,01,08,10,16,21,23,,,,,,,2.2,1.3,1.8,1*29
$GPGSV,2,1,06,01,16,255,50,08,73,299,57,10,56,076,44,16,26,182,42,1*61
$GPGSV,2,2,06,21,45,263,51,23,27,048,46,,,,,,,,,1*69
$GPRMC,000111.00,A,4852.4579826,N,00217.6064999,E,31.31,114.67,180502,0.0,E,A*0E
$GPGGA,000111.00,4852.4579826,N,00217.6064999,E,1,06,1.0,0.529,M,0.000,M,0.0,*7B
$GPGSA,A,3,01,08,10,16,21,23,,,,,,,2.2,1.3,1.8,1*29
$GPGSV,2,1,06,01,16,255,53,08,73,299,48,10,56,076,53,16,26,182,36,1*69
$GPGSV,2,2,06,21,45,263,59,23,27,048,36,,,,,,,,,1*66
$GPRMC,000112.00,A,4852.4548535,N,00217.6203465,E,32.77,115.69,180502,0.0,E,A*03
$GPGGA,000112.00,4852.4548535,N,00217.6203465,E,1,06,1.0,-5.146,M,0.000,M,0.0,*5D
$GPGSA,A,3,01,08,10,16,21,23,,,,,,,2.2,1.3,1.8,1*29
$GPGSV,2,1,06,01,16,255,50,08,73,299,45,10,56,076,57,16,26,182,48,1*6A
$GPGSV,2,2,06,21,45,263,60,23,27,048,47,,,,,,,,,1*6A
$GPRMC,000113.00,A,4852.4503758,N,00217.6338827,E,31.45,115.17,180502,0.0,E,A*0C
$GPGGA,000113.00,4852.4503758,N,00217.6338827,E,1,06,1.0,-4.805,M,0.000,M,0.0,*56
$GPGSA,A,3,01,08,10,16,21,23,,,,,,,2.2,1.3,1.8,1*29
$GPGSV,2,1,06,01,16,255,46,08,73,299,46,10,56,076,54,16,26,182,47,1*62
$GPGSV,2,2,06,21,45,263,52,23,27,048,48,,,,,,,,,1*64
$GPRMC,000114.00,A,4852.4436392,N,00217.6447862,E,22.94,117.40,180502,0.0,E,A*0E
$GPGGA,000114.00,4852.4436392,N,00217.6447862,E,1,06,1.0,4.769,M,0.000,M,0.0,*72
$GPGSA,A,3,01,08,10,16,21,23,,,,,,,2.2,1.3,1.8,1*29
$GPGSV,2,1,06,01,16,255,43,08,73,299,38,10,56,076,50,16,26,182,43,1*6E
$GPGSV,2,2,06,21,45,263,47,23,27,048,43,,,,,,,,,1*6B
$GPRMC,000115.00,A,4852.4457891,N,00217.6521089,E,12.66,116.19,180502,0.0,E,A*0F
$GPGGA,000115.00,4852.4457891,N,00217.6521089,E,1,06,1.0,-13.239,M,0.000,M,0.0,*6B
$GPGSA,A,3,01,08,10,16,21,23,,,,,,,2.2,1.3,1.8,1*29
$GPGSV,2,1,06,01,16,255,38,08,73,299,40,10,56,076,44,16,26,182,38,1*64
$GPGSV,2,2,06,21,45,263,43,23,27,048,38,,,,,,,,,1*63
$GPRMC,000116.00,A,4852.4443852,N,00217.6554888,E,7.66,116.68,180502,0.0,E,A*3F
$GPGGA,000116.00,4852.4443852,N,00217.6554888,E,1,06,1.0,-13.565,M,0.000,M,0.0,*67
$GPGSA,A,3,01,08,10,16,21,23,,,,,,,2.2,1.3,1.8,1*29
$GPGSV,2,1,06,01,16,255,36,08,73,298,42,10,56,076,40,16,26,182,35,1*60
$GPGSV,2,2,06,21,45,263,40,23,27,048,35,,,,,,,,,1*6D
$GPRMC,000117.00,A,4852.4443860,N,00217.6610735,E,9.59,104.43,180502,0.0,E,A*3D
$GPGGA,000117.00,4852.4443860,N,00217.6610735,E,1,06,1.0,-3.409,M,0.000,M,0.0,*57
$GPGSA,A,3,01,08,10,16,21,23,,,,,,,2.2,1.3,1.8,1*29
$GPGSV,2,1,06,01,16,255,34,08,73,298,57,10,56,076,36,16,26,182,34,1*66
$GPGSV,2,2,06,21,45,263,35,23,27,048,34,,,,,,,,,1*6E
$GPRMC,000118.00,A,4852.4465641,N,00217.6659252,E,12.58,104.60,180502,0.0,E,A*08
$GPGGA,000118.00,4852.4465641,N,00217.6659252,E,1,06,1.0,-11.235,M,0.000,M,0.0,*62
$GPGSA,A,3,01,08,10,16,21,23,,,,,,,2.2,1.3,1.8,1*29
$GPGSV,2,1,06,01,16,255,34,08,73,298,53,10,56,076,34,16,26,182,34,1*60
$GPGSV,2,2,06,21,45,263,34,23,27,048,34,,,,,,,,,1*6F
$GPRMC,000119.00,A,4852.4431736,N,00217.6776906,E,15.68,110.79,180502,0.0,E,A*06
$GPGGA,000119.00,4852.4431736,N,00217.6776906,E,1,06,1.0,-9.262,M,0.000,M,0.0,*5E
$GPGSA,A,3,01,08,10,16,21,23,,,,,,,2.2,1.3,1.8,1*29
$GPGSV,2,1,06,01,16,255,34,08,74,298,49,10,56,076,34,16,26,182,34,1*6C
$GPGSV,2,2,06,21,45,263,34,23,27,048,34,,,,,,,,,1*6F
$GPRMC,000120.00,A,4852.4427775,N,00217.6845649,E,13.81,121.60,180502,0.0,E,A*0C
$GPGGA,000120.00,4852.4427775,N,00217.6845649,E,1,06,1.0,-13.391,M,0.000,M,0.0,*69
$GPGSA,A,3,01,08,10,16,21,23,,,,,,,2.2,1.3,1.8,1*29
$GPGSV,2,1,06,01,16,255,34,08,74,298,53,10,56,076,34,16,26,182,34,1*67
$GPGSV,2,2,06,21,45,263,34,23,27,048,34,,,,,,,,,1*6F
$GPRMC,000121.00,A,4852.4405252,N,00217.6879657,E,16.46,122.27,180502,0.0,E,A*03
$GPGGA,000121.00,4852.4405252,N,00217.6879657,E,1,06,1.0,-13.800,M,0.000,M,0.0,*6B
$GPGSA,A,3,01,08,10,16,21,23,,,,,,,2.2,1.3,1.8,1*29
$GPGSV,2,1,06,01,16,255,34,08,74,298,54,10,56,076,36,16,26,182,34,1*62
$GPGSV,2,2,06,21,45,263,36,23,27,048,34,,,,,,,,,1*6D
$GPRMC,000122.00,A,4852.4392872,N,00217.6951242,E,19.50,133.85,180502,0.0,E,A*0A
$GPGGA,000122.00,4852.4392872,N,00217.6951242,E,1,06,1.0,-9.679,M,0.000,M,0.0,*59
$GPGSA,A,3,01,08,10,16,21,23,,,,,,,2.2,1.3,1.8,1*29
$GPGSV,2,1,06,01,16,255,34,08,74,298,50,10,56,076,36,16,26,182,34,1*66
$GPGSV,2,2,06,21,45,263,36,23,27,048,34,,,,,,,,,1*6D
$GPRMC,000123.00,A,4852.4377007,N,00217.7040028,E,17.82,117.09,180502,0.0,E,A*0F
$GPGGA,000123.00,4852.4377007,N,00217.7040028,E,1,06,1.0,-19.353,M,0.000,M,0.0,*63
$GPGSA,A,3,01,08,10,16,21,23,,,,,,,2.2,1.3,1.8,1*29
$GPGSV,2,1,06,01,16,255,35,08,74,298,50,10,56,076,40,16,26,182,36,1*64
$GPGSV,2,2,06,21,45,263,38,23,27,048,36,,,,,,,,,1*61
$GPRMC,000124.00,A,4852.4335527,N,00217.7061507,E,20.24,108.92,180502,0.0,E,A*06
$GPGGA,000124.00,4852.4335527,N,00217.7061507,E,1,05,1.0,-23.439,M,0.000,M,0.0,*6F
$GPGSA,A,3,08,10,16,21,23,,,,,,,,3.0,1.6,2.6,1*23
$GPGSV,2,1,05,08,74,298,44,10,56,076,46,16,26,182,42,21,45,263,45,1*61
$GPGSV,2,2,05,23,27,048,40,,,,,,,,,,,,,1*5D
$GPRMC,000125.00,A,4852.4256450,N,00217.7233254,E,17.26,118.58,180502,0.0,E,A*07
$GPGGA,000125.00,4852.4256450,N,00217.7233254,E,1,05,1.0,7.596,M,0.000,M,0.0,*70
$GPGSA,A,3,08,10,16,21,23,,,,,,,,3.0,1.6,2.6,1*23
$GPGSV,2,1,05,08,74,298,52,10,56,076,47,16,26,182,43,21,45,263,52,1*60
$GPGSV,2,2,05,23,27,048,45,,,,,,,,,,,,,1*58
$GPRMC,000126.00,A,4852.4285994,N,00217.7253202,E,12.89,121.26,180502,0.0,E,A*09
$GPGGA,000126.00,4852.4285994,N,00217.7253202,E,1,05,1.0,-7.574,M,0.000,M,0.0,*5C
$GPGSA,A,3,08,10,16,21,23,,,,,,,,3.0,1.6,2.6,1*23
$GPGSV,2,1,05,08,74,298,52,10,56,076,44,16,26,182,38,21,45,263,43,1*6F
$GPGSV,2,2,05,23,27,048,38,,,,,,,,,,,,,1*52
$GPRMC,000127.00,A,4852.4252712,N,00217.7293547,E,16.19,124.18,180502,0.0,E,A*0D
$GPGGA,000127.00,4852.4252712,N,00217.7293547,E,1,05,1.0,-2.395,M,0.000,M,0.0,*51
$GPGSA,A,3,08,10,16,21,23,,,,,,,,3.0,1.6,2.6,1*23
$GPGSV,2,1,05,08,74,298,48,10,56,076,38,16,26,182,36,21,45,263,37,1*62
$GPGSV,2,2,05,23,27,048,35,,,,,,,,,,,,,1*5F
$GPRMC,000128.00,A,4852.4216060,N,00217.7373006,E,18.71,133.68,180502,0.0,E,A*0E
$GPGGA,000128.00,4852.4216060,N,00217.7373006,E,1,05,1.0,5.823,M,0.000,M,0.0,*7F
$GPGSA,A,3,08,10,16,21,23,,,,,,,,3.0,1.6,2.6,1*23
$GPGSV,2,1,05,08,74,298,51,10,56,076,36,16,26,182,34,21,45,263,36,1*67
$GPGSV,2,2,05,23,27,048,34,,,,,,,,,,,,,1*5E
$GPRMC,000129.00,A,4852.4202139,N,00217.7439082,E,18.53,125.41,180502,0.0,E,A*0E
$GPGGA,000129.00,4852.4202139,N,00217.7439082,E,1,05,1.0,3.977,M,0.000,M,0.0,*75
$GPGSA,A,3,08,10,16,21,23,,,,,,,,3.0,1.6,2.6,1*23
$GPGSV,2,1,05,08,74,298,42,10,56,076,35,16,26,182,34,21,45,263,34,1*64
$GPGSV,2,2,05,23,27,048,34,,,,,,,,,,,,,1*5E
