     2.11           OBSERVATION DATA    G                   RINEX VERSION / TYPE
BLANK OR G = GPS,  R = GLONASS,  E = GALILEO,  M = MIXED    COMMENT             
GNSS-SDR            joel                 5-MAY-25 09:50     PGM / RUN BY / DATE 
GPS OBSERVATION DATA FILE GENERATED BY GNSS-SDR             COMMENT             
GNSS-SDR VERSION 0.0.16                                     COMMENT             
See https://gnss-sdr.org                                    COMMENT             
DEFAULT MARKER NAME                                         MARKER NAME         
joel                CTTC                                    OBSERVER / AGENCY   
GNSS-SDR            Software Receiver   0.0.16              REC # / TYPE / VERS 
Antenna number      Antenna type                            ANT # / TYPE        
        0.0000        0.0000        0.0000                  APPROX POSITION XYZ 
        0.0000        0.0000        0.0000                  ANTENNA: DELTA H/E/N
     1     1                                                WAVELENGTH FACT L1/2
     4    C1    L1    D1    S1                              # / TYPES OF OBSERV 
  2002    05    18    00    00   42.1200000     GPS         TIME OF FIRST OBS   
    18                                                      LEAP SECONDS        
                                                            END OF HEADER       
 02  5 18 00 00 43.0000000  0  7G01G16G10G23G21G07G08                           
  23763590.575 7 124878514.381 7      3399.658 7        46.685                  
  23471245.318 8 123342230.695 8     -3662.957 8        49.410                  
  21313658.628 9 112004039.667 9      -798.322 9        54.378                  
  23001127.120 8 120871743.352 8     -2818.427 8        49.977                  
  21783585.556 8 114473515.344 8      1786.660 8        53.262                  
  24961618.666 7 131174189.514 7     -1906.862 7        45.648                  
  20445704.806 9 107442908.360 9       868.245 9        55.799                  
 02  5 18 00 00 44.0000000  0  7G01G16G10G23G21G07G08                           
  23762945.646 7 124875117.259 7      3394.704 7        46.773                  
  23471943.997 8 123345894.470 8     -3663.464 8        50.498                  
  21313811.158 8 112004838.024 8      -799.547 8        53.922                  
  23001664.781 8 120874562.620 8     -2818.296 8        50.208                  
  21783249.386 9 114471728.133 9      1786.420 9        54.225                  
  24961982.050 7 131176094.041 7     -1909.754 7        46.113                  
  20445541.823 9 107442040.516 9       867.788 9        56.824                  
 02  5 18 00 00 45.0000000  0  7G01G16G10G23G21G07G08                           
  23762299.037 7 124871720.310 7      3394.047 7        47.508                  
  23472640.942 8 123349558.442 8     -3662.051 8        50.284                  
  21313963.009 9 112005637.022 9      -798.023 9        54.603                  
  23002198.958 8 120877382.250 8     -2818.292 8        51.042                  
  21782906.747 8 114469941.232 8      1786.937 8        53.223                  
  24962342.718 7 131177998.923 7     -1904.919 7        46.798                  
  20445380.215 9 107441173.149 9       867.240 9        57.366                  
 02  5 18 00 00 46.0000000  0  7G01G16G10G23G21G07G08                           
  23761651.268 8 124868323.515 8      3395.411 8        48.425                  
  23473337.638 8 123353222.599 8     -3665.622 8        49.296                  
  21314115.217 9 112006436.619 9      -799.387 9        54.140                  
  23002736.494 8 120880202.292 8     -2822.658 8        50.580                  
  21782563.591 8 114468154.641 8      1786.863 8        53.642                  
  24962709.087 7 131179904.164 7     -1905.523 7        45.000                  
  20445215.677 9 107440306.259 9       866.657 9        56.301                  
 02  5 18 00 00 47.0000000  0  7G01G16G10G23G21G07G08                           
  23761005.749 7 124864926.872 7      3392.826 7        47.631                  
  23474035.762 8 123356886.951 8     -3665.608 8        50.495                  
  21314268.426 8 112007236.812 8      -801.053 8        53.806                  
  23003272.493 8 120883022.723 8     -2822.778 8        49.775                  
  21782227.313 8 114466368.352 8      1785.595 8        52.255                  
  24963068.451 7 131181809.745 7     -1907.404 7        45.935                  
  20445048.388 9 107439439.823 9       865.998 9        55.628                  
 02  5 18 00 00 48.0000000  0  7G01G16G10G23G21G07G08                           
  23760360.123 7 124861530.391 7      3396.570 7        47.363                  
  23474732.958 8 123360551.505 8     -3664.554 8        50.449                  
  21314420.188 9 112008037.612 9      -801.065 9        56.892                  
  23003811.887 8 120885843.546 8     -2822.551 8        50.782                  
  21781887.784 8 114464582.358 8      1785.175 8        52.289                  
  24963433.193 7 131183715.684 7     -1905.931 7        46.249                  
  20444880.991 9 107438573.862 9       864.960 9        57.933                  
 02  5 18 00 00 49.0000000  0  7G01G16G10G23G21G07G08                           
  23759712.157 8 124858134.070 8      3396.770 8        49.099                  
  23475429.636 8 123364216.251 8     -3667.129 8        50.706                  
  21314573.522 9 112008839.055 9      -802.222 9        57.283                  
  23004345.813 8 120888664.780 8     -2821.045 8        49.418                  
  21781545.610 8 114462796.662 8      1785.497 8        53.600                  
  24963795.166 7 131185621.983 7     -1907.277 7        46.822                  
  20444713.254 9 107437708.377 9       865.600 9        57.248                  
 02  5 18 00 00 50.0000000  0  7G01G16G10G23G21G07G08                           
  23759066.335 7 124854737.906 7      3396.926 7        47.095                  
  23476128.439 8 123367881.173 8     -3665.716 8        48.822                  
  21314726.070 9 112009641.095 9      -801.916 9        56.273                  
  23004883.796 8 120891486.407 8     -2822.126 8        49.604                  
  21781204.973 8 114461011.265 8      1787.108 8        53.316                  
  24964157.067 7 131187528.626 7     -1905.260 7        47.789                  
  20444545.267 9 107436843.361 9       864.888 9        58.655                  
 02  5 18 00 00 51.0000000  0  7G01G16G10G23G21G07G08                           
  23758421.620 7 124851341.914 7      3393.947 7        47.524                  
  23476824.831 8 123371546.307 8     -3665.741 8        50.493                  
  21314878.957 9 112010443.732 9      -802.751 9        54.768                  
  23005422.226 8 120894308.419 8     -2821.818 8        49.868                  
  21780869.393 8 114459226.167 8      1783.619 8        53.154                  
  24964522.918 7 131189435.629 7     -1906.473 7        47.338                  
  20444381.391 9 107435978.807 9       863.698 9        54.644                  
 02  5 18 00 00 52.0000000  0  7G01G16G10G23G21G07G08                           
  23757774.351 8 124847946.068 8      3397.273 8        48.302                  
  23477522.152 8 123375211.640 8     -3666.266 8        49.679                  
  21315031.934 9 112011246.989 9      -804.177 9        54.030                  
  23005957.170 8 120897130.815 8     -2822.210 8        51.388                  
  21780530.257 8 114457441.363 8      1784.993 8        51.515                  
  24964882.460 7 131191342.991 7     -1911.225 7        46.034                  
  20444219.229 9 107435114.730 9       864.513 9        56.365                  
 02  5 18 00 00 53.0000000  0  7G01G16G10G23G21G07G08                           
  23757127.170 7 124844550.395 7      3392.968 7        47.983                  
  23478221.009 8 123378877.143 8     -3662.337 8        49.511                  
  21315184.839 9 112012050.876 9      -805.067 9        55.026                  
  23006496.904 8 120899953.603 8     -2823.639 8        49.662                  
  21780186.189 8 114455656.858 8      1784.911 8        51.856                  
  24965249.383 7 131193250.699 7     -1908.671 7        46.804                  
  20444056.979 9 107434251.131 9       863.388 9        57.117                  
 02  5 18 00 00 54.0000000  0  7G01G16G10G23G21G07G08                           
  23756482.563 7 124841154.880 7      3394.631 7        46.983                  
  23478916.865 8 123382542.856 8     -3665.984 8        50.116                  
  21315338.173 9 112012855.360 9      -805.135 9        54.012                  
  23007032.135 8 120902776.776 8     -2824.037 8        50.434                  
  21779846.999 8 114453872.667 8      1784.016 8        53.871                  
  24965609.122 7 131195158.759 7     -1906.411 7        46.840                  
  20443895.228 9 107433388.008 9       863.164 9        54.953                  
 02  5 18 00 00 55.0000000  0  7G01G16G10G23G21G07G08                           
  23755836.777 8 124837759.514 8      3394.894 8        48.819                  
  23479614.686 8 123386208.755 8     -3667.142 8        49.607                  
  21315491.185 9 112013660.441 9      -805.411 9        54.168                  
  23007570.690 8 120905600.340 8     -2822.342 8        49.875                  
  21779511.633 8 114452088.796 8      1782.391 8        53.362                  
  24965973.632 7 131197067.174 7     -1908.902 7        47.059                  
  20443734.175 9 107432525.338 9       862.138 9        56.855                  
 02  5 18 00 00 56.0000000  0  7G01G16G10G23G21G07G08                           
  23755189.418 7 124834364.319 7      3392.531 7        46.764                  
  23480314.133 7 123389874.845 7     -3668.111 7        47.431                  
  21315644.788 9 112014466.138 9      -806.159 9        54.596                  
  23008107.868 8 120908424.322 8     -2824.754 8        51.900                  
  21779171.585 9 114450305.209 9      1782.477 9        54.236                  
  24966337.571 7 131198975.942 7     -1904.863 7        46.364                  
  20443571.674 9 107431663.145 9       861.547 9        56.023                  
 02  5 18 00 00 57.0000000  0  7G01G16G10G23G21G07G08                           
  23754544.704 8 124830969.285 8      3395.870 8        48.678                  
  23481009.542 7 123393541.124 7     -3663.698 7        47.427                  
  21315798.318 9 112015272.470 9      -806.512 9        55.392                  
  23008644.314 8 120911248.685 8     -2824.430 8        50.932                  
  21778828.107 8 114448521.933 8      1784.755 8        51.746                  
  24966698.364 7 131200885.067 7     -1912.589 7        45.970                  
  20443405.295 9 107430801.429 9       861.562 9        58.269                  
 02  5 18 00 00 58.0000000  0  7G01G16G10G23G21G07G08                           
  23753898.238 8 124827574.403 8      3397.161 8        48.508                  
  23481707.827 7 123397207.601 7     -3665.660 7        47.746                  
  21315952.063 9 112016079.397 9      -806.614 9        55.505                  
  23009182.815 8 120914073.446 8     -2825.113 8        50.082                  
  21778490.347 8 114446738.946 8      1783.066 8        51.998                  
  24967065.072 7 131202794.535 7     -1911.451 7        45.927                  
  20443239.113 9 107429940.189 9       861.866 9        57.003                  
 02  5 18 00 00 59.0000000  0  7G01G16G10G23G21G07G08                           
  23753251.183 8 124824179.693 8      3395.399 8        49.064                  
  23482406.435 8 123400874.282 8     -3666.671 8        48.539                  
  21316105.951 9 112016886.921 9      -807.614 9        56.594                  
  23009718.689 8 120916898.586 8     -2824.304 8        49.974                  
  21778155.035 8 114444956.266 8      1782.957 8        50.761                  
  24967425.401 7 131204704.368 7     -1910.958 7        44.704                  
  20443072.681 9 107429079.403 9       860.785 9        55.328                  
 02  5 18 00 01  0.0000000  0  7G01G16G10G23G21G07G08                           
  23752605.950 8 124820785.135 8      3397.684 8        49.810                  
  23483102.791 8 123404541.138 8     -3670.332 8        48.678                  
  21316259.607 9 112017695.078 9      -807.984 9        57.453                  
  23010258.637 8 120919724.103 8     -2826.644 8        51.599                  
  21777813.558 8 114443173.873 8      1780.452 8        52.415                  
  24967791.180 7 131206614.536 7     -1908.942 7        46.991                  
  20442905.695 9 107428219.093 9       859.881 9        57.009                  
 02  5 18 00 01  1.0000000  0  7G01G16G10G23G21G07G08                           
  23751959.949 8 124817390.734 8      3396.033 8        50.113                  
  23483801.255 8 123408208.194 8     -3665.182 8        49.371                  
  21316414.085 9 112018503.852 9      -808.682 9        55.348                  
  23010795.048 8 120922550.020 8     -2823.870 8        49.266                  
  21777470.329 8 114441391.790 8      1782.227 8        53.962                  
  24968153.278 7 131208525.075 7     -1912.366 7        47.389                  
  20442740.407 9 107427359.259 9       859.802 9        56.639                  
 02  5 18 00 01  2.0000000  0  7G01G16G10G23G21G07G08                           
  23751313.252 8 124813996.503 8      3395.663 8        49.060                  
  23484499.898 8 123411875.442 8     -3666.629 8        49.139                  
  21316567.383 9 112019313.225 9      -810.821 9        54.344                  
  23011333.155 8 120925376.329 8     -2824.965 8        50.188                  
  21777134.713 8 114439609.991 8      1782.118 8        50.755                  
  24968517.824 7 131210435.945 7     -1912.135 7        45.646                  
  20442578.603 9 107426499.904 9       858.941 9        57.195                  
 02  5 18 00 01  3.0000000  0  7G01G16G10G23G21G07G08                           
  23750668.001 8 124810602.425 8      3396.409 8        48.964                  
  23485196.111 8 123415542.864 8     -3666.802 8        51.017                  
  21316721.003 9 112020123.192 9      -810.318 9        55.029                  
  23011872.049 8 120928203.043 8     -2826.670 8        50.902                  
  21776798.669 8 114437828.515 8      1781.647 8        51.977                  
  24968882.066 7 131212347.184 7     -1910.573 7        44.744                  
  20442416.924 9 107425641.000 9       858.083 9        55.571                  
 02  5 18 00 01  4.0000000  0  7G01G16G10G23G21G07G08                           
  23750023.197 8 124807208.501 8      3390.052 8        49.242                  
  23485895.415 8 123419210.508 8     -3667.957 8        52.149                  
  21316875.052 9 112020933.780 9      -810.894 9        54.687                  
  23012407.513 8 120931030.149 8     -2826.555 8        53.056                  
  21776456.405 9 114436047.350 9      1780.653 9        54.057                  
  24969242.842 7 131214258.774 7     -1910.250 7        45.160                  
  20442255.888 9 107424782.575 9       858.137 9        56.761                  
 02  5 18 00 01  5.0000000  0  7G01G16G10G23G21G07G08                           
  23749375.928 8 124803814.759 8      3389.176 8        48.125                  
  23486593.486 8 123422878.323 8     -3665.979 8        49.201                  
  21317028.779 9 112021744.999 9      -811.946 9        56.110                  
  23012947.729 8 120933857.640 8     -2827.675 8        51.165                  
  21776115.482 8 114434266.482 8      1779.854 8        53.735                  
  24969609.978 7 131216170.713 7     -1912.811 7        45.794                  
  20442094.638 9 107423924.625 9       858.141 9        56.314                  
 02  5 18 00 01  6.0000000  0  7G01G16G10G23G21G07G08                           
  23748729.552 8 124800421.162 8      3391.866 8        48.453                  
  23487290.628 8 123426546.336 8     -3664.359 8        48.784                  
  21317182.667 9 112022556.814 9      -812.118 9        56.330                  
  23013484.979 8 120936685.498 8     -2827.081 8        48.887                  
  21775779.956 8 114432485.913 8      1779.910 8        52.021                  
  24969970.915 7 131218082.992 7     -1910.562 7        46.439                  
  20441934.710 9 107423067.154 9       857.048 9        57.043                  
 02  5 18 00 01  7.0000000  0  7G01G16G10G23G21G07G08                           
  23748085.516 8 124797027.716 8      3392.539 8        49.214                  
  23487989.665 8 123430214.549 8     -3668.239 8        50.144                  
  21317336.645 9 112023369.226 9      -813.297 9        54.965                  
  23014023.122 8 120939513.762 8     -2827.325 8        48.926                  
  21775443.071 8 114430705.640 8      1779.793 8        52.927                  
  24970337.462 7 131219995.640 7     -1914.443 7        46.129                  
  20441772.817 9 107422210.146 9       856.592 9        57.080                  
 02  5 18 00 01  8.0000000  0  7G01G16G10G23G21G07G08                           
  23747438.676 8 124793634.460 8      3393.827 8        48.852                  
  23488687.450 8 123433882.940 8     -3666.765 8        50.790                  
  21317491.390 9 112024182.271 9      -813.302 9        57.858                  
  23014562.356 8 120942342.417 8     -2828.534 8        49.935                  
  21775100.933 8 114428925.669 8      1778.950 8        52.590                  
  24970700.025 8 131221908.639 8     -1914.161 8        48.176                  
  20441607.314 9 107421353.601 9       857.243 9        58.686                  
 02  5 18 00 01  9.0000000  0  7G01G16G10G23G21G07G08                           
  23746792.550 8 124790241.345 8      3391.576 8        48.039                  
  23489384.413 8 123437551.535 8     -3667.067 8        48.445                  
  21317645.457 9 112024995.930 9      -813.801 9        55.610                  
  23015099.284 8 120945171.476 8     -2829.934 8        50.440                  
  21774760.510 8 114427145.990 8      1780.310 8        53.920                  
  24971064.571 8 131223821.982 8     -1912.750 8        48.038                  
  20441442.580 9 107420497.537 9       855.912 9        57.485                  
 02  5 18 00 01 10.0000000  0  7G01G16G10G23G21G07G08                           
  23746148.764 8 124786848.386 8      3397.285 8        49.633                  
  23490083.896 8 123441220.319 8     -3669.533 8        49.551                  
  21317800.542 9 112025810.190 9      -814.374 9        54.991                  
  23015639.340 8 120948000.930 8     -2828.596 8        50.124                  
  21774425.162 8 114425366.613 8      1779.838 8        53.374                  
  24971429.813 8 131225735.682 8     -1914.135 8        48.429                  
  20441277.524 9 107419641.949 9       855.832 9        56.891                  
 02  5 18 00 01 11.0000000  0  7G01G16G10G23G21G07G08                           
  23745502.335 7 124783455.607 7      3393.358 7        47.507                  
  23490781.950 8 123444889.285 8     -3669.782 8        50.926                  
  21317955.306 9 112026625.045 9      -815.046 9        56.142                  
  23016176.465 8 120950830.753 8     -2827.732 8        50.592                  
  21774088.474 8 114423587.533 8      1779.040 8        51.794                  
  24971791.876 8 131227649.729 8     -1913.684 8        48.150                  
  20441111.842 9 107418786.837 9       854.971 9        57.310                  
 02  5 18 00 01 12.0000000  0  7G01G16G10G23G21G07G08                           
  23744856.012 8 124780062.970 8      3389.707 8        50.026                  
  23491479.556 8 123448558.453 8     -3669.289 8        51.393                  
  21318109.712 9 112027440.512 9      -816.643 9        57.084                  
  23016715.680 8 120953660.963 8     -2829.884 8        50.660                  
  21773745.246 8 114421808.764 8      1779.370 8        53.133                  
  24972158.816 7 131229564.130 7     -1918.428 7        47.876                  
  20440946.553 9 107417932.178 9       854.466 9        57.355                  
 02  5 18 00 01 13.0000000  0  7G01G16G10G23G21G07G08                           
  23744211.280 8 124776670.498 8      3391.687 8        48.963                  
  23492178.539 8 123452227.799 8     -3669.361 8        50.380                  
  21318266.030 9 112028256.621 9      -816.416 9        56.968                  
  23017255.182 8 120956491.562 8     -2828.594 8        50.192                  
  21773406.431 8 114420030.306 8      1778.206 8        52.767                  
  24972519.073 7 131231478.871 7     -1913.254 7        46.499                  
  20440784.410 9 107417077.994 9       854.141 9        56.039                  
 02  5 18 00 01 14.0000000  0  7G01G16G10G23G21G07G08                           
  23743565.886 8 124773278.195 8      3392.242 8        48.580                  
  23492876.324 8 123455897.345 8     -3670.736 8        49.964                  
  21318421.116 9 112029073.323 9      -816.897 9        54.918                  
  23017792.325 8 120959322.566 8     -2830.558 8        50.850                  
  21773072.727 8 114418252.155 8      1778.648 8        51.982                  
  24972887.443 7 131233393.973 7     -1916.045 7        46.564                  
  20440624.053 9 107416224.288 9       854.212 9        54.648                  
 02  5 18 00 01 15.0000000  0  7G01G16G10G23G21G07G08                           
  23742918.921 8 124769886.048 8      3390.711 8        48.731                  
  23493574.020 8 123459567.087 8     -3670.030 8        49.049                  
  21318576.290 9 112029890.622 9      -817.238 9        55.319                  
  23018333.792 8 120962153.968 8     -2830.890 8        50.294                  
  21772733.519 8 114416474.292 8      1778.176 8        52.863                  
  24973249.648 7 131235309.428 7     -1916.198 7        46.912                  
  20440463.804 9 107415371.060 9       853.170 9        55.705                  
 02  5 18 00 01 16.0000000  0  7G01G16G10G23G21G07G08                           
  23742273.760 8 124766494.053 8      3395.013 8        48.228                  
  23494274.021 8 123463237.003 8     -3672.110 8        49.586                  
  21318731.340 9 112030708.530 9      -818.497 9        55.985                  
  23018869.880 8 120964985.752 8     -2831.757 8        50.713                  
  21772392.328 8 114414696.739 8      1778.235 8        52.845                  
  24973615.838 7 131237225.229 7     -1915.954 7        46.177                  
  20440303.823 9 107414518.308 9       853.057 9        56.602                  
 02  5 18 00 01 17.0000000  0  7G01G16G10G23G21G07G08                           
  23741629.706 7 124763102.242 7      3388.853 7        46.905                  
  23494971.271 8 123466907.122 8     -3670.721 8        50.234                  
  21318887.962 9 112031527.079 9      -819.291 9        56.137                  
  23019409.221 8 120967817.905 8     -2834.133 8        50.229                  
  21772053.835 9 114412919.472 9      1777.480 9        54.426                  
  24973980.742 8 131239141.390 8     -1917.000 8        48.105                  
  20440143.234 9 107413666.011 9       852.037 9        57.652                  
 02  5 18 00 01 18.0000000  0  7G01G16G10G23G21G07G08                           
  23740983.991 7 124759710.571 7      3392.881 7        47.708                  
  23495669.556 8 123470577.424 8     -3672.592 8        49.382                  
  21319043.744 9 112032346.227 9      -820.208 9        55.380                  
  23019949.062 8 120970650.452 8     -2830.501 8        49.602                  
  21771719.327 8 114411142.520 8      1775.607 8        53.201                  
  24974342.553 7 131241057.890 7     -1914.807 7        47.696                  
  20439983.771 9 107412814.189 9       851.011 9        57.420                  
 02  5 18 00 01 19.0000000  0  7G01G16G10G23G21G07G08                           
  23740337.061 7 124756319.068 7      3392.516 7        47.757                  
  23496368.503 8 123474247.919 8     -3669.741 8        50.732                  
  21319200.920 9 112033165.968 9      -819.823 9        54.671                  
  23020485.812 8 120973483.406 8     -2832.143 8        50.273                  
  21771381.478 8 114409365.842 8      1774.924 8        52.677                  
  24974711.156 8 131242974.739 8     -1916.122 8        48.140                  
  20439822.199 9 107411962.844 9       850.782 9        56.586                  
 02  5 18 00 01 20.0000000  0  7G01G16G10G23G21G07G08                           
  23739693.776 7 124752928.031 7      3388.147 7        47.303                  
  23497066.807 8 123477918.462 8     -3671.795 8        50.066                  
  21319357.953 8 112033986.129 8      -819.448 8        53.404                  
  23021027.243 8 120976316.608 8     -2832.049 8        50.798                  
  21771039.590 8 114407589.733 8      1774.829 8        50.977                  
  24975072.467 7 131244892.342 7     -1919.260 7        47.155                  
  20439658.572 9 107411112.088 9       849.274 9        56.546                  
 02  5 18 00 01 21.0000000  0  7G01G16G10G23G21G07G08                           
  23739049.813 7 124749549.125 7      3369.804 7        46.802                  
  23497763.681 8 123481583.796 8     -3660.596 8        53.346                  
  21319513.538 8 112034799.627 8      -809.385 8        50.386                  
  23021565.190 7 120979144.384 7     -2823.182 7        47.445                  
  21770703.563 8 114405823.781 8      1758.589 8        48.971                  
  24975443.107 7 131246825.829 7     -1944.256 7        47.148                  
  20439495.821 9 107410266.297 9       840.634 9        57.768                  
 02  5 18 00 01 22.0000000  0  7G01G16G10G23G21G07G08                           
  23738409.583 7 124746189.674 7      3349.945 7        46.760                  
  23498460.447 8 123485240.552 8     -3652.663 8        51.599                  
  21319665.818 8 112035602.501 8      -794.629 8        52.650                  
  23022101.851 8 120981963.679 8     -2816.664 8        50.626                  
  21770374.648 8 114404073.626 8      1742.809 8        52.217                  
  24975811.691 7 131248784.696 7     -1968.547 7        45.701                  
  20439334.428 8 107409428.625 8       833.934 8        49.884                  
 02  5 18 00 01 23.0000000  0  7G01G16G10G23G21G07G08                           
  23737774.375 7 124742849.200 7      3328.672 7        46.713                  
  23499154.284 7 123488889.181 7     -3657.642 7        46.566                  
  21319816.972 8 112036394.457 8      -787.175 8        50.694                  
  23022636.170 7 120984774.092 7     -2804.368 7        45.688                  
  21770045.339 8 114402339.302 8      1726.611 8        51.563                  
  24976193.320 7 131250768.592 7     -1992.992 7        45.009                  
  20439174.929 9 107408598.479 9       826.903 9        54.928                  
 02  5 18 00 01 24.0000000  0  7G01G16G10G23G21G07G08                           
  23737142.813 7 124739522.811 7      3327.168 7        47.572                  
  23499850.300 7 123492531.930 7     -3648.402 7        46.914                  
  21319966.125 8 112037178.870 8      -784.805 8        51.441                  
  23023170.150 7 120987578.386 7     -2804.939 7        47.657                  
  21769714.584 8 114400616.585 8      1720.652 8        51.258                  
  24976570.142 7 131252770.680 7     -2004.424 7        43.370                  
  20439016.342 9 107407774.022 9       824.631 9        56.655                  
 02  5 18 00 01 25.0000000  0  7G01G16G10G23G21G07G08                           
  23736509.356 7 124736196.528 7      3329.202 7        42.952                  
  23500541.224 7 123496176.394 7     -3645.018 7        45.251                  
  21320116.046 8 112037964.156 8      -786.974 8        53.010                  
  23023700.306 7 120990382.122 7     -2806.635 7        46.365                  
  21769384.543 8 114398893.976 8      1731.467 8        53.033                  
  24976955.737 7 131254772.176 7     -1993.125 7        45.176                  
  20438858.165 9 107406949.509 9       823.628 9        54.347                  
 02  5 18 00 01 26.0000000  0  7G01G16G10G23G21G07G08                           
  23735875.506 6 124732856.794 6      3346.966 6        40.818                  
  23501236.490 6 123499831.214 6     -3657.965 6        39.674                  
  21320267.647 7 112038757.953 7      -793.611 7        46.481                  
  23024237.127 8 120993190.992 8     -2817.619 8        48.634                  
  21769055.074 7 114397160.120 7      1739.994 7        43.511                  
  24977328.842 6 131256754.268 6     -1967.058 6        37.810                  
  20438698.559 7 107406119.482 7       838.690 7        46.855                  
 02  5 18 00 01 27.0000000  0  7G01G16G10G23G21G07G08                           
  23735237.653 7 124729510.960 7      3349.029 7        43.598                  
  23501932.899 6 123503496.420 6     -3676.659 6        37.096                  
  21320418.729 8 112039556.515 8      -794.016 8        51.616                  
  23024772.019 7 120995999.866 7     -2803.710 7        43.301                  
  21768728.875 7 114395420.326 7      1739.318 7        47.948                  
  24977707.469 6 131258724.763 6     -1967.446 6        40.304                  
  20438540.829 8 107405285.924 8       833.616 8        48.098                  
 02  5 18 00 01 28.0000000  0  7G01G16G10G23G21G07G08                           
  23734600.873 6 124726167.504 6      3334.213 6        37.628                  
  23502633.400 6 123507168.210 6     -3668.351 6        36.704                  
  21320570.938 7 112040354.133 7      -798.282 7        42.651                  
  23025303.747 6 120998804.432 6     -2803.836 6        37.219                  
  21768397.744 6 114393681.988 6      1732.058 6        41.661                  
  24978079.163 6 131260695.152 6     -1967.243 6        40.571                  
  20438381.652 8 107404451.859 8       834.654 8        53.506                  
 02  5 18 00 01 29.0000000  0  7G01G16G10G23G21G07G08                           
  23733962.966 5 124722820.785 5      3352.535 5        35.271                  
  23503331.132 6 123510847.752 6     -3672.387 6        36.338                  
  21320722.217 6 112041154.659 6      -803.609 6        38.805                  
  23025842.463 5 121001608.179 5     -2818.350 5        35.518                  
  21768063.361 6 114391940.258 6      1754.681 6        37.708                  
  24978460.845 6 131262658.365 6     -1954.770 6        37.009                  
  20438223.529 8 107403615.553 8       839.911 8        50.194                  
 02  5 18 00 01 30.0000000  0  7G01G16G10G23G21G07G08                           
  23733322.701 5 124719454.722 5      3358.823 5        35.963                  
  23504035.404 5 123514532.056 5     -3687.838 5        35.460                  
  21320877.231 6 112041967.322 6      -819.993 6        39.951                  
  23026377.836 5 121004423.514 5     -2812.810 5        35.281                  
  21767726.244 6 114390183.571 6      1756.997 6        39.658                  
  24978821.853 7 131264598.599 7     -1941.961 7        42.233                  
  20438066.210 8 107402773.185 8       848.965 8        49.877                  
 02  5 18 00 01 31.0000000  0  7G01G16G10G23G21G07G08                           
  23732681.186 5 124716091.670 5      3369.921 5        35.252                  
  23504736.620 5 123518231.922 5     -3701.432 5        35.577                  
  21321032.852 6 112042779.082 6      -812.080 6        37.600                  
  23026910.333 5 121007230.015 5     -2804.936 5        35.342                  
  21767395.935 6 114388427.478 6      1746.746 6        37.812                  
  24979191.313 7 131266534.944 7     -1934.453 7        42.231                  
  20437906.711 7 107401928.414 7       847.284 7        45.691                  
 02  5 18 00 01 32.0000000  0  7G01G16G10G23G21G07G08                           
  23732045.567 5 124712732.130 5      3348.813 5        35.378                  
  23505443.233 6 123521952.238 6     -3723.868 6        36.029                  
  21321186.257 6 112043589.750 6      -819.133 6        37.954                  
  23027441.722 5 121010025.040 5     -2800.255 5        35.738                  
  21767064.465 6 114386671.783 6      1762.519 6        39.559                  
  24979557.074 6 131268464.877 6     -1926.413 6        39.809                  
  20437748.213 7 107401080.681 7       853.261 7        42.122                  
 02  5 18 00 01 33.0000000  0  7G01G16G10G23G21G07G08                           
  23731409.000 6 124709359.795 6      3374.565 6        39.998                  
  23506153.562 6 123525667.227 6     -3705.039 6        36.447                  
  21321348.955 7 112044408.747 7      -824.990 7        45.199                  
  23027977.203 5 121012831.974 5     -2821.372 5        35.906                  
  21766720.772 7 114384907.272 7      1770.848 7        46.522                  
  24979926.105 6 131270383.927 6     -1894.456 6        36.491                  
  20437589.018 6 107400230.927 6       843.930 6        40.655                  
 02  5 18 00 01 34.0000000  0  7G01G16G10G23G21G07G08                           
  23730761.749 7 124705973.491 7      3391.567 7        43.440                  
  23506855.118 6 123529370.717 6     -3701.777 6        36.767                  
  21321499.412 7 112045236.321 7      -830.065 7        47.432                  
  23028515.919 6 121015654.479 6     -2827.263 6        37.056                  
  21766384.673 7 114383133.594 7      1776.688 7        42.122                  
  24980288.346 5 131272294.281 5     -1899.585 5        35.115                  
  20437427.875 6 107399380.514 6       856.156 6        39.264                  
 02  5 18 00 01 35.0000000  0  7G01G16G10G23G21G07G08                           
  23730111.781 6 124702576.632 6      3400.816 6        38.119                  
  23507564.036 6 123533088.451 6     -3729.512 6        37.328                  
  21321660.323 6 112046070.983 6      -833.664 6        41.620                  
  23029048.701 6 121018478.147 6     -2816.158 6        39.260                  
  21766048.253 6 114381350.432 6      1781.975 6        37.269                  
  24980648.746 5 131274186.230 5     -1868.541 5        35.018                  
  20437263.390 6 107398524.286 6       864.893 6        37.469                  
 02  5 18 00 01 36.0000000  0  7G01G16G10G23G21G07G08                           
  23729463.779 5 124699168.140 5      3400.351 5        35.462                  
  23508274.722 6 123536822.498 6     -3740.835 6        38.087                  
  21321818.839 6 112046913.565 6      -849.408 6        37.256                  
  23029593.742 7 121021302.739 7     -2825.903 7        42.337                  
  21765708.367 5 114379556.670 5      1786.114 5        35.275                  
  24981008.146 5 131276057.917 5     -1859.819 5        35.154                  
  20437097.137 5 107397661.645 5       871.161 5        35.907                  
 02  5 18 00 01 37.0000000  0  7G01G16G10G23G21G07G08                           
  23728810.648 5 124695755.502 5      3438.214 5        34.790                  
  23508984.587 6 123540561.386 6     -3735.034 6        38.934                  
  21321979.356 5 112047759.229 5      -851.041 5        35.742                  
  23030146.824 7 121024128.396 7     -2823.479 7        46.796                  
  21765364.549 5 114377759.396 5      1793.994 5        35.012                  
  24981361.667 5 131277923.119 5     -1870.921 5        35.621                  
  20436929.847 5 107396797.231 5       863.752 5        35.778                  
 02  5 18 00 01 38.0000000  0  7G01G16G10G23G21G07G08                           
  23728165.058 5 124692343.943 5      3405.084 5        34.804                  
  23509697.919 6 123544301.031 6     -3742.314 6        39.740                  
  21322138.801 5 112048604.982 5      -847.750 5        35.416                  
  23030646.156 7 121026953.451 7     -2824.355 7        46.558                  
  21765020.159 5 114375962.994 5      1794.558 5        35.123                  
  24981722.263 6 131279789.463 6     -1874.361 6        36.033                  
  20436762.700 5 107395933.437 5       864.514 5        35.879                  
 02  5 18 00 01 39.0000000  0  7G01G16G10G23G21G07G08                           
  23727515.966 5 124688934.905 5      3396.284 5        34.876                  
  23510410.875 6 123548042.045 6     -3744.862 6        40.631                  
  21322299.122 5 112049449.911 5      -851.087 5        35.297                  
  23031196.987 7 121029776.801 7     -2823.180 7        46.255                  
  21764681.773 5 114374168.544 5      1796.309 5        35.309                  
  24982073.211 6 131281657.999 6     -1859.800 6        36.589                  
  20436595.375 6 107395070.456 6       864.476 6        36.261                  
 02  5 18 00 01 40.0000000  0  6G01G16G10G23G07G08                              
  23726866.874 5 124685526.574 5      3397.108 5        34.929                  
  23511122.937 6 123551783.553 6     -3740.843 6        41.708                  
  21322460.104 5 112050295.105 5      -849.267 5        35.276                  
  23031743.457 7 121032599.858 7     -2819.464 7        44.202                  
  24982424.373 6 131283527.417 6     -1861.772 6        37.434                  
  20436433.946 6 107394208.135 6       866.642 6        36.546                  
 02  5 18 00 01 41.0000000  0  5G16G10G23G07G08                                 
  23511833.231 7 123555525.324 7     -3740.263 7        42.432                  
  21322619.103 5 112051140.867 5      -837.414 5        35.453                  
  23032280.689 6 121035423.283 6     -2819.430 6        41.929                  
  24982785.095 6 131285397.316 6     -1863.019 6        38.085                  
  20436272.839 6 107393346.327 6       861.756 6        36.930                  
 02  5 18 00 02  1.0000000  0  7G01G16G10G23G21G07G08                           
  23713344.240 6 124614454.956 6      3295.669 6        38.013                  
  23526042.535 8 123630184.025 8     -3732.905 8        48.672                  
  21325811.779 6 112067900.502 6      -799.064 6        36.564                  
  23042995.349 6 121091760.533 6     -2774.775 6        39.357                  
  21757256.319 6 114335151.206 6      1717.747 6        39.171                  
  24990025.462 7 131323468.047 7     -1984.812 7        45.041                  
  20433049.071 7 107376387.995 7       824.283 7        45.022                  
 02  5 18 00 02  2.0000000  0  7G01G16G10G23G21G07G08                           
  23712714.196 6 124611145.894 6      3313.051 6        37.175                  
  23526752.597 8 123633916.905 8     -3737.178 8        48.801                  
  21325965.989 6 112068701.904 6      -800.747 6        36.160                  
  23043523.914 6 121094532.025 6     -2776.268 6        40.598                  
  21756928.940 6 114333438.377 6      1714.344 6        38.367                  
  24990404.625 7 131325454.935 7     -1983.102 7        44.269                  
  20432891.734 7 107375565.699 7       822.444 7        43.749                  
 02  5 18 00 02  3.0000000  0  7G01G16G10G23G21G07G08                           
  23712083.527 6 124607833.951 6      3325.527 6        36.210                  
  23527462.747 8 123637654.126 8     -3741.235 8        49.569                  
  21326120.091 5 112069505.786 5      -797.807 5        35.756                  
  23044049.156 7 121097304.047 7     -2773.754 7        42.077                  
  21756605.350 6 114331723.015 6      1720.398 6        37.663                  
  24990778.785 7 131327436.860 7     -1978.880 7        45.440                  
  20432731.270 7 107374742.129 7       824.917 7        43.124                  
 02  5 18 00 02  4.0000000  0  7G01G16G10G23G21G07G08                           
  23711451.035 5 124604519.474 5      3305.965 5        35.429                  
  23528175.203 8 123641394.638 8     -3742.161 8        48.639                  
  21326273.050 5 112070311.823 5      -807.740 5        35.389                  
  23044579.027 7 121100076.791 7     -2773.790 7        44.628                  
  21756280.420 6 114330005.527 6      1722.414 6        37.183                  
  24991156.589 7 131329414.723 7     -1983.069 7        44.956                  
  20432575.023 7 107373917.538 7       825.973 7        42.552                  
 02  5 18 00 02  5.0000000  0  7G01G16G10G23G21G07G08                           
  23710819.848 5 124601206.554 5      3303.425 5        35.114                  
  23528888.713 8 123645133.825 8     -3737.681 8        48.793                  
  21326426.527 5 112071117.656 5      -792.215 5        35.104                  
  23045104.358 7 121102849.699 7     -2775.051 7        46.500                  
  21755954.578 6 114328289.547 6      1722.306 6        36.465                  
  24991533.822 7 131331395.196 7     -1987.622 7        45.028                  
  20432415.864 6 107373094.186 6       821.128 6        41.319                  
 02  5 18 00 02  6.0000000  0  7G01G16G10G23G21G07G08                           
  23710189.357 5 124597895.489 5      3316.548 5        35.287                  
  23529598.453 8 123648871.138 8     -3735.625 8        48.009                  
  21326580.469 5 112071923.047 5      -815.161 5        35.148                  
  23045633.317 7 121105622.755 7     -2774.956 7        47.232                  
  21755624.931 6 114326575.420 6      1722.397 6        36.008                  
  24991914.325 7 131333378.891 7     -1983.083 7        43.079                  
  20432260.278 6 107372272.200 6       823.812 6        40.552                  
 02  5 18 00 02  7.0000000  0  7G01G16G10G23G21G07G08                           
  23709557.687 5 124594584.837 5      3303.092 5        35.990                  
  23530308.300 7 123652608.336 7     -3736.726 7        47.856                  
  21326734.017 5 112072728.854 5      -799.634 5        35.520                  
  23046158.666 7 121108396.165 7     -2772.439 7        47.336                  
  21755296.033 5 114324861.773 5      1715.847 5        35.482                  
  24992289.182 6 131335363.359 6     -1989.941 6        40.975                  
  20432100.940 6 107371450.854 6       820.653 6        40.171                  
 02  5 18 00 02  8.0000000  0  6G01G16G23G21G07G08                              
  23708925.499 6 124591272.475 6      3316.792 6        36.702                  
  23531020.649 7 123656345.461 7     -3735.520 7        46.620                  
  23046690.430 7 121111171.376 7     -2780.971 7        45.523                  
  21754969.513 5 114323147.072 5      1727.264 5        35.038                  
  24992669.667 6 131337346.335 6     -1973.089 6        40.155                  
  20431946.641 6 107370629.541 6       823.512 6        39.776                  
 02  5 18 00 02  9.0000000  0  6G01G16G23G21G07G08                              
  23708293.061 6 124587941.915 6      3337.630 6        37.773                  
  23531729.816 7 123660072.378 7     -3720.048 7        46.617                  
  23047219.997 8 121113964.592 8     -2804.438 8        48.822                  
  21754643.439 5 114321419.910 5      1745.386 5        35.230                  
  24993045.738 6 131339314.987 6     -1957.526 6        38.888                  
  20431791.503 6 107369805.988 6       825.819 6        40.015                  
 02  5 18 00 02 10.0000000  0  6G01G16G23G21G07G08                              
  23707655.404 6 124584587.383 6      3364.083 6        38.420                  
  23532435.321 7 123663785.584 7     -3703.346 7        47.022                  
  23047753.905 8 121116781.436 8     -2822.972 8        48.320                  
  21754315.471 5 114319676.434 5      1742.947 5        35.581                  
  24993415.734 6 131341264.838 6     -1944.119 6        38.208                  
  20431635.327 6 107368979.436 6       830.726 6        40.489                  
 02  5 18 00 02 11.0000000  0  5G01G16G23G07G08                                 
  23707016.247 6 124581224.108 6      3362.624 6        39.735                  
  23533143.095 7 123667502.339 7     -3722.778 7        46.685                  
  23048293.621 7 121119603.170 7     -2814.976 7        47.852                  
  24993786.624 6 131343203.836 6     -1931.345 6        37.496                  
  20431477.508 6 107368150.145 6       830.862 6        41.166                  
 02  5 18 00 02 12.0000000  0  5G01G16G23G07G08                                 
  23706376.751 6 124577862.735 6      3354.497 6        40.706                  
  23533855.587 8 123671241.341 8     -3745.560 8        48.547                  
  23048827.226 7 121122413.530 7     -2809.284 7        47.496                  
  24994152.313 6 131345134.396 6     -1928.343 6        37.232                  
  20431319.474 7 107367316.943 7       831.848 7        42.513                  
 02  5 18 00 02 13.0000000  0  5G01G16G23G07G08                                 
  23705734.788 6 124574501.341 6      3361.948 6        40.890                  
  23534568.132 7 123674987.009 7     -3742.607 7        47.314                  
  23049363.386 8 121125221.298 8     -2809.307 8        49.175                  
  24994519.897 6 131347061.833 6     -1935.427 6        36.453                  
  20431163.192 7 107366482.731 7       836.793 7        42.844                  
 02  5 18 00 02 14.0000000  0  5G01G16G23G07G08                                 
  23705097.579 7 124571140.348 7      3360.670 7        42.648                  
  23535277.479 8 123678721.300 8     -3730.358 8        49.181                  
  23049897.956 8 121128034.830 8     -2814.414 8        48.846                  
  24994885.676 6 131348995.639 6     -1935.770 6        36.077                  
  20431004.408 7 107365651.593 7       827.387 7        43.883                  
 02  5 18 00 02 15.0000000  0  5G01G16G23G07G08                                 
  23704462.657 7 124567790.415 7      3340.562 7        44.046                  
  23535989.345 8 123682461.464 8     -3749.863 8        49.272                  
  23050431.221 8 121130838.475 8     -2791.471 8        48.395                  
  24995254.921 5 131350938.737 5     -1949.024 5        35.556                  
  20430849.662 7 107364822.670 7       823.203 7        43.673                  
 02  5 18 00 02 16.0000000  0  5G01G16G23G07G08                                 
  23703825.555 7 124564453.881 7      3337.934 7        43.759                  
  23536705.178 8 123686217.157 8     -3757.733 8        48.100                  
  23050960.287 7 121133626.022 7     -2786.074 7        47.352                  
  24995625.811 5 131352889.006 5     -1954.535 5        35.675                  
  20430695.006 7 107363994.411 7       821.915 7        43.389                  
 02  5 18 00 02 17.0000000  0  5G01G16G23G07G08                                 
  23703190.382 7 124561119.405 7      3337.638 7        45.685                  
  23537420.654 7 123689973.869 7     -3757.278 7        47.878                  
  23051492.730 8 121136412.264 8     -2783.896 8        48.044                  
  24995997.540 5 131354841.241 5     -1944.971 5        35.191                  
  20430542.243 7 107363167.016 7       831.661 7        43.695                  
 02  5 18 00 02 18.0000000  0  5G01G16G23G07G08                                 
  23702556.604 7 124557785.783 7      3329.207 7        46.044                  
  23538133.878 7 123693730.517 7     -3755.579 7        47.530                  
  23052021.618 8 121139198.505 8     -2785.950 8        49.855                  
  24996365.106 5 131356794.781 5     -1957.856 5        34.959                  
  20430384.120 7 107362340.341 7       831.183 7        43.165                  
 02  5 18 00 02 19.0000000  0  5G01G16G23G07G08                                 
  23701923.951 7 124554452.587 7      3335.983 7        45.950                  
  23538848.728 8 123697487.271 8     -3755.296 8        48.237                  
  23052553.132 8 121141984.944 8     -2784.979 8        50.194                  
  24996740.588 5 131358749.023 5     -1958.691 5        35.140                  
  20430224.336 6 107361514.262 6       831.095 6        41.571                  
 02  5 18 00 02 20.0000000  0  5G01G16G23G07G08                                 
  23701288.815 7 124551119.213 7      3334.268 7        45.683                  
  23539565.097 8 123701244.316 8     -3759.713 8        48.282                  
  23053082.823 8 121144771.922 8     -2784.833 8        49.912                  
  24997108.332 5 131360703.171 5     -1969.288 5        34.820                  
  20430064.819 6 107360688.567 6       830.093 6        41.654                  
 02  5 18 00 02 21.0000000  0  5G01G16G23G07G08                                 
  23700652.856 7 124547784.693 7      3333.250 7        45.902                  
  23540283.414 8 123705001.982 8     -3758.391 8        48.000                  
  23053611.836 8 121147559.995 8     -2791.321 8        48.197                  
  24997483.939 5 131362656.180 5     -1947.716 5        34.958                  
  20429904.534 6 107359862.849 6       823.544 6        41.879                  
 02  5 18 00 02 22.0000000  0  5G01G16G23G07G08                                 
  23700018.524 7 124544449.825 7      3335.321 7        46.951                  
  23540997.675 8 123708760.026 8     -3755.662 8        48.354                  
  23054145.226 7 121150348.695 7     -2788.013 7        47.527                  
  24997853.899 5 131364608.859 5     -1961.308 5        34.929                  
  20429744.570 7 107359037.532 7       824.171 7        42.654                  
 02  5 18 00 02 23.0000000  0  4G01G16G23G08                                    
  23699386.514 7 124541115.396 7      3331.161 7        47.390                  
  23541707.468 8 123712518.164 8     -3757.262 8        48.204                  
  23054672.451 8 121153137.596 8     -2788.027 8        49.612                  
  20429587.680 7 107358212.652 7       820.555 7        43.430                  
 02  5 18 00 02 24.0000000  0  4G01G16G23G08                                    
  23698751.681 7 124537781.550 7      3333.340 7        45.881                  
  23542421.621 7 123716276.366 7     -3757.786 7        47.006                  
  23055207.146 8 121155926.654 8     -2789.201 8        49.533                  
  20429435.097 7 107357388.479 7       824.137 7        43.902                  
 02  5 18 00 02 25.0000000  0  4G01G16G23G08                                    
  23698114.794 7 124534447.068 7      3334.529 7        46.188                  
  23543138.920 8 123720035.010 8     -3760.305 8        49.631                  
  23055735.176 8 121158716.506 8     -2789.191 8        48.995                  
  20429276.027 7 107356564.509 7       822.461 7        45.265                  
 02  5 18 00 02 26.0000000  0  4G01G16G23G08                                    
  23697479.961 7 124531110.965 7      3341.803 7        46.755                  
  23543855.664 8 123723794.367 8     -3761.602 8        49.187                  
  23056268.227 8 121161507.663 8     -2793.395 8        48.487                  
  20429104.127 7 107355740.577 7       820.861 7        46.414                  
 02  5 18 00 02 27.0000000  0  4G01G16G23G08                                    
  23696847.254 7 124527774.589 7      3336.117 7        45.362                  
  23544572.337 8 123727554.020 8     -3758.284 8        48.137                  
  23056797.346 7 121164299.432 7     -2790.296 7        47.568                  
  20428973.611 8 107354916.723 8       823.921 8        49.893                  
 02  5 18 00 02 28.0000000  0  4G01G16G23G08                                    
  23696212.386 7 124524438.729 7      3335.778 7        47.539                  
  23545285.239 8 123731313.778 8     -3759.557 8        49.485                  
  23057330.612 7 121167091.384 7     -2791.171 7        46.843                  
  20428770.423 8 107354093.628 8       821.746 8        50.982                  
 02  5 18 00 02 29.0000000  0  4G01G16G23G08                                    
  23695576.499 7 124521102.442 7      3338.366 7        46.873                  
  23546000.965 7 123735069.502 7     -3746.944 7        47.841                  
  23057861.840 8 121169886.119 8     -2803.014 8        48.009                  
  20428600.059 8 107353271.771 8       821.247 8        53.687                  
 02  5 18 00 02 30.0000000  0  4G01G16G23G08                                    
  23694938.628 7 124517755.565 7      3352.268 7        47.466                  
  23546712.778 8 123738805.080 8     -3724.475 8        48.067                  
  23058396.409 8 121172698.417 8     -2823.195 8        49.231                  
  20428442.204 8 107352451.999 8       819.006 8        52.948                  
 02  5 18 00 02 33.0000000  0  6G01G16G10G23G21G08                              
  23693019.174 7 124507665.510 7      3350.970 7        47.529                  
  23548828.524 8 123749924.176 8     -3714.446 8        48.837                  
  21330858.777 8 112094430.049 8      -846.781 8        48.625                  
  23060018.291 7 121181214.910 7     -2828.217 7        47.383                  
  21746707.252 7 114279710.271 7      1738.256 7        45.459                  
  20428039.454 9 107350001.306 9       815.282 9        56.322                  
 02  5 18 00 02 34.0000000  0  6G01G16G10G23G21G08                              
  23692380.892 8 124504314.946 8      3353.905 8        48.529                  
  23549534.654 8 123753636.434 8     -3703.329 8        48.387                  
  21331020.992 8 112095277.763 8      -851.259 8        48.544                  
  23060556.077 7 121184043.246 7     -2834.069 7        47.816                  
  21746378.980 7 114277974.547 7      1737.592 7        46.158                  
  20427883.833 8 107349187.522 8       812.341 8        53.577                  
 02  5 18 00 02 35.0000000  0  6G01G16G10G23G21G08                              
  23691742.450 7 124500952.712 7      3368.767 7        46.604                  
  23550234.280 8 123757328.666 8     -3682.659 8        49.031                  
  21331171.825 8 112096133.022 8      -858.192 8        50.246                  
  23061094.775 8 121186889.827 8     -2853.003 8        50.072                  
  21746042.774 8 114276232.604 8      1745.945 8        48.980                  
  20427696.727 8 107348375.630 8       810.373 8        50.692                  
 02  5 18 00 02 36.0000000  0  6G01G16G10G23G21G08                              
  23691103.847 7 124497590.464 7      3359.553 7        46.534                  
  23550936.693 8 123761006.383 8     -3672.413 8        48.325                  
  21331351.480 8 112096989.035 8      -854.449 8        50.364                  
  23061640.924 8 121189743.981 8     -2856.405 8        50.596                  
  21745713.591 7 114274492.563 7      1735.181 7        47.824                  
  20427564.674 7 107347567.183 7       805.959 7        47.688                  
 02  5 18 00 02 37.0000000  0  6G01G16G10G23G21G08                              
  23690458.882 8 124494234.598 8      3354.062 8        50.771                  
  23551634.318 8 123764662.233 8     -3644.861 8        49.492                  
  21331508.727 8 112097841.918 8      -851.781 8        53.065                  
  23062184.303 8 121192604.815 8     -2865.227 8        50.673                  
  21745382.371 8 114272760.154 8      1730.256 8        53.164                  
  20427411.519 9 107346765.710 9       799.616 9        55.294                  
 02  5 18 00 02 38.0000000  0  6G01G16G10G23G21G08                              
  23689825.425 8 124490884.986 8      3346.983 8        48.096                  
  23552323.651 8 123768297.913 8     -3630.006 8        50.188                  
  21331671.550 8 112098691.810 8      -848.316 8        53.704                  
  23062730.988 8 121195471.608 8     -2867.693 8        50.991                  
  21745058.137 8 114271035.053 8      1720.440 8        52.505                  
  20427259.811 9 107345970.833 9       792.723 9        55.811                  
 02  5 18 00 02 39.0000000  0  6G01G16G10G23G21G08                              
  23689190.610 8 124487540.689 8      3343.037 8        48.523                  
  23553014.450 8 123771924.590 8     -3624.150 8        51.667                  
  21331831.996 8 112099539.297 8      -847.454 8        53.929                  
  23063277.798 8 121198339.716 8     -2866.480 8        49.343                  
  21744733.136 8 114269315.204 8      1719.816 8        52.837                  
  20427109.604 9 107345179.807 9       791.453 9        55.138                  
 02  5 18 00 02 40.0000000  0  6G01G16G10G23G21G08                              
  23688554.152 8 124484194.302 8      3348.718 8        50.437                  
  23553702.979 8 123775549.832 8     -3624.439 8        48.995                  
  21331995.355 8 112100388.698 8      -850.918 8        52.349                  
  23063820.891 8 121201210.502 8     -2874.381 8        49.768                  
  21744404.757 8 114267594.164 8      1723.750 8        52.668                  
  20426959.075 9 107344388.961 9       790.983 9        54.574                  
 02  5 18 00 02 41.0000000  0  6G01G16G10G23G21G08                              
  23687914.137 7 124480842.464 7      3350.664 7        47.628                  
  23554394.224 8 123779171.778 8     -3621.616 8        50.184                  
  21332156.980 8 112101242.066 8      -853.654 8        51.635                  
  23064370.328 8 121204087.217 8     -2878.996 8        50.051                  
  21744074.305 8 114265869.593 8      1724.992 8        52.310                  
  20426808.600 8 107343597.816 8       790.033 8        53.097                  
 02  5 18 00 02 42.0000000  0  6G01G16G10G23G21G08                              
  23687276.141 8 124477493.101 8      3346.204 8        48.578                  
