$GPRMC,000030.00,A,4852.4663232,N,00217.5805465,E,1.19,0.00,180502,0.0,E,A*35
$GPGGA,000030.00,4852.4663232,N,00217.5805465,E,1,06,1.0,-8.467,M,0.000,M,0.0,*52
$GPGSA,A,3,01,08,10,16,21,23,,,,,,,2.2,1.3,1.8,1*29
$GPGSV,2,1,06,01,15,255,47,08,73,299,56,10,56,076,54,16,27,182,50,1*66
$GPGSV,2,2,06,21,45,263,53,23,28,048,50,,,,,,,,,1*63
$GPRMC,000031.00,A,4852.4661215,N,00217.5818179,E,0.51,0.00,180502,0.0,E,A*3A
$GPGGA,000031.00,4852.4661215,N,00217.5818179,E,1,06,1.0,-9.649,M,0.000,M,0.0,*5F
$GPGSA,A,3,01,08,10,16,21,23,,,,,,,2.2,1.3,1.8,1*29
$GPGSV,2,1,06,01,15,255,47,08,73,299,57,10,56,076,54,16,27,182,50,1*67
$GPGSV,2,2,06,21,45,263,54,23,28,048,50,,,,,,,,,1*64
$GPRMC,000032.00,A,4852.4667109,N,00217.5821012,E,1.28,0.00,180502,0.0,E,A*38
$GPGGA,000032.00,4852.4667109,N,00217.5821012,E,1,06,1.0,-15.232,M,0.000,M,0.0,*67
$GPGSA,A,3,01,08,10,16,21,23,,,,,,,2.2,1.3,1.8,1*29
$GPGSV,2,1,06,01,15,255,48,08,73,299,57,10,56,076,54,16,27,182,50,1*68
$GPGSV,2,2,06,21,45,263,53,23,28,048,51,,,,,,,,,1*62
$GPRMC,000033.00,A,4852.4665493,N,00217.5807033,E,1.53,0.00,180502,0.0,E,A*36
$GPGGA,000033.00,4852.4665493,N,00217.5807033,E,1,06,1.0,-15.275,M,0.000,M,0.0,*66
$GPGSA,A,3,01,08,10,16,21,23,,,,,,,2.2,1.3,1.8,1*29
$GPGSV,2,1,06,01,15,255,48,08,73,299,56,10,56,076,54,16,27,182,49,1*61
$GPGSV,2,2,06,21,45,263,54,23,28,048,50,,,,,,,,,1*64
$GPRMC,000034.00,A,4852.4669834,N,00217.5813449,E,1.86,0.00,180502,0.0,E,A*38
$GPGGA,000034.00,4852.4669834,N,00217.5813449,E,1,06,1.0,-13.885,M,0.000,M,0.0,*63
$GPGSA,A,3,01,08,10,16,21,23,,,,,,,2.2,1.3,1.8,1*29
$GPGSV,2,1,06,01,15,255,48,08,73,299,56,10,56,076,54,16,27,182,50,1*69
$GPGSV,2,2,06,21,45,263,52,23,28,048,50,,,,,,,,,1*62
$GPRMC,000035.00,A,4852.4661339,N,00217.5809296,E,0.37,0.00,180502,0.0,E,A*33
$GPGGA,000035.00,4852.4661339,N,00217.5809296,E,1,06,1.0,-7.628,M,0.000,M,0.0,*5F
$GPGSA,A,3,01,08,10,16,21,23,,,,,,,2.2,1.3,1.8,1*29
$GPGSV,2,1,06,01,15,255,47,08,73,299,58,10,56,076,57,16,27,182,50,1*6B
$GPGSV,2,2,06,21,45,263,52,23,27,048,51,,,,,,,,,1*6C
$GPRMC,000036.00,A,4852.4672627,N,00217.5796920,E,0.97,0.00,180502,0.0,E,A*3D
$GPGGA,000036.00,4852.4672627,N,00217.5796920,E,1,06,1.0,-8.309,M,0.000,M,0.0,*52
$GPGSA,A,3,01,08,10,16,21,23,,,,,,,2.2,1.3,1.8,1*29
$GPGSV,2,1,06,01,15,255,49,08,73,299,57,10,56,076,57,16,27,182,51,1*6B
$GPGSV,2,2,06,21,45,263,54,23,27,048,50,,,,,,,,,1*6B
$GPRMC,000037.00,A,4852.4677753,N,00217.5783940,E,0.60,0.00,180502,0.0,E,A*31
$GPGGA,000037.00,4852.4677753,N,00217.5783940,E,1,06,1.0,-2.623,M,0.000,M,0.0,*51
$GPGSA,A,3,01,08,10,16,21,23,,,,,,,2.2,1.3,1.8,1*29
$GPGSV,2,1,06,01,15,255,47,08,73,299,59,10,56,076,56,16,27,182,49,1*63
$GPGSV,2,2,06,21,45,263,53,23,27,048,50,,,,,,,,,1*6C
$GPRMC,000038.00,A,4852.4663927,N,00217.5802158,E,0.52,0.00,180502,0.0,E,A*30
$GPGGA,000038.00,4852.4663927,N,00217.5802158,E,1,06,1.0,-2.079,M,0.000,M,0.0,*58
$GPGSA,A,3,01,08,10,16,21,23,,,,,,,2.2,1.3,1.8,1*29
$GPGSV,2,1,06,01,15,255,48,08,73,299,55,10,56,076,55,16,27,182,50,1*6B
$GPGSV,2,2,06,21,45,263,53,23,27,048,50,,,,,,,,,1*6C
$GPRMC,000039.00,A,4852.4669101,N,00217.5809104,E,0.81,0.00,180502,0.0,E,A*3B
$GPGGA,000039.00,4852.4669101,N,00217.5809104,E,1,06,1.0,-7.816,M,0.000,M,0.0,*59
$GPGSA,A,3,01,08,10,16,21,23,,,,,,,2.2,1.3,1.8,1*29
$GPGSV,2,1,06,01,15,255,48,08,73,299,56,10,56,076,54,16,27,182,50,1*69
$GPGSV,2,2,06,21,45,263,52,23,27,048,52,,,,,,,,,1*6F
$GPRMC,000040.00,A,4852.4670744,N,00217.5786803,E,1.66,0.00,180502,0.0,E,A*34
$GPGGA,000040.00,4852.4670744,N,00217.5786803,E,1,06,1.0,-7.089,M,0.000,M,0.0,*50
$GPGSA,A,3,01,08,10,16,21,23,,,,,,,2.2,1.3,1.8,1*29
$GPGSV,2,1,06,01,15,255,48,08,73,299,57,10,56,076,55,16,27,182,50,1*69
$GPGSV,2,2,06,21,45,263,52,23,27,048,50,,,,,,,,,1*6D
$GPRMC,000041.00,A,4852.4665896,N,00217.5803987,E,0.56,0.00,180502,0.0,E,A*3C
$GPGGA,000041.00,4852.4665896,N,00217.5803987,E,1,06,1.0,-10.989,M,0.000,M,0.0,*65
$GPGSA,A,3,01,08,10,16,21,23,,,,,,,2.2,1.3,1.8,1*29
$GPGSV,2,1,06,01,15,255,47,08,73,299,55,10,56,076,54,16,27,182,50,1*65
$GPGSV,2,2,06,21,45,263,54,23,27,048,50,,,,,,,,,1*6B
$GPRMC,000042.00,A,4852.4658065,N,00217.5821156,E,0.85,0.00,180502,0.0,E,A*3F
$GPGGA,000042.00,4852.4658065,N,00217.5821156,E,1,06,1.0,-14.025,M,0.000,M,0.0,*63
$GPGSA,A,3,01,08,10,16,21,23,,,,,,,2.2,1.3,1.8,1*29
$GPGSV,2,1,06,01,15,255,49,08,73,299,57,10,56,076,54,16,27,182,50,1*69
$GPGSV,2,2,06,21,45,263,53,23,27,048,50,,,,,,,,,1*6C
$GPRMC,000043.00,A,4852.4668063,N,00217.5812985,E,0.91,0.00,180502,0.0,E,A*38
$GPGGA,000043.00,4852.4668063,N,00217.5812985,E,1,06,1.0,-16.768,M,0.000,M,0.0,*6D
$GPGSA,A,3,01,08,10,16,21,23,,,,,,,2.2,1.3,1.8,1*29
$GPGSV,2,1,06,01,15,255,47,08,73,299,56,10,56,076,54,16,27,182,48,1*6F
$GPGSV,2,2,06,21,45,263,54,23,27,048,52,,,,,,,,,1*69
$GPRMC,000044.00,A,4852.4663869,N,00217.5806621,E,0.70,0.00,180502,0.0,E,A*3D
$GPGGA,000044.00,4852.4663869,N,00217.5806621,E,1,06,1.0,-13.130,M,0.000,M,0.0,*69
$GPGSA,A,3,01,08,10,16,21,23,,,,,,,2.2,1.3,1.8,1*29
$GPGSV,2,1,06,01,15,255,49,08,73,299,58,10,56,076,56,16,27,182,48,1*6D
$GPGSV,2,2,06,21,45,263,52,23,27,048,51,,,,,,,,,1*6C
$GPRMC,000045.00,A,4852.4664186,N,00217.5802643,E,0.41,0.00,180502,0.0,E,A*31
$GPGGA,000045.00,4852.4664186,N,00217.5802643,E,1,06,1.0,-10.446,M,0.000,M,0.0,*60
$GPGSA,A,3,01,08,10,16,21,23,,,,,,,2.2,1.3,1.8,1*29
$GPGSV,2,1,06,01,15,255,48,08,73,299,57,10,56,076,56,16,27,182,48,1*63
$GPGSV,2,2,06,21,45,263,52,23,27,048,50,,,,,,,,,1*6D
$GPRMC,000046.00,A,4852.4673055,N,00217.5808644,E,0.48,0.00,180502,0.0,E,A*3F
$GPGGA,000046.00,4852.4673055,N,00217.5808644,E,1,06,1.0,-11.090,M,0.000,M,0.0,*69
$GPGSA,A,3,01,08,10,16,21,23,,,,,,,2.2,1.3,1.8,1*29
$GPGSV,2,1,06,01,15,255,49,08,73,299,55,10,56,076,56,16,27,182,48,1*60
$GPGSV,2,2,06,21,45,263,51,23,27,048,50,,,,,,,,,1*6E
$GPRMC,000047.00,A,4852.4662469,N,00217.5797180,E,1.51,0.00,180502,0.0,E,A*3A
$GPGGA,000047.00,4852.4662469,N,00217.5797180,E,1,06,1.0,-4.122,M,0.000,M,0.0,*59
$GPGSA,A,3,01,08,10,16,21,23,,,,,,,2.2,1.3,1.8,1*29
$GPGSV,2,1,06,01,15,255,50,08,73,299,57,10,56,076,58,16,27,182,49,1*65
$GPGSV,2,2,06,21,45,263,52,23,27,048,52,,,,,,,,,1*6F
$GPRMC,000048.00,A,4852.4673801,N,00217.5779892,E,1.27,0.00,180502,0.0,E,A*3C
$GPGGA,000048.00,4852.4673801,N,00217.5779892,E,1,06,1.0,-2.663,M,0.000,M,0.0,*5A
$GPGSA,A,3,01,08,10,16,21,23,,,,,,,2.2,1.3,1.8,1*29
$GPGSV,2,1,06,01,15,255,50,08,73,299,57,10,56,076,55,16,27,182,49,1*68
$GPGSV,2,2,06,21,45,263,54,23,27,048,49,,,,,,,,,1*63
$GPRMC,000049.00,A,4852.4673326,N,00217.5791529,E,1.33,0.00,180502,0.0,E,A*3D
$GPGGA,000049.00,4852.4673326,N,00217.5791529,E,1,06,1.0,-5.443,M,0.000,M,0.0,*59
$GPGSA,A,3,01,08,10,16,21,23,,,,,,,2.2,1.3,1.8,1*29
$GPGSV,2,1,06,01,15,255,49,08,73,299,57,10,56,076,54,16,27,182,49,1*61
$GPGSV,2,2,06,21,45,263,51,23,27,048,50,,,,,,,,,1*6E
$GPRMC,000050.00,A,4852.4658755,N,00217.5809973,E,1.15,0.00,180502,0.0,E,A*35
$GPGGA,000050.00,4852.4658755,N,00217.5809973,E,1,06,1.0,-6.798,M,0.000,M,0.0,*53
$GPGSA,A,3,01,08,10,16,21,23,,,,,,,2.2,1.3,1.8,1*29
$GPGSV,2,1,06,01,15,255,49,08,73,299,56,10,56,076,55,16,27,182,51,1*68
$GPGSV,2,2,06,21,45,263,52,23,27,048,51,,,,,,,,,1*6C
$GPRMC,000051.00,A,4852.4672291,N,00217.5807675,E,1.18,0.00,180502,0.0,E,A*3B
$GPGGA,000051.00,4852.4672291,N,00217.5807675,E,1,06,1.0,-9.628,M,0.000,M,0.0,*55
$GPGSA,A,3,01,08,10,16,21,23,,,,,,,2.2,1.3,1.8,1*29
$GPGSV,2,1,06,01,15,255,49,08,73,299,57,10,56,076,55,16,27,182,52,1*6A
$GPGSV,2,2,06,21,45,263,54,23,27,048,53,,,,,,,,,1*68
$GPRMC,000052.00,A,4852.4667925,N,00217.5797928,E,1.93,0.00,180502,0.0,E,A*3A
$GPGGA,000052.00,4852.4667925,N,00217.5797928,E,1,06,1.0,-10.172,M,0.000,M,0.0,*67
$GPGSA,A,3,01,08,10,16,21,23,,,,,,,2.2,1.3,1.8,1*29
$GPGSV,2,1,06,01,15,255,48,08,73,299,56,10,56,076,56,16,27,182,49,1*63
$GPGSV,2,2,06,21,45,263,54,23,27,048,51,,,,,,,,,1*6A
$GPRMC,000053.00,A,4852.4662604,N,00217.5818509,E,1.45,0.00,180502,0.0,E,A*3E
$GPGGA,000053.00,4852.4662604,N,00217.5818509,E,1,06,1.0,-15.892,M,0.000,M,0.0,*6A
$GPGSA,A,3,01,08,10,16,21,23,,,,,,,2.2,1.3,1.8,1*29
$GPGSV,2,1,06,01,15,255,48,08,73,299,57,10,56,076,56,16,27,182,49,1*62
$GPGSV,2,2,06,21,45,263,52,23,27,048,49,,,,,,,,,1*65
$GPRMC,000054.00,A,4852.4662986,N,00217.5830776,E,0.43,0.00,180502,0.0,E,A*3B
$GPGGA,000054.00,4852.4662986,N,00217.5830776,E,1,06,1.0,-15.841,M,0.000,M,0.0,*66
$GPGSA,A,3,01,08,10,16,21,23,,,,,,,2.2,1.3,1.8,1*29
$GPGSV,2,1,06,01,15,255,49,08,73,299,57,10,56,076,55,16,27,182,50,1*68
$GPGSV,2,2,06,21,45,263,53,23,27,048,49,,,,,,,,,1*64
$GPRMC,000055.00,A,4852.4663968,N,00217.5810996,E,0.51,0.00,180502,0.0,E,A*3A
$GPGGA,000055.00,4852.4663968,N,00217.5810996,E,1,06,1.0,-12.162,M,0.000,M,0.0,*6B
$GPGSA,A,3,01,08,10,16,21,23,,,,,,,2.2,1.3,1.8,1*29
$GPGSV,2,1,06,01,15,255,49,08,73,299,59,10,56,076,58,16,27,182,51,1*6A
$GPGSV,2,2,06,21,45,263,52,23,27,048,50,,,,,,,,,1*6D
$GPRMC,000056.00,A,4852.4665103,N,00217.5809184,E,1.13,0.00,180502,0.0,E,A*3E
$GPGGA,000056.00,4852.4665103,N,00217.5809184,E,1,06,1.0,-11.088,M,0.000,M,0.0,*6E
$GPGSA,A,3,01,08,10,16,21,23,,,,,,,2.2,1.3,1.8,1*29
$GPGSV,2,1,06,01,15,255,48,08,73,299,58,10,56,076,56,16,27,182,48,1*6C
$GPGSV,2,2,06,21,45,263,54,23,27,048,50,,,,,,,,,1*6B
$GPRMC,000057.00,A,4852.4663098,N,00217.5814104,E,1.85,0.00,180502,0.0,E,A*31
$GPGGA,000057.00,4852.4663098,N,00217.5814104,E,1,06,1.0,-6.165,M,0.000,M,0.0,*5A
$GPGSA,A,3,01,08,10,16,21,23,,,,,,,2.2,1.3,1.8,1*29
$GPGSV,2,1,06,01,16,255,50,08,73,299,57,10,56,076,55,16,27,182,50,1*63
$GPGSV,2,2,06,21,45,263,53,23,27,048,50,,,,,,,,,1*6C
$GPRMC,000058.00,A,4852.4667448,N,00217.5817101,E,1.14,0.00,180502,0.0,E,A*3D
$GPGGA,000058.00,4852.4667448,N,00217.5817101,E,1,06,1.0,-5.220,M,0.000,M,0.0,*5F
$GPGSA,A,3,01,08,10,16,21,23,,,,,,,2.2,1.3,1.8,1*29
$GPGSV,2,1,06,01,16,255,48,08,73,299,57,10,56,076,56,16,27,182,51,1*68
$GPGSV,2,2,06,21,45,263,52,23,27,048,50,,,,,,,,,1*6D
$GPRMC,000059.00,A,4852.4667705,N,00217.5797969,E,0.80,0.00,180502,0.0,E,A*3B
$GPGGA,000059.00,4852.4667705,N,00217.5797969,E,1,06,1.0,-0.558,M,0.000,M,0.0,*58
$GPGSA,A,3,01,08,10,16,21,23,,,,,,,2.2,1.3,1.8,1*29
$GPGSV,2,1,06,01,16,255,50,08,73,299,57,10,56,076,57,16,26,182,52,1*62
$GPGSV,2,2,06,21,45,263,53,23,27,048,51,,,,,,,,,1*6D
$GPRMC,000100.00,A,4852.4668531,N,00217.5792788,E,0.66,0.00,180502,0.0,E,A*30
$GPGGA,000100.00,4852.4668531,N,00217.5792788,E,1,06,1.0,0.183,M,0.000,M,0.0,*74
$GPGSA,A,3,01,08,10,16,21,23,,,,,,,2.2,1.3,1.8,1*29
$GPGSV,2,1,06,01,16,255,49,08,73,299,56,10,56,076,57,16,26,182,50,1*69
$GPGSV,2,2,06,21,45,263,53,23,27,048,50,,,,,,,,,1*6C
$GPRMC,000101.00,A,4852.4665942,N,00217.5817467,E,0.61,0.00,180502,0.0,E,A*33
$GPGGA,000101.00,4852.4665942,N,00217.5817467,E,1,06,1.0,-4.779,M,0.000,M,0.0,*5A
$GPGSA,A,3,01,08,10,16,21,23,,,,,,,2.2,1.3,1.8,1*29
$GPGSV,2,1,06,01,16,255,48,08,73,299,55,10,56,076,55,16,26,182,50,1*69
$GPGSV,2,2,06,21,45,263,52,23,27,048,51,,,,,,,,,1*6C
$GPRMC,000102.00,A,4852.4656227,N,00217.5811576,E,0.51,0.00,180502,0.0,E,A*3C
$GPGGA,000102.00,4852.4656227,N,00217.5811576,E,1,06,1.0,-5.567,M,0.000,M,0.0,*5A
$GPGSA,A,3,01,08,10,16,21,23,,,,,,,2.2,1.3,1.8,1*29
$GPGSV,2,1,06,01,16,255,49,08,73,299,56,10,56,076,55,16,26,182,49,1*63
$GPGSV,2,2,06,21,45,263,53,23,27,048,50,,,,,,,,,1*6C
$GPRMC,000103.00,A,4852.4671863,N,00217.5809611,E,1.54,0.00,180502,0.0,E,A*3D
$GPGGA,000103.00,4852.4671863,N,00217.5809611,E,1,06,1.0,-9.074,M,0.000,M,0.0,*54
$GPGSA,A,3,01,08,10,16,21,23,,,,,,,2.2,1.3,1.8,1*29
$GPGSV,2,1,06,01,16,255,48,08,73,299,56,10,56,076,56,16,26,182,50,1*69
$GPGSV,2,2,06,21,45,263,53,23,27,048,51,,,,,,,,,1*6D
$GPRMC,000104.00,A,4852.4664083,N,00217.5814705,E,1.63,0.00,180502,0.0,E,A*34
$GPGGA,000104.00,4852.4664083,N,00217.5814705,E,1,06,1.0,-9.892,M,0.000,M,0.0,*59
$GPGSA,A,3,01,08,10,16,21,23,,,,,,,2.2,1.3,1.8,1*29
$GPGSV,2,1,06,01,16,255,47,08,73,299,58,10,56,076,56,16,26,182,50,1*68
$GPGSV,2,2,06,21,45,263,54,23,27,048,50,,,,,,,,,1*6B
$GPRMC,000105.00,A,4852.4657227,N,00217.5829250,E,2.03,353.60,180502,0.0,E,A*34
$GPGGA,000105.00,4852.4657227,N,00217.5829250,E,1,06,1.0,-13.324,M,0.000,M,0.0,*62
$GPGSA,A,3,01,08,10,16,21,23,,,,,,,2.2,1.3,1.8,1*29
$GPGSV,2,1,06,01,16,255,48,08,73,299,58,10,56,076,56,16,26,182,50,1*67
$GPGSV,2,2,06,21,45,263,53,23,27,048,50,,,,,,,,,1*6C
$GPRMC,000106.00,A,4852.4668561,N,00217.5826002,E,1.12,353.60,180502,0.0,E,A*37
$GPGGA,000106.00,4852.4668561,N,00217.5826002,E,1,06,1.0,-18.007,M,0.000,M,0.0,*6B
$GPGSA,A,3,01,08,10,16,21,23,,,,,,,2.2,1.3,1.8,1*29
$GPGSV,2,1,06,01,16,255,48,08,73,299,56,10,56,076,55,16,26,182,51,1*6B
$GPGSV,2,2,06,21,45,263,53,23,27,048,50,,,,,,,,,1*6C
$GPRMC,000107.00,A,4852.4663068,N,00217.5809561,E,0.91,353.60,180502,0.0,E,A*36
$GPGGA,000107.00,4852.4663068,N,00217.5809561,E,1,06,1.0,-11.624,M,0.000,M,0.0,*6E
$GPGSA,A,3,01,08,10,16,21,23,,,,,,,2.2,1.3,1.8,1*29
$GPGSV,2,1,06,01,16,255,47,08,73,299,56,10,56,076,54,16,26,182,50,1*64
$GPGSV,2,2,06,21,45,263,51,23,27,048,51,,,,,,,,,1*6F
$GPRMC,000108.00,A,4852.4656412,N,00217.5827014,E,10.84,114.57,180502,0.0,E,A*0D
$GPGGA,000108.00,4852.4656412,N,00217.5827014,E,1,06,1.0,-11.101,M,0.000,M,0.0,*65
$GPGSA,A,3,01,08,10,16,21,23,,,,,,,2.2,1.3,1.8,1*29
$GPGSV,2,1,06,01,16,255,47,08,73,299,58,10,56,076,50,16,26,182,53,1*6D
$GPGSV,2,2,06,21,45,263,49,23,27,048,48,,,,,,,,,1*6E
$GPRMC,000109.00,A,4852.4640472,N,00217.5893804,E,20.70,115.36,180502,0.0,E,A*05
$GPGGA,000109.00,4852.4640472,N,00217.5893804,E,1,06,1.0,-10.234,M,0.000,M,0.0,*67
$GPGSA,A,3,01,08,10,16,21,23,,,,,,,2.2,1.3,1.8,1*29
$GPGSV,2,1,06,01,16,255,47,08,73,299,50,10,56,076,53,16,26,182,52,1*67
$GPGSV,2,2,06,21,45,263,52,23,27,048,51,,,,,,,,,1*6C
$GPRMC,000110.00,A,4852.4611460,N,00217.5992128,E,27.07,106.95,180502,0.0,E,A*01
$GPGGA,000110.00,4852.4611460,N,00217.5992128,E,1,06,1.0,-9.104,M,0.000,M,0.0,*57
$GPGSA,A,3,01,08,10,16,21,23,,,,,,,2.2,1.3,1.8,1*29
$GPGSV,2,1,06,01,16,255,47,08,73,299,55,10,56,076,51,16,26,182,46,1*65
$GPGSV,2,2,06,21,45,263,52,23,27,048,46,,,,,,,,,1*6A
$GPRMC,000111.00,A,4852.4588010,N,00217.6098729,E,30.70,111.83,180502,0.0,E,A*00
$GPGGA,000111.00,4852.4588010,N,00217.6098729,E,1,06,1.0,-4.285,M,0.000,M,0.0,*56
$GPGSA,A,3,01,08,10,16,21,23,,,,,,,2.2,1.3,1.8,1*29
$GPGSV,2,1,06,01,16,255,48,08,73,299,57,10,56,076,52,16,26,182,47,1*6A
$GPGSV,2,2,06,21,45,263,51,23,27,048,48,,,,,,,,,1*67
$GPRMC,000112.00,A,4852.4555265,N,00217.6221507,E,29.47,114.16,180502,0.0,E,A*08
$GPGGA,000112.00,4852.4555265,N,00217.6221507,E,1,06,1.0,-6.594,M,0.000,M,0.0,*5E
$GPGSA,A,3,01,08,10,16,21,23,,,,,,,2.2,1.3,1.8,1*29
$GPGSV,2,1,06,01,16,255,43,08,73,299,54,10,56,076,53,16,26,182,45,1*61
$GPGSV,2,2,06,21,45,263,53,23,27,048,46,,,,,,,,,1*6B
$GPRMC,000113.00,A,4852.4524532,N,00217.6313495,E,20.73,111.93,180502,0.0,E,A*06
$GPGGA,000113.00,4852.4524532,N,00217.6313495,E,1,06,1.0,-1.563,M,0.000,M,0.0,*59
$GPGSA,A,3,01,08,10,16,21,23,,,,,,,2.2,1.3,1.8,1*29
$GPGSV,2,1,06,01,16,255,41,08,73,299,47,10,56,076,46,16,26,182,40,1*60
$GPGSV,2,2,06,21,45,263,44,23,27,048,49,,,,,,,,,1*62
$GPRMC,000114.00,A,4852.4505154,N,00217.6410841,E,17.87,86.54,180502,0.0,E,A*3C
$GPGGA,000114.00,4852.4505154,N,00217.6410841,E,1,06,1.0,-4.248,M,0.000,M,0.0,*53
$GPGSA,A,3,01,08,10,16,21,23,,,,,,,2.2,1.3,1.8,1*29
$GPGSV,2,1,06,01,16,255,44,08,73,299,48,10,56,076,52,16,26,182,37,1*6F
$GPGSV,2,2,06,21,45,263,48,23,27,048,43,,,,,,,,,1*64
$GPRMC,000115.00,A,4852.4517693,N,00217.6484545,E,21.68,97.61,180502,0.0,E,A*34
$GPGGA,000115.00,4852.4517693,N,00217.6484545,E,1,06,1.0,-5.896,M,0.000,M,0.0,*51
$GPGSA,A,3,01,08,10,16,21,23,,,,,,,2.2,1.3,1.8,1*29
$GPGSV,2,1,06,01,16,255,38,08,73,299,54,10,56,076,43,16,26,182,37,1*69
$GPGSV,2,2,06,21,45,263,42,23,27,048,37,,,,,,,,,1*6D
$GPRMC,000116.00,A,4852.4499999,N,00217.6542765,E,13.99,96.56,180502,0.0,E,A*34
$GPGGA,000116.00,4852.4499999,N,00217.6542765,E,1,06,1.0,-2.069,M,0.000,M,0.0,*54
$GPGSA,A,3,01,08,10,16,21,23,,,,,,,2.2,1.3,1.8,1*29
$GPGSV,2,1,06,01,16,255,35,08,73,298,50,10,56,076,39,16,26,182,36,1*6D
$GPGSV,2,2,06,21,45,263,38,23,27,048,36,,,,,,,,,1*61
$GPRMC,000117.00,A,4852.4528290,N,00217.6565158,E,10.27,51.80,180502,0.0,E,A*37
$GPGGA,000117.00,4852.4528290,N,00217.6565158,E,1,06,1.0,-4.397,M,0.000,M,0.0,*55
$GPGSA,A,3,01,08,10,16,21,23,,,,,,,2.2,1.3,1.8,1*29
$GPGSV,2,1,06,01,16,255,36,08,73,298,50,10,56,076,40,16,26,182,36,1*60
$GPGSV,2,2,06,21,45,263,40,23,27,048,35,,,,,,,,,1*6D
$GPRMC,000118.00,A,4852.4549373,N,00217.6614433,E,14.50,32.40,180502,0.0,E,A*33
$GPGGA,000118.00,4852.4549373,N,00217.6614433,E,1,06,1.0,-10.721,M,0.000,M,0.0,*60
$GPGSA,A,3,01,08,10,16,21,23,,,,,,,2.2,1.3,1.8,1*29
$GPGSV,2,1,06,01,16,255,35,08,73,298,46,10,56,076,38,16,26,182,36,1*6B
$GPGSV,2,2,06,21,45,263,38,23,27,048,35,,,,,,,,,1*62
$GPRMC,000119.00,A,4852.4590290,N,00217.6672844,E,21.20,14.26,180502,0.0,E,A*33
$GPGGA,000119.00,4852.4590290,N,00217.6672844,E,1,06,1.0,-11.772,M,0.000,M,0.0,*62
$GPGSA,A,3,01,08,10,16,21,23,,,,,,,2.2,1.3,1.8,1*29
$GPGSV,2,1,06,01,16,255,36,08,74,298,42,10,56,076,38,16,26,182,36,1*6B
$GPGSV,2,2,06,21,45,263,40,23,27,048,36,,,,,,,,,1*6E
$GPRMC,000120.00,A,4852.4653363,N,00217.6641057,E,11.89,1.93,180502,0.0,E,A*08
$GPGGA,000120.00,4852.4653363,N,00217.6641057,E,1,06,1.0,-9.943,M,0.000,M,0.0,*56
$GPGSA,A,3,01,08,10,16,21,23,,,,,,,2.2,1.3,1.8,1*29
$GPGSV,2,1,06,01,16,255,40,08,74,298,41,10,56,076,45,16,26,182,36,1*63
$GPGSV,2,2,06,21,45,263,46,23,27,048,36,,,,,,,,,1*68
$GPRMC,000121.00,A,4852.4665699,N,00217.6656283,E,12.91,339.83,180502,0.0,E,A*02
$GPGGA,000121.00,4852.4665699,N,00217.6656283,E,1,06,1.0,-8.661,M,0.000,M,0.0,*51
$GPGSA,A,3,01,08,10,16,21,23,,,,,,,2.2,1.3,1.8,1*29
$GPGSV,2,1,06,01,16,255,44,08,74,298,39,10,56,076,48,16,26,182,37,1*64
$GPGSV,2,2,06,21,45,263,42,23,27,048,37,,,,,,,,,1*6D
$GPRMC,000122.00,A,4852.4741284,N,00217.6617300,E,26.19,337.87,180502,0.0,E,A*0C
$GPGGA,000122.00,4852.4741284,N,00217.6617300,E,1,06,1.0,-15.937,M,0.000,M,0.0,*62
$GPGSA,A,3,01,08,10,16,21,23,,,,,,,2.2,1.3,1.8,1*29
$GPGSV,2,1,06,01,16,255,38,08,74,298,38,10,56,076,42,16,26,182,37,1*64
$GPGSV,2,2,06,21,45,263,37,23,27,048,39,,,,,,,,,1*61
$GPRMC,000123.00,A,4852.4788348,N,00217.6548766,E,31.16,330.84,180502,0.0,E,A*09
$GPGGA,000123.00,4852.4788348,N,00217.6548766,E,1,06,1.0,-5.292,M,0.000,M,0.0,*5F
$GPGSA,A,3,01,08,10,16,21,23,,,,,,,2.2,1.3,1.8,1*29
$GPGSV,2,1,06,01,16,255,36,08,74,298,36,10,56,076,37,16,26,182,38,1*69
$GPGSV,2,2,06,21,45,263,35,23,27,048,42,,,,,,,,,1*6F
$GPRMC,000124.00,A,4852.4819087,N,00217.6431827,E,37.09,325.15,180502,0.0,E,A*08
$GPGGA,000124.00,4852.4819087,N,00217.6431827,E,1,06,1.0,9.583,M,0.000,M,0.0,*7C
$GPGSA,A,3,01,08,10,16,21,23,,,,,,,2.2,1.3,1.8,1*29
$GPGSV,2,1,06,01,16,255,35,08,74,298,36,10,56,076,36,16,26,182,39,1*6A
$GPGSV,2,2,06,21,45,263,35,23,27,048,47,,,,,,,,,1*6A
$GPRMC,000125.00,A,4852.5013872,N,00217.6432630,E,32.56,330.25,180502,0.0,E,A*0B
$GPGGA,000125.00,4852.5013872,N,00217.6432630,E,1,06,1.0,-18.496,M,0.000,M,0.0,*6F
$GPGSA,A,3,01,08,10,16,21,23,,,,,,,2.2,1.3,1.8,1*29
$GPGSV,2,1,06,01,16,255,35,08,74,298,36,10,56,076,36,16,26,182,40,1*64
$GPGSV,2,2,06,21,45,263,35,23,27,048,46,,,,,,,,,1*6B
$GPRMC,000126.00,A,4852.5056254,N,00217.6342115,E,33.02,331.45,180502,0.0,E,A*00
$GPGGA,000126.00,4852.5056254,N,00217.6342115,E,1,06,1.0,-2.868,M,0.000,M,0.0,*55
$GPGSA,A,3,01,08,10,16,21,23,,,,,,,2.2,1.3,1.8,1*29
$GPGSV,2,1,06,01,16,255,35,08,74,298,36,10,56,076,35,16,26,182,41,1*66
$GPGSV,2,2,06,21,45,263,35,23,27,048,46,,,,,,,,,1*6B
$GPRMC,000127.00,A,4852.5105586,N,00217.6268796,E,31.49,333.49,180502,0.0,E,A*09
$GPGGA,000127.00,4852.5105586,N,00217.6268796,E,1,06,1.0,1.626,M,0.000,M,0.0,*75
$GPGSA,A,3,01,08,10,16,21,23,,,,,,,2.2,1.3,1.8,1*29
$GPGSV,2,1,06,01,16,255,35,08,74,298,36,10,56,076,35,16,26,182,42,1*65
$GPGSV,2,2,06,21,45,263,36,23,27,048,44,,,,,,,,,1*6A
$GPRMC,000128.00,A,4852.5176909,N,00217.6202342,E,31.66,333.47,180502,0.0,E,A*0B
$GPGGA,000128.00,4852.5176909,N,00217.6202342,E,1,05,1.0,1.245,M,0.000,M,0.0,*76
$GPGSA,A,3,01,08,10,16,23,,,,,,,,2.3,1.4,1.9,1*2D
$GPGSV,2,1,05,01,16,255,35,08,74,298,37,10,56,076,36,16,26,182,42,1*64
$GPGSV,2,2,05,23,27,048,42,,,,,,,,,,,,,1*5F
$GPRMC,000129.00,A,4852.5302616,N,00217.6157149,E,29.01,334.67,180502,0.0,E,A*0D
$GPGGA,000129.00,4852.5302616,N,00217.6157149,E,1,04,1.0,-11.437,M,0.000,M,0.0,*63
$GPGSA,A,3,08,10,16,23,,,,,,,,,3.9,2.5,3.0,1*2E
$GPGSV,1,1,04,08,74,298,37,10,56,076,36,16,26,182,43,23,27,048,39,1*67
$GPRMC,000148.00,A,4852.6498870,N,00217.5778780,E,33.08,52.14,180502,0.0,E,A*3D
$GPGGA,000148.00,4852.6498870,N,00217.5778780,E,1,06,1.0,-6.867,M,0.000,M,0.0,*5B
$GPGSA,A,3,01,08,10,16,21,23,,,,,,,2.2,1.3,1.8,1*29
$GPGSV,2,1,06,01,16,255,38,08,74,298,45,10,55,076,36,16,26,182,49,1*67
$GPGSV,2,2,06,21,45,263,39,23,27,048,39,,,,,,,,,1*6F
$GPRMC,000149.00,A,4852.6556798,N,00217.5867273,E,31.69,45.58,180502,0.0,E,A*35
$GPGGA,000149.00,4852.6556798,N,00217.5867273,E,1,06,1.0,-5.707,M,0.000,M,0.0,*52
$GPGSA,A,3,01,08,10,16,21,23,,,,,,,2.2,1.3,1.8,1*29
$GPGSV,2,1,06,01,16,255,37,08,74,298,44,10,55,076,36,16,26,182,49,1*69
$GPGSV,2,2,06,21,45,263,38,23,27,048,40,,,,,,,,,1*60
$GPRMC,000150.00,A,4852.6623879,N,00217.5968339,E,32.19,38.33,180502,0.0,E,A*3E
$GPGGA,000150.00,4852.6623879,N,00217.5968339,E,1,06,1.0,-5.582,M,0.000,M,0.0,*55
$GPGSA,A,3,01,08,10,16,21,23,,,,,,,2.2,1.3,1.8,1*29
$GPGSV,2,1,06,01,16,255,36,08,74,298,43,10,55,076,36,16,26,182,50,1*67
$GPGSV,2,2,06,21,45,263,38,23,27,048,42,,,,,,,,,1*62
$GPRMC,000151.00,A,4852.6688215,N,00217.6055242,E,32.63,41.00,180502,0.0,E,A*34
$GPGGA,000151.00,4852.6688215,N,00217.6055242,E,1,06,1.0,-5.912,M,0.000,M,0.0,*59
$GPGSA,A,3,01,08,10,16,21,23,,,,,,,2.2,1.3,1.8,1*29
$GPGSV,2,1,06,01,16,255,36,08,74,298,42,10,55,076,36,16,26,182,49,1*6E
$GPGSV,2,2,06,21,45,263,37,23,27,048,45,,,,,,,,,1*6A
$GPRMC,000152.00,A,4852.6771330,N,00217.6142899,E,33.26,48.02,180502,0.0,E,A*36
$GPGGA,000152.00,4852.6771330,N,00217.6142899,E,1,06,1.0,-5.845,M,0.000,M,0.0,*53
$GPGSA,A,3,01,08,10,16,21,23,,,,,,,2.2,1.3,1.8,1*29
$GPGSV,2,1,06,01,16,255,35,08,74,298,41,10,55,075,35,16,26,182,49,1*6E
$GPGSV,2,2,06,21,45,263,36,23,27,048,46,,,,,,,,,1*68
$GPRMC,000153.00,A,4852.6828082,N,00217.6227098,E,30.60,40.26,180502,0.0,E,A*38
$GPGGA,000153.00,4852.6828082,N,00217.6227098,E,1,06,1.0,-5.583,M,0.000,M,0.0,*55
$GPGSA,A,3,01,08,10,16,21,23,,,,,,,2.2,1.3,1.8,1*29
$GPGSV,2,1,06,01,16,255,35,08,74,298,40,10,55,075,35,16,26,182,48,1*6E
$GPGSV,2,2,06,21,45,263,36,23,27,048,47,,,,,,,,,1*69
$GPRMC,000154.00,A,4852.6898035,N,00217.6312617,E,33.34,48.33,180502,0.0,E,A*30
$GPGGA,000154.00,4852.6898035,N,00217.6312617,E,1,06,1.0,-5.374,M,0.000,M,0.0,*5D
$GPGSA,A,3,01,08,10,16,21,23,,,,,,,2.2,1.3,1.8,1*29
$GPGSV,2,1,06,01,16,255,36,08,74,298,40,10,55,075,36,16,26,182,48,1*6E
$GPGSV,2,2,06,21,45,263,36,23,27,048,47,,,,,,,,,1*69
$GPRMC,000155.00,A,4852.6955838,N,00217.6398779,E,29.49,40.90,180502,0.0,E,A*3F
$GPGGA,000155.00,4852.6955838,N,00217.6398779,E,1,05,1.0,-4.608,M,0.000,M,0.0,*5E
$GPGSA,A,3,01,08,16,21,23,,,,,,,,2.4,1.4,1.9,1*28
$GPGSV,2,1,05,01,16,255,37,08,74,298,40,16,26,182,46,21,45,263,35,1*67
$GPGSV,2,2,05,23,27,048,46,,,,,,,,,,,,,1*5B
$GPRMC,000156.00,A,4852.7008580,N,00217.6486920,E,20.28,36.45,180502,0.0,E,A*3F
$GPGGA,000156.00,4852.7008580,N,00217.6486920,E,1,05,1.0,-7.439,M,0.000,M,0.0,*5A
$GPGSA,A,3,01,08,16,21,23,,,,,,,,2.4,1.4,1.9,1*28
$GPGSV,2,1,05,01,16,255,38,08,74,298,40,16,26,182,46,21,45,263,35,1*68
$GPGSV,2,2,05,23,27,048,49,,,,,,,,,,,,,1*54
$GPRMC,000157.00,A,4852.7041894,N,00217.6546632,E,12.11,34.25,180502,0.0,E,A*35
$GPGGA,000157.00,4852.7041894,N,00217.6546632,E,1,05,1.0,-10.838,M,0.000,M,0.0,*64
$GPGSA,A,3,01,08,16,21,23,,,,,,,,2.4,1.4,1.9,1*28
$GPGSV,2,1,05,01,16,255,38,08,74,298,40,16,26,182,47,21,45,263,36,1*6A
$GPGSV,2,2,05,23,27,048,48,,,,,,,,,,,,,1*55
$GPRMC,000158.00,A,4852.7082062,N,00217.6533640,E,18.42,12.90,180502,0.0,E,A*35
$GPGGA,000158.00,4852.7082062,N,00217.6533640,E,1,04,1.0,-6.082,M,0.000,M,0.0,*5D
$GPGSA,A,3,01,08,16,23,,,,,,,,,2.5,1.5,2.0,1*21
$GPGSV,1,1,04,01,16,255,40,08,74,298,41,16,26,182,47,23,27,048,48,1*62
$GPRMC,000159.00,A,4852.7155724,N,00217.6545535,E,25.67,7.03,180502,0.0,E,A*0D
$GPGGA,000159.00,4852.7155724,N,00217.6545535,E,1,04,1.0,-7.701,M,0.000,M,0.0,*5F
$GPGSA,A,3,01,08,16,23,,,,,,,,,2.5,1.5,2.0,1*21
$GPGSV,1,1,04,01,16,255,41,08,74,298,42,16,26,182,48,23,27,048,48,1*6F
$GPRMC,000200.00,A,4852.7227086,N,00217.6536641,E,25.70,2.91,180502,0.0,E,A*07
$GPGGA,000200.00,4852.7227086,N,00217.6536641,E,1,04,1.0,-12.579,M,0.000,M,0.0,*64
$GPGSA,A,3,01,08,16,23,,,,,,,,,2.5,1.5,2.0,1*21
$GPGSV,1,1,04,01,16,255,41,08,74,298,43,16,26,182,47,23,27,048,49,1*60
$GPRMC,000201.00,A,4852.7279703,N,00217.6568923,E,20.69,10.44,180502,0.0,E,A*31
$GPGGA,000201.00,4852.7279703,N,00217.6568923,E,1,04,1.0,-9.873,M,0.000,M,0.0,*59
$GPGSA,A,3,01,08,16,23,,,,,,,,,2.5,1.5,2.0,1*21
$GPGSV,1,1,04,01,16,255,43,08,74,298,44,16,26,182,49,23,27,048,49,1*6B
$GPRMC,000202.00,A,4852.7341598,N,00217.6617456,E,29.85,19.47,180502,0.0,E,A*3D
$GPGGA,000202.00,4852.7341598,N,00217.6617456,E,1,04,1.0,-12.536,M,0.000,M,0.0,*62
$GPGSA,A,3,01,08,16,23,,,,,,,,,2.5,1.5,2.0,1*21
$GPGSV,1,1,04,01,16,255,44,08,74,298,44,16,26,182,49,23,27,048,48,1*6D
$GPRMC,000203.00,A,4852.7436857,N,00217.6654014,E,33.09,18.22,180502,0.0,E,A*3D
$GPGGA,000203.00,4852.7436857,N,00217.6654014,E,1,04,1.0,-20.448,M,0.000,M,0.0,*66
$GPGSA,A,3,01,08,16,23,,,,,,,,,2.5,1.5,2.0,1*21
$GPGSV,1,1,04,01,16,255,44,08,74,298,44,16,26,182,48,23,27,048,47,1*63
$GPRMC,000204.00,A,4852.7517781,N,00217.6694144,E,33.21,17.43,180502,0.0,E,A*36
$GPGGA,000204.00,4852.7517781,N,00217.6694144,E,1,04,1.0,-27.149,M,0.000,M,0.0,*6C
$GPGSA,A,3,01,08,16,23,,,,,,,,,2.5,1.5,2.0,1*21
$GPGSV,1,1,04,01,16,255,46,08,74,298,44,16,26,182,48,23,27,048,48,1*6E
$GPRMC,000206.00,A,4852.7657942,N,00217.6829586,E,32.78,18.13,180502,0.0,E,A*37
$GPGGA,000206.00,4852.7657942,N,00217.6829586,E,1,05,1.0,-10.191,M,0.000,M,0.0,*6A
$GPGSA,A,3,01,08,16,23,27,,,,,,,,2.2,1.4,1.7,1*26
$GPGSV,2,1,05,01,16,255,46,08,74,298,42,16,26,182,48,23,27,047,50,1*6C
$GPGSV,2,2,05,27,69,121,41,,,,,,,,,,,,,1*5C
$GPRMC,000207.00,A,4852.7761454,N,00217.6852002,E,33.76,17.67,180502,0.0,E,A*3E
$GPGGA,000207.00,4852.7761454,N,00217.6852002,E,1,05,1.0,-11.600,M,0.000,M,0.0,*6E
$GPGSA,A,3,01,08,16,23,27,,,,,,,,2.2,1.4,1.7,1*26
$GPGSV,2,1,05,01,16,255,46,08,74,298,42,16,26,182,48,23,27,047,50,1*6C
$GPGSV,2,2,05,27,69,121,41,,,,,,,,,,,,,1*5C
$GPRMC,000208.00,A,4852.7869534,N,00217.6876017,E,31.90,18.83,180502,0.0,E,A*3C
$GPGGA,000208.00,4852.7869534,N,00217.6876017,E,1,05,1.0,-8.763,M,0.000,M,0.0,*5F
$GPGSA,A,3,01,08,16,23,27,,,,,,,,2.2,1.4,1.7,1*26
$GPGSV,2,1,05,01,16,255,46,08,74,298,42,16,26,182,48,23,27,047,48,1*65
$GPGSV,2,2,05,27,69,121,42,,,,,,,,,,,,,1*5F
$GPRMC,000209.00,A,4852.7956758,N,00217.6890115,E,32.05,19.67,180502,0.0,E,A*37
$GPGGA,000209.00,4852.7956758,N,00217.6890115,E,1,05,1.0,-7.821,M,0.000,M,0.0,*56
$GPGSA,A,3,01,08,16,23,27,,,,,,,,2.2,1.4,1.7,1*26
$GPGSV,2,1,05,01,16,255,47,08,74,298,43,16,26,182,48,23,27,047,48,1*65
$GPGSV,2,2,05,27,69,121,42,,,,,,,,,,,,,1*5F
$GPRMC,000210.00,A,4852.8022735,N,00217.6979187,E,32.17,22.31,180502,0.0,E,A*34
$GPGGA,000210.00,4852.8022735,N,00217.6979187,E,1,05,1.0,-9.132,M,0.000,M,0.0,*58
$GPGSA,A,3,01,08,16,23,27,,,,,,,,2.2,1.4,1.7,1*26
$GPGSV,2,1,05,01,16,255,48,08,74,298,44,16,26,182,48,23,27,047,50,1*64
$GPGSV,2,2,05,27,69,121,43,,,,,,,,,,,,,1*5E
$GPRMC,000211.00,A,4852.8083834,N,00217.7030817,E,32.07,20.42,180502,0.0,E,A*32
$GPGGA,000211.00,4852.8083834,N,00217.7030817,E,1,05,1.0,-9.692,M,0.000,M,0.0,*54
$GPGSA,A,3,01,08,16,23,27,,,,,,,,2.2,1.4,1.7,1*26
$GPGSV,2,1,05,01,16,255,46,08,74,298,44,16,26,182,47,23,27,047,50,1*65
$GPGSV,2,2,05,27,69,121,43,,,,,,,,,,,,,1*5E
$GPRMC,000212.00,A,4852.8188866,N,00217.7063232,E,32.65,19.17,180502,0.0,E,A*39
$GPGGA,000212.00,4852.8188866,N,00217.7063232,E,1,05,1.0,-8.966,M,0.000,M,0.0,*54
$GPGSA,A,3,01,08,16,23,27,,,,,,,,2.2,1.4,1.7,1*26
$GPGSV,2,1,05,01,16,255,46,08,74,298,45,16,26,182,50,23,27,047,49,1*6A
$GPGSV,2,2,05,27,69,121,45,,,,,,,,,,,,,1*58
$GPRMC,000214.00,A,4852.8354906,N,00217.7181960,E,32.56,17.29,180502,0.0,E,A*39
$GPGGA,000214.00,4852.8354906,N,00217.7181960,E,1,05,1.0,-20.613,M,0.000,M,0.0,*60
$GPGSA,A,3,01,08,16,23,27,,,,,,,,2.2,1.4,1.7,1*26
$GPGSV,2,1,05,01,16,255,45,08,74,298,50,16,26,182,48,23,27,047,48,1*65
$GPGSV,2,2,05,27,69,121,49,,,,,,,,,,,,,1*54
$GPRMC,000221.00,A,4852.8698417,N,00217.7348803,E,11.16,47.17,180502,0.0,E,A*39
$GPGGA,000221.00,4852.8698417,N,00217.7348803,E,1,07,1.0,-25.969,M,0.000,M,0.0,*68
$GPGSA,A,3,01,08,10,16,21,23,27,,,,,,2.0,1.2,1.6,1*21
$GPGSV,2,1,07,01,16,255,48,08,74,298,54,10,55,075,48,16,26,182,48,1*6A
$GPGSV,2,2,07,21,45,263,46,23,27,047,48,27,69,121,53,,,,,1*51
$GPRMC,000222.00,A,4852.8694010,N,00217.7377671,E,5.19,95.40,180502,0.0,E,A*05
$GPGGA,000222.00,4852.8694010,N,00217.7377671,E,1,07,1.0,22.104,M,0.000,M,0.0,*4A
$GPGSA,A,3,01,08,10,16,21,23,27,,,,,,2.0,1.2,1.6,1*21
$GPGSV,2,1,07,01,16,255,46,08,74,298,51,10,55,075,50,16,26,182,49,1*69
$GPGSV,2,2,07,21,45,263,49,23,27,047,50,27,69,121,52,,,,,1*56
$GPRMC,000223.00,A,4852.8698032,N,00217.7378595,E,11.66,122.96,180502,0.0,E,A*05
$GPGGA,000223.00,4852.8698032,N,00217.7378595,E,1,07,1.0,-11.868,M,0.000,M,0.0,*6F
$GPGSA,A,3,01,08,10,16,21,23,27,,,,,,2.0,1.2,1.6,1*21
$GPGSV,2,1,07,01,16,255,46,08,74,298,48,10,55,075,50,16,26,182,48,1*60
$GPGSV,2,2,07,21,45,263,48,23,27,047,50,27,69,121,47,,,,,1*53
$GPRMC,000224.00,A,4852.8678218,N,00217.7421374,E,22.28,139.91,180502,0.0,E,A*03
$GPGGA,000224.00,4852.8678218,N,00217.7421374,E,1,07,1.0,-13.407,M,0.000,M,0.0,*69
$GPGSA,A,3,01,08,10,16,21,23,27,,,,,,2.0,1.2,1.6,1*21
$GPGSV,2,1,07,01,16,255,51,08,74,298,55,10,55,075,53,16,26,182,50,1*60
$GPGSV,2,2,07,21,45,263,53,23,27,047,51,27,69,121,52,,,,,1*5C
$GPRMC,000225.00,A,4852.8599555,N,00217.7518185,E,30.64,140.72,180502,0.0,E,A*0F
$GPGGA,000225.00,4852.8599555,N,00217.7518185,E,1,07,1.0,-11.155,M,0.000,M,0.0,*6D
$GPGSA,A,3,01,08,10,16,21,23,27,,,,,,2.0,1.2,1.6,1*21
$GPGSV,2,1,07,01,16,255,48,08,74,298,56,10,55,075,54,16,26,182,50,1*6C
$GPGSV,2,2,07,21,45,263,52,23,27,047,51,27,69,121,56,,,,,1*59
$GPRMC,000226.00,A,4852.8517689,N,00217.7623223,E,32.94,140.44,180502,0.0,E,A*04
$GPGGA,000226.00,4852.8517689,N,00217.7623223,E,1,07,1.0,-5.981,M,0.000,M,0.0,*5A
$GPGSA,A,3,01,08,10,16,21,23,27,,,,,,2.0,1.2,1.6,1*21
$GPGSV,2,1,07,01,16,255,48,08,74,298,55,10,55,075,54,16,26,182,52,1*6D
$GPGSV,2,2,07,21,45,263,53,23,27,047,49,27,69,121,58,,,,,1*5F
$GPRMC,000227.00,A,4852.8448385,N,00217.7711148,E,32.08,144.66,180502,0.0,E,A*08
$GPGGA,000227.00,4852.8448385,N,00217.7711148,E,1,07,1.0,-8.402,M,0.000,M,0.0,*5C
$GPGSA,A,3,01,08,10,16,21,23,27,,,,,,2.0,1.2,1.6,1*21
$GPGSV,2,1,07,01,16,255,50,08,74,298,54,10,55,075,52,16,26,182,49,1*69
$GPGSV,2,2,07,21,45,263,53,23,27,047,50,27,69,121,57,,,,,1*58
$GPRMC,000228.00,A,4852.8388118,N,00217.7758340,E,32.85,147.20,180502,0.0,E,A*09
$GPGGA,000228.00,4852.8388118,N,00217.7758340,E,1,07,1.0,-10.322,M,0.000,M,0.0,*65
$GPGSA,A,3,01,08,10,16,21,23,27,,,,,,2.0,1.2,1.6,1*21
$GPGSV,2,1,07,01,16,255,48,08,74,298,53,10,55,075,52,16,26,182,50,1*6F
$GPGSV,2,2,07,21,45,263,52,23,27,047,50,27,69,121,56,,,,,1*58
$GPRMC,000229.00,A,4852.8319780,N,00217.7824272,E,32.44,142.09,180502,0.0,E,A*00
$GPGGA,000229.00,4852.8319780,N,00217.7824272,E,1,07,1.0,-11.200,M,0.000,M,0.0,*6F
$GPGSA,A,3,01,08,10,16,21,23,27,,,,,,2.0,1.2,1.6,1*21
$GPGSV,2,1,07,01,16,255,48,08,74,298,55,10,55,075,53,16,26,182,50,1*68
$GPGSV,2,2,07,21,45,263,54,23,27,047,49,27,69,121,57,,,,,1*57
$GPRMC,000230.00,A,4852.8241785,N,00217.7933074,E,32.78,140.64,180502,0.0,E,A*04
$GPGGA,000230.00,4852.8241785,N,00217.7933074,E,1,07,1.0,-8.433,M,0.000,M,0.0,*53
$GPGSA,A,3,01,08,10,16,21,23,27,,,,,,2.0,1.2,1.6,1*21
$GPGSV,2,1,07,01,16,255,47,08,74,298,55,10,55,075,54,16,26,182,50,1*60
$GPGSV,2,2,07,21,45,263,51,23,27,047,51,27,69,121,57,,,,,1*5B
$GPRMC,000231.00,A,4852.8163206,N,00217.8038868,E,32.47,141.20,180502,0.0,E,A*0D
$GPGGA,000231.00,4852.8163206,N,00217.8038868,E,1,07,1.0,-6.445,M,0.000,M,0.0,*58
$GPGSA,A,3,01,08,10,16,21,23,27,,,,,,2.0,1.2,1.6,1*21
$GPGSV,2,1,07,01,16,255,46,08,74,298,57,10,55,075,54,16,26,182,52,1*61
$GPGSV,2,2,07,21,45,263,51,23,27,047,51,27,69,121,56,,,,,1*5A
$GPRMC,000232.00,A,4852.8091058,N,00217.8118887,E,32.79,140.23,180502,0.0,E,A*06
$GPGGA,000232.00,4852.8091058,N,00217.8118887,E,1,07,1.0,-9.692,M,0.000,M,0.0,*5B
$GPGSA,A,3,01,08,10,16,21,23,27,,,,,,2.0,1.2,1.6,1*21
$GPGSV,2,1,07,01,16,255,47,08,74,298,59,10,55,075,54,16,26,182,50,1*6C
$GPGSV,2,2,07,21,45,263,52,23,27,047,50,27,69,121,57,,,,,1*59
$GPRMC,000233.00,A,4852.8040090,N,00217.8190575,E,34.06,138.04,180502,0.0,E,A*0B
$GPGGA,000233.00,4852.8040090,N,00217.8190575,E,1,07,1.0,-10.212,M,0.000,M,0.0,*66
$GPGSA,A,3,01,08,10,16,21,23,27,,,,,,2.0,1.2,1.6,1*21
$GPGSV,2,1,07,01,16,255,49,08,74,298,55,10,55,075,55,16,26,182,49,1*67
$GPGSV,2,2,07,21,45,263,51,23,27,047,50,27,69,121,56,,,,,1*5B
$GPRMC,000234.00,A,4852.7969724,N,00217.8273931,E,32.32,138.71,180502,0.0,E,A*08
$GPGGA,000234.00,4852.7969724,N,00217.8273931,E,1,07,1.0,-8.427,M,0.000,M,0.0,*5F
$GPGSA,A,3,01,08,10,16,21,23,27,,,,,,2.0,1.2,1.6,1*21
$GPGSV,2,1,07,01,16,255,48,08,74,298,54,10,55,075,53,16,26,182,50,1*69
$GPGSV,2,2,07,21,45,263,53,23,27,047,50,27,69,121,54,,,,,1*5B
$GPRMC,000235.00,A,4852.7896329,N,00217.8375719,E,32.38,139.99,180502,0.0,E,A*0F
$GPGGA,000235.00,4852.7896329,N,00217.8375719,E,1,07,1.0,-7.446,M,0.000,M,0.0,*5D
$GPGSA,A,3,01,08,10,16,21,23,27,,,,,,2.0,1.2,1.6,1*21
$GPGSV,2,1,07,01,16,255,49,08,74,298,56,10,55,075,52,16,26,182,51,1*6A
$GPGSV,2,2,07,21,45,263,52,23,27,047,50,27,69,121,53,,,,,1*5D
$GPRMC,000236.00,A,4852.7829006,N,00217.8472610,E,32.00,135.99,180502,0.0,E,A*09
$GPGGA,000236.00,4852.7829006,N,00217.8472610,E,1,07,1.0,-6.925,M,0.000,M,0.0,*55
$GPGSA,A,3,01,08,10,16,21,23,27,,,,,,2.0,1.2,1.6,1*21
$GPGSV,2,1,07,01,16,255,48,08,74,298,55,10,55,075,53,16,26,182,51,1*69
$GPGSV,2,2,07,21,45,263,53,23,27,047,51,27,69,122,55,,,,,1*58
$GPRMC,000237.00,A,4852.7766052,N,00217.8557614,E,27.22,134.07,180502,0.0,E,A*0D
$GPGGA,000237.00,4852.7766052,N,00217.8557614,E,1,07,1.0,-11.501,M,0.000,M,0.0,*6F
$GPGSA,A,3,01,08,10,16,21,23,27,,,,,,2.0,1.2,1.6,1*21
$GPGSV,2,1,07,01,16,255,48,08,74,298,56,10,55,075,53,16,26,182,48,1*62
$GPGSV,2,2,07,21,45,263,54,23,27,047,50,27,69,122,56,,,,,1*5D
$GPRMC,000238.00,A,4852.7738347,N,00217.8632518,E,18.02,127.56,180502,0.0,E,A*09
$GPGGA,000238.00,4852.7738347,N,00217.8632518,E,1,07,1.0,-13.140,M,0.000,M,0.0,*60
$GPGSA,A,3,01,08,10,16,21,23,27,,,,,,2.0,1.2,1.6,1*21
$GPGSV,2,1,07,01,16,255,49,08,74,298,56,10,55,075,54,16,26,182,50,1*6D
$GPGSV,2,2,07,21,45,263,54,23,27,047,50,27,69,122,56,,,,,1*5D
$GPRMC,000239.00,A,4852.7722174,N,00217.8666046,E,8.00,97.44,180502,0.0,E,A*04
$GPGGA,000239.00,4852.7722174,N,00217.8666046,E,1,07,1.0,-8.079,M,0.000,M,0.0,*56
$GPGSA,A,3,01,08,10,16,21,23,27,,,,,,2.0,1.2,1.6,1*21
$GPGSV,2,1,07,01,16,255,49,08,74,298,57,10,55,075,55,16,26,182,50,1*6D
$GPGSV,2,2,07,21,45,263,53,23,27,047,50,27,69,122,56,,,,,1*5A
$GPRMC,000240.00,A,4852.7713410,N,00217.8701574,E,11.59,70.24,180502,0.0,E,A*30
$GPGGA,000240.00,4852.7713410,N,00217.8701574,E,1,07,1.0,-7.267,M,0.000,M,0.0,*5B
$GPGSA,A,3,01,08,10,16,21,23,27,,,,,,2.0,1.2,1.6,1*21
$GPGSV,2,1,07,01,16,255,49,08,74,298,58,10,55,075,56,16,26,182,52,1*63
$GPGSV,2,2,07,21,45,263,53,23,27,047,50,27,69,122,58,,,,,1*54
$GPRMC,000241.00,A,4852.7733768,N,00217.8777566,E,21.06,58.25,180502,0.0,E,A*3F
$GPGGA,000241.00,4852.7733768,N,00217.8777566,E,1,07,1.0,-8.695,M,0.000,M,0.0,*50
$GPGSA,A,3,01,08,10,16,21,23,27,,,,,,2.0,1.2,1.6,1*21
$GPGSV,2,1,07,01,16,255,49,08,74,298,54,10,55,075,52,16,26,182,52,1*6B
$GPGSV,2,2,07,21,45,263,53,23,27,047,51,27,69,122,56,,,,,1*5B
$GPRMC,000242.00,A,4852.7782921,N,00217.8869920,E,30.43,53.13,180502,0.0,E,A*34
$GPGGA,000242.00,4852.7782921,N,00217.8869920,E,1,07,1.0,-11.091,M,0.000,M,0.0,*6E
$GPGSA,A,3,01,08,10,16,21,23,27,,,,,,2.0,1.2,1.6,1*21
$GPGSV,2,1,07,01,16,255,50,08,74,298,54,10,55,075,53,16,26,182,50,1*60
$GPGSV,2,2,07,21,45,263,53,23,27,047,50,27,69,122,57,,,,,1*5B
$GPRMC,000243.00,A,4852.7844797,N,00217.8978503,E,32.27,50.55,180502,0.0,E,A*3E
$GPGGA,000243.00,4852.7844797,N,00217.8978503,E,1,07,1.0,-13.790,M,0.000,M,0.0,*61
$GPGSA,A,3,01,08,10,16,21,23,27,,,,,,2.0,1.2,1.6,1*21
$GPGSV,2,1,07,01,16,255,48,08,74,298,56,10,55,075,52,16,26,182,51,1*6B
$GPGSV,2,2,07,21,45,263,54,23,27,047,49,27,69,122,58,,,,,1*5B
$GPRMC,000244.00,A,4852.7890742,N,00217.9079914,E,32.77,50.07,180502,0.0,E,A*39
$GPGGA,000244.00,4852.7890742,N,00217.9079914,E,1,07,1.0,-11.453,M,0.000,M,0.0,*6A
$GPGSA,A,3,01,08,10,16,21,23,27,,,,,,2.0,1.2,1.6,1*21
$GPGSV,2,1,07,01,16,255,50,08,74,298,56,10,55,075,52,16,26,182,48,1*6A
$GPGSV,2,2,07,21,45,263,55,23,27,047,50,27,69,122,54,,,,,1*5E
$GPRMC,000245.00,A,4852.7947779,N,00217.9187370,E,32.63,49.80,180502,0.0,E,A*31
$GPGGA,000245.00,4852.7947779,N,00217.9187370,E,1,07,1.0,-10.432,M,0.000,M,0.0,*66
$GPGSA,A,3,01,08,10,16,21,23,27,,,,,,2.0,1.2,1.6,1*21
$GPGSV,2,1,07,01,16,255,48,08,74,298,56,10,55,075,54,16,26,182,49,1*64
$GPGSV,2,2,07,21,45,263,54,23,27,047,49,27,69,122,53,,,,,1*50
$GPRMC,000246.00,A,4852.8002253,N,00217.9287034,E,31.97,50.83,180502,0.0,E,A*3B
$GPGGA,000246.00,4852.8002253,N,00217.9287034,E,1,07,1.0,-7.895,M,0.000,M,0.0,*58
$GPGSA,A,3,01,08,10,16,21,23,27,,,,,,2.0,1.2,1.6,1*21
$GPGSV,2,1,07,01,16,255,49,08,74,298,58,10,55,075,54,16,26,182,48,1*6A
$GPGSV,2,2,07,21,45,263,51,23,27,047,50,27,69,122,51,,,,,1*5F
$GPRMC,000247.00,A,4852.8062675,N,00217.9396273,E,32.35,50.98,180502,0.0,E,A*3D
$GPGGA,000247.00,4852.8062675,N,00217.9396273,E,1,07,1.0,-10.515,M,0.000,M,0.0,*6C
$GPGSA,A,3,01,08,10,16,21,23,27,,,,,,2.0,1.2,1.6,1*21
$GPGSV,2,1,07,01,16,255,50,08,74,298,55,10,55,075,54,16,26,182,50,1*66
$GPGSV,2,2,07,21,45,263,52,23,27,047,52,27,69,122,53,,,,,1*5C
$GPRMC,000248.00,A,4852.8113809,N,00217.9512483,E,32.30,51.65,180502,0.0,E,A*35
$GPGGA,000248.00,4852.8113809,N,00217.9512483,E,1,07,1.0,-12.872,M,0.000,M,0.0,*6C
$GPGSA,A,3,01,08,10,16,21,23,27,,,,,,2.0,1.2,1.6,1*21
$GPGSV,2,1,07,01,16,255,48,08,74,298,57,10,55,075,55,16,26,182,51,1*6D
$GPGSV,2,2,07,21,45,263,53,23,27,047,52,27,69,122,56,,,,,1*58
$GPRMC,000249.00,A,4852.8170924,N,00217.9622395,E,32.44,50.71,180502,0.0,E,A*38
$GPGGA,000249.00,4852.8170924,N,00217.9622395,E,1,07,1.0,-14.249,M,0.000,M,0.0,*62
$GPGSA,A,3,01,08,10,16,21,23,27,,,,,,2.0,1.2,1.6,1*21
$GPGSV,2,1,07,01,16,255,49,08,74,298,58,10,55,075,54,16,26,182,50,1*63
$GPGSV,2,2,07,21,45,263,54,23,27,047,50,27,69,122,58,,,,,1*53
$GPRMC,000250.00,A,4852.8225547,N,00217.9732491,E,32.76,50.53,180502,0.0,E,A*38
$GPGGA,000250.00,4852.8225547,N,00217.9732491,E,1,07,1.0,-12.411,M,0.000,M,0.0,*6E
$GPGSA,A,3,01,08,10,16,21,23,27,,,,,,2.0,1.2,1.6,1*21
$GPGSV,2,1,07,01,16,255,49,08,74,298,58,10,55,075,56,16,26,182,50,1*61
$GPGSV,2,2,07,21,45,263,55,23,27,047,48,27,69,122,57,,,,,1*54
$GPRMC,000251.00,A,4852.8269865,N,00217.9821736,E,26.23,47.97,180502,0.0,E,A*34
$GPGGA,000251.00,4852.8269865,N,00217.9821736,E,1,07,1.0,-9.995,M,0.000,M,0.0,*52
$GPGSA,A,3,01,08,10,16,21,23,27,,,,,,2.0,1.2,1.6,1*21
$GPGSV,2,1,07,01,16,255,48,08,74,298,58,10,55,075,56,16,26,182,52,1*62
$GPGSV,2,2,07,21,46,264,54,23,27,047,48,27,69,122,57,,,,,1*51
$GPRMC,000252.00,A,4852.8317025,N,00217.9876700,E,16.48,36.94,180502,0.0,E,A*3F
$GPGGA,000252.00,4852.8317025,N,00217.9876700,E,1,07,1.0,-12.149,M,0.000,M,0.0,*61
$GPGSA,A,3,01,08,10,16,21,23,27,,,,,,2.0,1.2,1.6,1*21
$GPGSV,2,1,07,01,16,255,48,08,74,298,56,10,55,075,56,16,26,182,51,1*6F
$GPGSV,2,2,07,21,46,264,52,23,27,047,49,27,69,122,58,,,,,1*59
$GPRMC,000253.00,A,4852.8348708,N,00217.9886035,E,9.93,11.97,180502,0.0,E,A*0C
$GPGGA,000253.00,4852.8348708,N,00217.9886035,E,1,07,1.0,-10.977,M,0.000,M,0.0,*6B
$GPGSA,A,3,01,08,10,16,21,23,27,,,,,,2.0,1.2,1.6,1*21
$GPGSV,2,1,07,01,16,255,48,08,74,298,58,10,55,075,55,16,26,182,49,1*6B
$GPGSV,2,2,07,21,46,264,53,23,27,047,49,27,69,122,57,,,,,1*57
$GPRMC,000254.00,A,4852.8391466,N,00217.9902603,E,17.14,358.93,180502,0.0,E,A*00
$GPGGA,000254.00,4852.8391466,N,00217.9902603,E,1,07,1.0,-15.620,M,0.000,M,0.0,*65
$GPGSA,A,3,01,08,10,16,21,23,27,,,,,,2.0,1.2,1.6,1*21
$GPGSV,2,1,07,01,16,255,49,08,74,298,57,10,55,075,55,16,26,182,52,1*6F
$GPGSV,2,2,07,21,46,264,55,23,27,047,50,27,69,122,58,,,,,1*56
$GPRMC,000255.00,A,4852.8444500,N,00217.9904388,E,25.28,348.79,180502,0.0,E,A*04
$GPGGA,000255.00,4852.8444500,N,00217.9904388,E,1,07,1.0,-15.837,M,0.000,M,0.0,*62
$GPGSA,A,3,01,08,10,16,21,23,27,,,,,,2.0,1.2,1.6,1*21
$GPGSV,2,1,07,01,16,255,48,08,74,298,56,10,55,075,56,16,26,182,48,1*67
$GPGSV,2,2,07,21,46,264,54,23,27,047,50,27,69,122,55,,,,,1*5A
$GPRMC,000256.00,A,4852.8523807,N,00217.9866823,E,33.06,344.03,180502,0.0,E,A*08
$GPGGA,000256.00,4852.8523807,N,00217.9866823,E,1,07,1.0,-10.820,M,0.000,M,0.0,*67
$GPGSA,A,3,01,08,10,16,21,23,27,,,,,,2.0,1.2,1.6,1*21
$GPGSV,2,1,07,01,16,255,48,08,74,298,56,10,55,075,55,16,26,182,49,1*65
$GPGSV,2,2,07,21,46,264,54,23,27,047,51,27,69,122,56,,,,,1*58
$GPRMC,000257.00,A,4852.8614200,N,00217.9831956,E,32.84,343.89,180502,0.0,E,A*0C
$GPGGA,000257.00,4852.8614200,N,00217.9831956,E,1,07,1.0,-9.445,M,0.000,M,0.0,*5A
$GPGSA,A,3,01,08,10,16,21,23,27,,,,,,2.0,1.2,1.6,1*21
$GPGSV,2,1,07,01,16,255,48,08,74,298,55,10,55,075,55,16,26,182,51,1*6F
$GPGSV,2,2,07,21,46,264,53,23,27,047,52,27,69,122,58,,,,,1*52
$GPRMC,000258.00,A,4852.8700385,N,00217.9795546,E,32.86,343.76,180502,0.0,E,A*05
$GPGGA,000258.00,4852.8700385,N,00217.9795546,E,1,07,1.0,-7.773,M,0.000,M,0.0,*59
$GPGSA,A,3,01,08,10,16,21,23,27,,,,,,2.0,1.2,1.6,1*21
$GPGSV,2,1,07,01,16,255,50,08,74,298,56,10,55,075,56,16,26,182,49,1*6F
$GPGSV,2,2,07,21,46,264,51,23,27,047,50,27,69,122,56,,,,,1*5C
$GPRMC,000259.00,A,4852.8790069,N,00217.9760077,E,33.40,343.88,180502,0.0,E,A*0B
$GPGGA,000259.00,4852.8790069,N,00217.9760077,E,1,07,1.0,-10.732,M,0.000,M,0.0,*6E
$GPGSA,A,3,01,08,10,16,21,23,27,,,,,,2.0,1.2,1.6,1*21
$GPGSV,2,1,07,01,16,255,47,08,74,298,57,10,55,075,54,16,26,182,48,1*6B
$GPGSV,2,2,07,21,46,264,53,23,27,047,49,27,69,122,56,,,,,1*56
$GPRMC,000300.00,A,4852.8877346,N,00217.9712586,E,32.16,343.96,180502,0.0,E,A*0D
$GPGGA,000300.00,4852.8877346,N,00217.9712586,E,1,07,1.0,-11.236,M,0.000,M,0.0,*65
$GPGSA,A,3,01,08,10,16,21,23,27,,,,,,2.0,1.2,1.6,1*21
$GPGSV,2,1,07,01,16,255,48,08,74,298,56,10,55,075,56,16,26,182,48,1*67
$GPGSV,2,2,07,21,46,264,53,23,27,047,50,27,69,122,56,,,,,1*5E
$GPRMC,000301.00,A,4852.8959344,N,00217.9654169,E,32.23,344.55,180502,0.0,E,A*0B
$GPGGA,000301.00,4852.8959344,N,00217.9654169,E,1,07,1.0,-7.251,M,0.000,M,0.0,*5B
$GPGSA,A,3,01,08,10,16,21,23,27,,,,,,2.0,1.2,1.6,1*21
$GPGSV,2,1,07,01,16,255,48,08,74,298,56,10,55,075,55,16,26,182,49,1*65
$GPGSV,2,2,07,21,46,264,54,23,27,047,48,27,69,122,58,,,,,1*5E
$GPRMC,000302.00,A,4852.9065776,N,00217.9614811,E,32.37,343.90,180502,0.0,E,A*03
$GPGGA,000302.00,4852.9065776,N,00217.9614811,E,1,07,1.0,-10.731,M,0.000,M,0.0,*6D
$GPGSA,A,3,01,08,10,16,21,23,27,,,,,,2.0,1.2,1.6,1*21
$GPGSV,2,1,07,01,16,255,49,08,74,298,58,10,55,075,57,16,26,182,48,1*69
$GPGSV,2,2,07,21,46,264,52,23,27,047,51,27,69,122,57,,,,,1*5F
$GPRMC,000303.00,A,4852.9143459,N,00217.9595336,E,31.62,344.00,180502,0.0,E,A*00
$GPGGA,000303.00,4852.9143459,N,00217.9595336,E,1,07,1.0,-6.283,M,0.000,M,0.0,*58
$GPGSA,A,3,01,08,10,16,21,23,27,,,,,,2.0,1.2,1.6,1*21
$GPGSV,2,1,07,01,16,255,48,08,74,298,58,10,55,075,56,16,26,182,50,1*60
$GPGSV,2,2,07,21,46,264,54,23,27,047,49,27,69,122,57,,,,,1*50
$GPRMC,000304.00,A,4852.9221873,N,00217.9570666,E,31.82,344.39,180502,0.0,E,A*0B
$GPGGA,000304.00,4852.9221873,N,00217.9570666,E,1,07,1.0,-4.945,M,0.000,M,0.0,*54
$GPGSA,A,3,01,08,10,16,21,23,27,,,,,,2.0,1.2,1.6,1*21
$GPGSV,2,1,07,01,16,255,46,08,74,298,57,10,55,075,55,16,26,182,50,1*62
$GPGSV,2,2,07,21,46,264,54,23,27,047,49,27,69,122,55,,,,,1*52
$GPRMC,000305.00,A,4852.9310253,N,00217.9524423,E,33.17,343.07,180502,0.0,E,A*07
$GPGGA,000305.00,4852.9310253,N,00217.9524423,E,1,07,1.0,-3.498,M,0.000,M,0.0,*56
$GPGSA,A,3,01,08,10,16,21,23,27,,,,,,2.0,1.2,1.6,1*21
$GPGSV,2,1,07,01,16,255,47,08,74,298,57,10,55,075,56,16,26,182,51,1*61
$GPGSV,2,2,07,21,46,264,53,23,27,047,51,27,69,122,56,,,,,1*5F
$GPRMC,000306.00,A,4852.9390416,N,00217.9467104,E,27.25,341.74,180502,0.0,E,A*0F
$GPGGA,000306.00,4852.9390416,N,00217.9467104,E,1,07,1.0,-0.949,M,0.000,M,0.0,*5E
$GPGSA,A,3,01,08,10,16,21,23,27,,,,,,2.0,1.2,1.6,1*21
$GPGSV,2,1,07,01,16,255,48,08,74,298,58,10,55,075,54,16,26,182,50,1*62
$GPGSV,2,2,07,21,46,264,54,23,27,047,49,27,69,122,54,,,,,1*53
$GPRMC,000307.00,A,4852.9462484,N,00217.9428980,E,18.37,331.63,180502,0.0,E,A*0E
$GPGGA,000307.00,4852.9462484,N,00217.9428980,E,1,07,1.0,-3.872,M,0.000,M,0.0,*5B
$GPGSA,A,3,01,08,10,16,21,23,27,,,,,,2.0,1.2,1.6,1*21
$GPGSV,2,1,07,01,16,255,48,08,74,298,57,10,55,075,54,16,26,182,50,1*6D
$GPGSV,2,2,07,21,46,264,54,23,27,047,50,27,69,122,55,,,,,1*5A
$GPRMC,000308.00,A,4852.9490040,N,00217.9398698,E,11.47,315.64,180502,0.0,E,A*05
$GPGGA,000308.00,4852.9490040,N,00217.9398698,E,1,07,1.0,-5.411,M,0.000,M,0.0,*50
$GPGSA,A,3,01,08,10,16,21,23,27,,,,,,2.0,1.2,1.6,1*21
$GPGSV,2,1,07,01,16,255,49,08,74,298,55,10,55,075,54,16,26,182,50,1*6E
$GPGSV,2,2,07,21,46,264,52,23,27,047,51,27,69,122,57,,,,,1*5F
$GPRMC,000309.00,A,4852.9509570,N,00217.9344662,E,18.03,297.34,180502,0.0,E,A*00
$GPGGA,000309.00,4852.9509570,N,00217.9344662,E,1,07,1.0,-6.218,M,0.000,M,0.0,*5E
$GPGSA,A,3,01,08,10,16,21,23,27,,,,,,2.0,1.2,1.6,1*21
$GPGSV,2,1,07,01,16,255,48,08,74,298,56,10,55,075,55,16,26,182,50,1*6D
$GPGSV,2,2,07,21,46,264,54,23,27,047,50,27,69,122,58,,,,,1*57
$GPRMC,000310.00,A,4852.9544068,N,00217.9249510,E,28.52,291.02,180502,0.0,E,A*03
$GPGGA,000310.00,4852.9544068,N,00217.9249510,E,1,07,1.0,-2.203,M,0.000,M,0.0,*57
$GPGSA,A,3,01,08,10,16,21,23,27,,,,,,2.0,1.2,1.6,1*21
$GPGSV,2,1,07,01,16,255,48,08,74,298,59,10,55,075,56,16,25,182,49,1*6A
$GPGSV,2,2,07,21,46,264,53,23,27,047,51,27,69,122,59,,,,,1*50
$GPRMC,000311.00,A,4852.9567913,N,00217.9136557,E,32.06,288.64,180502,0.0,E,A*0C
$GPGGA,000311.00,4852.9567913,N,00217.9136557,E,1,07,1.0,-0.713,M,0.000,M,0.0,*5C
$GPGSA,A,3,01,08,10,16,21,23,27,,,,,,2.0,1.2,1.6,1*21
$GPGSV,2,1,07,01,16,255,46,08,74,298,57,10,55,075,56,16,25,182,51,1*63
$GPGSV,2,2,07,21,46,264,53,23,27,047,51,27,69,122,58,,,,,1*51
$GPRMC,000312.00,A,4852.9579748,N,00217.9022938,E,32.55,287.81,180502,0.0,E,A*03
$GPGGA,000312.00,4852.9579748,N,00217.9022938,E,1,07,1.0,-0.567,M,0.000,M,0.0,*50
$GPGSA,A,3,01,08,10,16,21,23,27,,,,,,2.0,1.2,1.6,1*21
$GPGSV,2,1,07,01,16,255,48,08,74,298,56,10,55,075,54,16,25,182,50,1*6F
$GPGSV,2,2,07,21,46,264,52,23,27,047,51,27,69,122,56,,,,,1*5E
$GPRMC,000313.00,A,4852.9611563,N,00217.8886074,E,32.19,288.79,180502,0.0,E,A*02
$GPGGA,000313.00,4852.9611563,N,00217.8886074,E,1,07,1.0,-1.642,M,0.000,M,0.0,*54
$GPGSA,A,3,01,08,10,16,21,23,27,,,,,,2.0,1.2,1.6,1*21
$GPGSV,2,1,07,01,16,255,50,08,74,298,56,10,55,075,54,16,25,182,49,1*6E
$GPGSV,2,2,07,21,46,264,54,23,27,047,50,27,69,122,58,,,,,1*57
$GPRMC,000314.00,A,4852.9652372,N,00217.8738148,E,32.81,288.70,180502,0.0,E,A*08
$GPGGA,000314.00,4852.9652372,N,00217.8738148,E,1,07,1.0,-3.895,M,0.000,M,0.0,*50
$GPGSA,A,3,01,08,10,16,21,23,27,,,,,,2.0,1.2,1.6,1*21
$GPGSV,2,1,07,01,16,255,49,08,74,298,56,10,55,075,57,16,25,182,50,1*6D
$GPGSV,2,2,07,21,46,264,54,23,27,047,51,27,69,122,58,,,,,1*56
$GPRMC,000315.00,A,4852.9675740,N,00217.8619119,E,31.58,286.57,180502,0.0,E,A*03
$GPGGA,000315.00,4852.9675740,N,00217.8619119,E,1,07,1.0,-5.941,M,0.000,M,0.0,*59
$GPGSA,A,3,01,08,10,16,21,23,27,,,,,,2.0,1.2,1.6,1*21
$GPGSV,2,1,07,01,16,255,48,08,74,298,56,10,55,075,56,16,25,182,50,1*6D
$GPGSV,2,2,07,21,46,264,54,23,27,047,50,27,69,122,58,,,,,1*57
$GPRMC,000316.00,A,4852.9699531,N,00217.8504591,E,32.53,288.21,180502,0.0,E,A*0A
$GPGGA,000316.00,4852.9699531,N,00217.8504591,E,1,07,1.0,-7.818,M,0.000,M,0.0,*58
$GPGSA,A,3,01,08,10,16,21,23,27,,,,,,2.0,1.2,1.6,1*21
$GPGSV,2,1,07,01,16,255,48,08,74,298,57,10,55,075,56,16,25,182,51,1*6D
$GPGSV,2,2,07,21,46,264,54,23,27,047,50,27,69,122,56,,,,,1*59
$GPRMC,000317.00,A,4852.9739467,N,00217.8358385,E,32.97,289.86,180502,0.0,E,A*0A
$GPGGA,000317.00,4852.9739467,N,00217.8358385,E,1,07,1.0,-9.353,M,0.000,M,0.0,*56
$GPGSA,A,3,01,08,10,16,21,23,27,,,,,,2.0,1.2,1.6,1*21
$GPGSV,2,1,07,01,16,255,49,08,74,298,57,10,55,074,58,16,25,182,49,1*6A
$GPGSV,2,2,07,21,46,264,54,23,26,047,50,27,69,122,57,,,,,1*59
$GPRMC,000318.00,A,4852.9764509,N,00217.8222667,E,32.04,288.00,180502,0.0,E,A*04
$GPGGA,000318.00,4852.9764509,N,00217.8222667,E,1,07,1.0,-7.440,M,0.000,M,0.0,*56
$GPGSA,A,3,01,08,10,16,21,23,27,,,,,,2.0,1.2,1.6,1*21
$GPGSV,2,1,07,01,16,255,49,08,74,298,56,10,55,074,57,16,25,182,52,1*6E
$GPGSV,2,2,07,21,46,264,54,23,26,047,50,27,69,122,56,,,,,1*58
$GPRMC,000319.00,A,4852.9773978,N,00217.8116258,E,32.26,286.39,180502,0.0,E,A*01
$GPGGA,000319.00,4852.9773978,N,00217.8116258,E,1,07,1.0,-7.783,M,0.000,M,0.0,*5B
$GPGSA,A,3,01,08,10,16,21,23,27,,,,,,2.0,1.2,1.6,1*21
$GPGSV,2,1,07,01,16,255,48,08,74,298,57,10,55,074,55,16,25,182,50,1*6E
$GPGSV,2,2,07,21,46,264,53,23,26,047,50,27,69,122,55,,,,,1*5C
$GPRMC,000320.00,A,4852.9803897,N,00217.7989004,E,33.04,289.14,180502,0.0,E,A*08
$GPGGA,000320.00,4852.9803897,N,00217.7989004,E,1,07,1.0,-8.541,M,0.000,M,0.0,*50
$GPGSA,A,3,01,08,10,16,21,23,27,,,,,,2.0,1.2,1.6,1*21
$GPGSV,2,1,07,01,16,255,48,08,74,298,56,10,55,074,55,16,25,182,50,1*6F
$GPGSV,2,2,07,21,46,264,54,23,26,047,51,27,69,122,56,,,,,1*59
$GPRMC,000321.00,A,4852.9835353,N,00217.7853566,E,32.30,288.38,180502,0.0,E,A*01
$GPGGA,000321.00,4852.9835353,N,00217.7853566,E,1,07,1.0,-4.612,M,0.000,M,0.0,*59
$GPGSA,A,3,01,08,10,16,21,23,27,,,,,,2.0,1.2,1.6,1*21
$GPGSV,2,1,07,01,16,255,47,08,74,298,58,10,55,074,54,16,25,182,50,1*6F
$GPGSV,2,2,07,21,46,264,54,23,26,047,51,27,69,122,56,,,,,1*59
$GPRMC,000322.00,A,4852.9860757,N,00217.7734244,E,32.42,288.26,180502,0.0,E,A*01
$GPGGA,000322.00,4852.9860757,N,00217.7734244,E,1,07,1.0,-6.706,M,0.000,M,0.0,*55
$GPGSA,A,3,01,08,10,16,21,23,27,,,,,,2.0,1.2,1.6,1*21
$GPGSV,2,1,07,01,16,255,48,08,74,298,57,10,55,074,54,16,25,182,48,1*66
$GPGSV,2,2,07,21,46,264,53,23,26,047,48,27,69,122,56,,,,,1*56
$GPRMC,000323.00,A,4852.9886387,N,00217.7605056,E,32.02,288.30,180502,0.0,E,A*00
$GPGGA,000323.00,4852.9886387,N,00217.7605056,E,1,07,1.0,-10.014,M,0.000,M,0.0,*64
$GPGSA,A,3,01,08,10,16,21,23,27,,,,,,2.0,1.2,1.6,1*21
$GPGSV,2,1,07,01,16,255,48,08,74,298,54,10,55,074,54,16,25,182,48,1*65
$GPGSV,2,2,07,21,46,264,54,23,26,047,49,27,69,122,54,,,,,1*52
$GPRMC,000324.00,A,4852.9923293,N,00217.7460501,E,31.52,287.59,180502,0.0,E,A*0D
$GPGGA,000324.00,4852.9923293,N,00217.7460501,E,1,07,1.0,-12.268,M,0.000,M,0.0,*64
$GPGSA,A,3,01,08,10,16,21,23,27,,,,,,2.0,1.2,1.6,1*21
$GPGSV,2,1,07,01,16,255,48,08,74,298,58,10,55,074,56,16,25,182,48,1*6B
$GPGSV,2,2,07,21,46,264,54,23,26,047,52,27,69,122,56,,,,,1*5A
$GPRMC,000325.00,A,4852.9957444,N,00217.7319114,E,33.11,288.62,180502,0.0,E,A*08
$GPGGA,000325.00,4852.9957444,N,00217.7319114,E,1,07,1.0,-12.858,M,0.000,M,0.0,*6A
$GPGSA,A,3,01,08,10,16,21,23,27,,,,,,2.0,1.2,1.6,1*21
$GPGSV,2,1,07,01,16,255,48,08,74,298,57,10,55,074,58,16,25,182,50,1*63
$GPGSV,2,2,07,21,46,264,54,23,26,047,52,27,69,122,56,,,,,1*5A
$GPRMC,000326.00,A,4852.9984533,N,00217.7212172,E,32.49,287.95,180502,0.0,E,A*05
$GPGGA,000326.00,4852.9984533,N,00217.7212172,E,1,07,1.0,-17.291,M,0.000,M,0.0,*66
$GPGSA,A,3,01,08,10,16,21,23,27,,,,,,2.0,1.2,1.6,1*21
$GPGSV,2,1,07,01,16,255,51,08,74,298,58,10,55,074,55,16,25,182,50,1*69
$GPGSV,2,2,07,21,46,264,54,23,26,047,51,27,69,122,58,,,,,1*57
$GPRMC,000327.00,A,4853.0000876,N,00217.7096486,E,32.58,288.16,180502,0.0,E,A*01
$GPGGA,000327.00,4853.0000876,N,00217.7096486,E,1,07,1.0,-14.368,M,0.000,M,0.0,*62
$GPGSA,A,3,01,08,10,16,21,23,27,,,,,,2.0,1.2,1.6,1*21
$GPGSV,2,1,07,01,16,255,49,08,74,298,56,10,55,074,55,16,25,182,52,1*6C
$GPGSV,2,2,07,21,46,264,54,23,26,047,52,27,69,122,57,,,,,1*5B
$GPRMC,000328.00,A,4853.0031938,N,00217.6946025,E,31.95,287.87,180502,0.0,E,A*0A
$GPGGA,000328.00,4853.0031938,N,00217.6946025,E,1,07,1.0,-13.402,M,0.000,M,0.0,*60
$GPGSA,A,3,01,08,10,16,21,23,27,,,,,,2.0,1.2,1.6,1*21
$GPGSV,2,1,07,01,16,255,48,08,74,298,56,10,55,074,54,16,25,182,50,1*6E
$GPGSV,2,2,07,21,46,264,53,23,26,047,51,27,69,122,56,,,,,1*5E
$GPRMC,000329.00,A,4853.0057310,N,00217.6822300,E,33.69,289.43,180502,0.0,E,A*0B
$GPGGA,000329.00,4853.0057310,N,00217.6822300,E,1,07,1.0,-10.445,M,0.000,M,0.0,*66
$GPGSA,A,3,01,08,10,16,21,23,27,,,,,,2.0,1.2,1.6,1*21
$GPGSV,2,1,07,01,16,255,48,08,75,298,56,10,55,074,56,16,25,182,49,1*65
$GPGSV,2,2,07,21,46,264,52,23,26,047,51,27,69,122,54,,,,,1*5D
$GPRMC,000330.00,A,4853.0071163,N,00217.6707266,E,32.14,287.93,180502,0.0,E,A*00
$GPGGA,000330.00,4853.0071163,N,00217.6707266,E,1,07,1.0,-10.160,M,0.000,M,0.0,*67
$GPGSA,A,3,01,08,10,16,21,23,27,,,,,,2.0,1.2,1.6,1*21
$GPGSV,2,1,07,01,16,255,48,08,75,298,58,10,55,074,56,16,25,182,50,1*63
$GPGSV,2,2,07,21,46,264,53,23,26,047,50,27,69,122,56,,,,,1*5F
$GPRMC,000331.00,A,4853.0108700,N,00217.6576377,E,31.92,287.36,180502,0.0,E,A*0A
$GPGGA,000331.00,4853.0108700,N,00217.6576377,E,1,07,1.0,-12.135,M,0.000,M,0.0,*6D
$GPGSA,A,3,01,08,10,16,21,23,27,,,,,,2.0,1.2,1.6,1*21
$GPGSV,2,1,07,01,16,255,50,08,75,298,57,10,55,074,55,16,25,182,52,1*64
$GPGSV,2,2,07,21,46,264,54,23,26,047,50,27,69,122,58,,,,,1*56
$GPRMC,000332.00,A,4853.0148240,N,00217.6428030,E,31.67,287.64,180502,0.0,E,A*0B
$GPGGA,000332.00,4853.0148240,N,00217.6428030,E,1,07,1.0,-9.276,M,0.000,M,0.0,*5F
$GPGSA,A,3,01,08,10,16,21,23,27,,,,,,2.0,1.2,1.6,1*21
$GPGSV,2,1,07,01,16,255,50,08,75,298,54,10,55,074,55,16,25,182,51,1*64
$GPGSV,2,2,07,21,46,264,56,23,26,047,51,27,69,122,58,,,,,1*55
$GPRMC,000333.00,A,4853.0168259,N,00217.6298823,E,31.94,287.69,180502,0.0,E,A*06
$GPGGA,000333.00,4853.0168259,N,00217.6298823,E,1,07,1.0,-10.074,M,0.000,M,0.0,*6B
$GPGSA,A,3,01,08,10,16,21,23,27,,,,,,2.0,1.2,1.6,1*21
$GPGSV,2,1,07,01,16,255,49,08,75,298,55,10,55,074,55,16,25,182,51,1*6D
$GPGSV,2,2,07,21,46,264,56,23,26,047,51,27,69,122,57,,,,,1*5A
$GPRMC,000334.00,A,4853.0198129,N,00217.6174001,E,32.60,287.31,180502,0.0,E,A*06
$GPGGA,000334.00,4853.0198129,N,00217.6174001,E,1,07,1.0,-14.208,M,0.000,M,0.0,*63
$GPGSA,A,3,01,08,10,16,21,23,27,,,,,,2.0,1.2,1.6,1*21
$GPGSV,2,1,07,01,16,255,48,08,75,298,56,10,55,074,57,16,25,182,51,1*6D
$GPGSV,2,2,07,21,46,264,55,23,26,047,52,27,69,122,56,,,,,1*5B
$GPRMC,000335.00,A,4853.0238349,N,00217.6041127,E,32.29,288.25,180502,0.0,E,A*0F
$GPGGA,000335.00,4853.0238349,N,00217.6041127,E,1,07,1.0,-11.528,M,0.000,M,0.0,*6D
$GPGSA,A,3,01,08,10,16,21,23,27,,,,,,2.0,1.2,1.6,1*21
$GPGSV,2,1,07,01,16,255,48,08,75,298,56,10,55,074,56,16,25,182,50,1*6D
$GPGSV,2,2,07,21,46,264,54,23,26,047,50,27,69,122,58,,,,,1*56
$GPRMC,000336.00,A,4853.0266882,N,00217.5905170,E,27.87,291.54,180502,0.0,E,A*0D
$GPGGA,000336.00,4853.0266882,N,00217.5905170,E,1,07,1.0,-10.145,M,0.000,M,0.0,*6F
$GPGSA,A,3,01,08,10,16,21,23,27,,,,,,2.0,1.2,1.6,1*21
$GPGSV,2,1,07,01,16,255,48,08,75,298,57,10,55,074,55,16,25,182,50,1*6F
$GPGSV,2,2,07,21,46,264,54,23,26,047,51,27,69,122,58,,,,,1*57
$GPRMC,000337.00,A,4853.0280958,N,00217.5842998,E,16.46,297.78,180502,0.0,E,A*09
$GPGGA,000337.00,4853.0280958,N,00217.5842998,E,1,07,1.0,-9.527,M,0.000,M,0.0,*54
$GPGSA,A,3,01,08,10,16,21,23,27,,,,,,2.0,1.2,1.6,1*21
$GPGSV,2,1,07,01,16,255,49,08,75,298,56,10,55,074,54,16,25,182,50,1*6E
$GPGSV,2,2,07,21,46,264,54,23,26,047,49,27,69,122,55,,,,,1*53
$GPRMC,000338.00,A,4853.0296698,N,00217.5808430,E,9.21,320.38,180502,0.0,E,A*35
$GPGGA,000338.00,4853.0296698,N,00217.5808430,E,1,07,1.0,-8.447,M,0.000,M,0.0,*58
$GPGSA,A,3,01,08,10,16,21,23,27,,,,,,2.0,1.2,1.6,1*21
$GPGSV,2,1,07,01,17,255,48,08,75,298,56,10,55,074,56,16,25,182,50,1*6C
$GPGSV,2,2,07,21,46,264,51,23,26,047,50,27,69,122,56,,,,,1*5D
$GPRMC,000339.00,A,4853.0328524,N,00217.5772590,E,15.49,339.48,180502,0.0,E,A*01
$GPGGA,000339.00,4853.0328524,N,00217.5772590,E,1,07,1.0,-7.885,M,0.000,M,0.0,*5D
$GPGSA,A,3,01,08,10,16,21,23,27,,,,,,2.0,1.2,1.6,1*21
$GPGSV,2,1,07,01,17,255,49,08,75,298,58,10,55,074,56,16,25,182,50,1*63
$GPGSV,2,2,07,21,46,264,54,23,26,047,50,27,69,122,56,,,,,1*58
$GPRMC,000340.00,A,4853.0394573,N,00217.5728658,E,25.94,349.57,180502,0.0,E,A*08
$GPGGA,000340.00,4853.0394573,N,00217.5728658,E,1,07,1.0,-8.150,M,0.000,M,0.0,*50
$GPGSA,A,3,01,08,10,16,21,23,27,,,,,,2.0,1.2,1.6,1*21
$GPGSV,2,1,07,01,17,255,48,08,75,298,56,10,55,074,57,16,25,182,50,1*6D
$GPGSV,2,2,07,21,46,264,52,23,26,047,50,27,69,122,59,,,,,1*51
$GPRMC,000341.00,A,4853.0479068,N,00217.5715233,E,32.98,352.02,180502,0.0,E,A*05
$GPGGA,000341.00,4853.0479068,N,00217.5715233,E,1,07,1.0,-9.705,M,0.000,M,0.0,*5A
$GPGSA,A,3,01,08,10,16,21,23,27,,,,,,2.0,1.2,1.6,1*21
$GPGSV,2,1,07,01,17,255,48,08,75,298,56,10,55,074,56,16,25,182,50,1*6C
$GPGSV,2,2,07,21,46,264,53,23,26,047,49,27,69,122,56,,,,,1*57
$GPRMC,000342.00,A,4853.0563244,N,00217.5709165,E,31.60,352.41,180502,0.0,E,A*0E
$GPGGA,000342.00,4853.0563244,N,00217.5709165,E,1,07,1.0,-11.128,M,0.000,M,0.0,*62
$GPGSA,A,3,01,08,10,16,21,23,27,,,,,,2.0,1.2,1.6,1*21
$GPGSV,2,1,07,01,17,255,49,08,75,298,58,10,55,074,58,16,25,182,49,1*65
$GPGSV,2,2,07,21,46,264,54,23,26,047,50,27,69,122,57,,,,,1*59
$GPRMC,000343.00,A,4853.0660056,N,00217.5696770,E,32.34,353.84,180502,0.0,E,A*01
$GPGGA,000343.00,4853.0660056,N,00217.5696770,E,1,07,1.0,-12.939,M,0.000,M,0.0,*6C
$GPGSA,A,3,01,08,10,16,21,23,27,,,,,,2.0,1.2,1.6,1*21
$GPGSV,2,1,07,01,17,255,48,08,75,298,58,10,55,074,56,16,25,182,48,1*6B
$GPGSV,2,2,07,21,46,264,54,23,26,047,50,27,69,122,57,,,,,1*59
$GPRMC,000344.00,A,4853.0751507,N,00217.5662966,E,33.06,351.92,180502,0.0,E,A*03
$GPGGA,000344.00,4853.0751507,N,00217.5662966,E,1,07,1.0,-11.023,M,0.000,M,0.0,*6A
$GPGSA,A,3,01,08,10,16,21,23,27,,,,,,2.0,1.2,1.6,1*21
$GPGSV,2,1,07,01,17,255,48,08,75,298,57,10,55,074,56,16,25,182,50,1*6D
$GPGSV,2,2,07,21,46,264,53,23,26,047,48,27,69,122,57,,,,,1*57
$GPRMC,000345.00,A,4853.0835119,N,00217.5642224,E,31.52,354.01,180502,0.0,E,A*07
$GPGGA,000345.00,4853.0835119,N,00217.5642224,E,1,07,1.0,-7.623,M,0.000,M,0.0,*53
$GPGSA,A,3,01,08,10,16,21,23,27,,,,,,2.0,1.2,1.6,1*21
$GPGSV,2,1,07,01,17,255,48,08,75,298,56,10,55,074,57,16,25,182,52,1*6F
$GPGSV,2,2,07,21,46,264,52,23,26,047,52,27,69,122,57,,,,,1*5D
$GPRMC,000346.00,A,4853.0920636,N,00217.5632641,E,32.40,352.45,180502,0.0,E,A*0D
$GPGGA,000346.00,4853.0920636,N,00217.5632641,E,1,07,1.0,-8.003,M,0.000,M,0.0,*54
$GPGSA,A,3,01,08,10,16,21,23,27,,,,,,2.0,1.2,1.6,1*21
$GPGSV,2,1,07,01,17,255,51,08,75,298,54,10,55,074,55,16,25,182,51,1*64
$GPGSV,2,2,07,21,46,264,51,23,26,047,52,27,69,122,52,,,,,1*5B
$GPRMC,000347.00,A,4853.1002293,N,00217.5623637,E,32.22,352.62,180502,0.0,E,A*0F
$GPGGA,000347.00,4853.1002293,N,00217.5623637,E,1,07,1.0,-7.584,M,0.000,M,0.0,*52
$GPGSA,A,3,01,08,10,16,21,23,27,,,,,,2.0,1.2,1.6,1*21
$GPGSV,2,1,07,01,17,255,50,08,75,298,56,10,55,074,53,16,25,182,52,1*62
$GPGSV,2,2,07,21,46,264,52,23,26,047,51,27,69,122,54,,,,,1*5D
$GPRMC,000348.00,A,4853.1092764,N,00217.5620476,E,32.84,352.05,180502,0.0,E,A*0D
$GPGGA,000348.00,4853.1092764,N,00217.5620476,E,1,07,1.0,-7.600,M,0.000,M,0.0,*52
$GPGSA,A,3,01,08,10,16,21,23,27,,,,,,2.0,1.2,1.6,1*21
$GPGSV,2,1,07,01,17,255,51,08,75,298,56,10,55,074,54,16,25,182,50,1*66
$GPGSV,2,2,07,21,46,264,52,23,26,047,50,27,69,122,56,,,,,1*5E
$GPRMC,000349.00,A,4853.1192050,N,00217.5595672,E,32.28,352.25,180502,0.0,E,A*02
$GPGGA,000349.00,4853.1192050,N,00217.5595672,E,1,07,1.0,-8.024,M,0.000,M,0.0,*56
