     2.11           OBSERVATION DATA    G                   RINEX VERSION / TYPE
BLANK OR G = GPS,  R = GLONASS,  E = GALILEO,  M = MIXED    COMMENT             
GNSS-SDR            joel                19-FEB-25 13:55     PGM / RUN BY / DATE 
GPS OBSERVATION DATA FILE GENERATED BY GNSS-SDR             COMMENT             
GNSS-SDR VERSION 0.0.16                                     COMMENT             
See https://gnss-sdr.org                                    COMMENT             
DEFAULT MARKER NAME                                         MARKER NAME         
joel                CTTC                                    OBSERVER / AGENCY   
GNSS-SDR            Software Receiver   0.0.16              REC # / TYPE / VERS 
Antenna number      Antenna type                            ANT # / TYPE        
        0.0000        0.0000        0.0000                  APPROX POSITION XYZ 
        0.0000        0.0000        0.0000                  ANTENNA: DELTA H/E/N
     1     1                                                WAVELENGTH FACT L1/2
     4    C1    L1    D1    S1                              # / TYPES OF OBSERV 
  2002    05    18    00    02   17.7000000     GPS         TIME OF FIRST OBS   
    18                                                      LEAP SECONDS        
                                                            END OF HEADER       
 02  5 18 00 02 18.0000000  0  5G15G10G12G13G05                                 
  21306616.928 8 111967033.391 8     -1831.309 8        53.177                  
  24217929.318 8 127266068.671 8      2896.381 8        48.268                  
  25174014.233 7 132290340.352 7      2716.310 7        47.370                  
  23694272.596 7 124514237.928 7     -2848.585 7        47.843                  
  23367959.524 8 122799458.699 8     -2475.262 8        49.150                  
 02  5 18 00 02 19.0000000  0  5G15G10G12G13G05                                 
  21306967.215 8 111968865.029 8     -1831.318 8        52.754                  
  24217376.611 8 127263170.788 8      2898.491 8        48.072                  
  25173496.460 7 132287622.904 7      2717.125 7        46.725                  
  23694814.689 8 124517084.444 8     -2844.532 8        48.936                  
  23368430.641 8 122801932.447 8     -2472.605 8        48.037                  
 02  5 18 00 02 20.0000000  0  5G15G10G12G13G05                                 
  21307309.746 9 111970696.837 9     -1832.802 9        55.424                  
  24216825.816 8 127260272.806 8      2898.995 8        48.231                  
  25172981.796 7 132284905.268 7      2716.518 7        46.779                  
  23695356.478 8 124519930.922 8     -2848.457 8        50.311                  
  23368901.043 7 122804406.436 7     -2474.057 7        47.546                  
 02  5 18 00 02 21.0000000  0  5G15G10G12G13G05                                 
  21307661.641 9 111972528.780 9     -1832.919 9        54.473                  
  24216275.289 8 127257374.800 8      2897.626 8        49.489                  
  25172460.503 7 132282187.439 7      2716.687 7        46.582                  
  23695896.122 8 124522777.401 8     -2846.254 8        48.484                  
  23369371.677 8 122806880.682 8     -2473.840 8        50.288                  
 02  5 18 00 02 22.0000000  0  5G15G10G12G13G05                                 
  21308012.964 8 111974360.876 8     -1833.660 8        53.786                  
  24215721.778 7 127254476.714 7      2896.289 7        47.564                  
  25171947.751 7 132279469.421 7      2716.024 7        44.896                  
  23696439.430 8 124525623.872 8     -2845.812 8        49.758                  
  23369841.597 8 122809355.167 8     -2473.996 8        49.989                  
 02  5 18 00 02 23.0000000  0  5G15G10G12G13G05                                 
  21308356.460 8 111976193.146 8     -1832.527 8        53.803                  
  24215171.556 8 127251578.575 8      2899.977 8        48.875                  
  25171426.387 7 132276751.208 7      2721.440 7        44.798                  
  23696978.967 8 124528470.238 8     -2844.339 8        51.176                  
  23370313.267 8 122811829.907 8     -2475.742 8        50.776                  
 02  5 18 00 02 24.0000000  0  5G15G10G12G13G05                                 
  21308707.193 9 111978025.559 9     -1831.526 9        54.280                  
  24214619.742 8 127248680.359 8      2900.048 8        50.063                  
  25170912.778 7 132274032.809 7      2716.136 7        46.245                  
  23697522.954 8 124531316.599 8     -2844.008 8        48.672                  
  23370783.920 8 122814304.894 8     -2474.129 8        50.044                  
 02  5 18 00 02 25.0000000  0  5G15G10G12G13G05                                 
  21309058.623 8 111979858.128 8     -1831.693 8        53.219                  
  24214067.286 8 127245782.108 8      2897.968 8        49.537                  
  25170391.717 7 132271314.215 7      2719.696 7        46.183                  
  23698063.206 8 124534162.955 8     -2845.989 8        48.839                  
  23371255.519 8 122816780.119 8     -2474.485 8        50.099                  
 02  5 18 00 02 26.0000000  0  5G15G10G12G13G05                                 
  21309402.512 9 111981690.852 9     -1833.322 9        55.372                  
  24213516.652 8 127242883.770 8      2897.356 8        48.983                  
  25169877.125 7 132268595.435 7      2717.625 7        47.796                  
  23698605.674 8 124537009.274 8     -2847.649 8        49.472                  
  23371727.654 8 122819255.606 8     -2475.400 8        48.937                  
 02  5 18 00 02 27.0000000  0  5G15G10G12G13G05                                 
  21309752.835 8 111983523.730 8     -1830.503 8        51.821                  
  24212965.517 8 127239985.392 8      2897.711 8        52.053                  
  25169358.316 7 132265876.463 7      2720.301 7        47.668                  
  23699148.231 8 124539855.508 8     -2848.040 8        48.417                  
  23372198.503 8 122821731.336 8     -2474.455 8        49.860                  
 02  5 18 00 02 28.0000000  0  5G15G10G12G13G05                                 
  21310105.569 8 111985356.762 8     -1831.433 8        50.502                  
  24212412.578 8 127237086.934 8      2897.504 8        50.545                  
  25168840.775 7 132263157.294 7      2723.241 7        46.985                  
  23699689.876 7 124542701.756 7     -2851.658 7        46.592                  
  23372669.262 8 122824207.301 8     -2476.950 8        49.871                  
 02  5 18 00 02 29.0000000  0  5G15G10G12G13G05                                 
  21310448.422 8 111987189.943 8     -1832.965 8        52.857                  
  24211862.320 8 127234188.432 8      2903.042 8        48.175                  
  25168324.879 7 132260437.946 7      2715.866 7        47.123                  
  23700232.988 7 124545547.987 7     -2843.441 7        47.327                  
  23373139.307 8 122826683.525 8     -2476.863 8        51.486                  
 02  5 18 00 02 30.0000000  0  5G15G10G12G13G05                                 
  21310798.851 8 111989023.287 8     -1833.962 8        53.894                  
  24211310.453 8 127231289.858 8      2896.348 8        49.408                  
  25167804.836 7 132257718.396 7      2719.739 7        47.434                  
  23700772.614 8 124548394.128 8     -2845.235 8        48.302                  
  23373610.567 8 122829159.992 8     -2476.824 8        48.914                  
 02  5 18 00 02 31.0000000  0  5G15G10G12G13G05                                 
  21311152.372 8 111990856.777 8     -1832.660 8        52.796                  
  24210758.604 8 127228391.225 8      2899.252 8        49.163                  
  25167290.780 7 132254998.673 7      2719.982 7        46.857                  
  23701313.081 8 124551240.251 8     -2844.059 8        48.591                  
  23374081.952 8 122831636.696 8     -2477.047 8        49.042                  
 02  5 18 00 02 32.0000000  0  5G15G10G12G13G05                                 
  21311495.761 8 111992690.423 8     -1833.689 8        53.103                  
  24210206.969 7 127225492.530 7      2896.061 7        46.404                  
  25166769.130 8 132252278.745 8      2721.942 8        48.184                  
  23701855.048 7 124554086.391 7     -2845.427 7        47.400                  
  23374554.391 8 122834113.664 8     -2478.684 8        48.474                  
 02  5 18 00 02 33.0000000  0  5G15G10G12G13G05                                 
  21311845.547 8 111994524.224 8     -1835.199 8        53.845                  
  24209656.246 8 127222593.781 8      2896.712 8        48.979                  
  25166255.717 7 132249558.625 7      2719.453 7        46.590                  
  23702395.336 8 124556932.489 8     -2844.573 8        50.779                  
  23375025.883 8 122836590.865 8     -2476.406 8        48.428                  
 02  5 18 00 02 34.0000000  0  5G15G10G12G13G05                                 
  21312198.675 9 111996358.184 9     -1834.854 9        55.647                  
  24209103.521 8 127219694.966 8      2898.921 8        49.297                  
  25165733.620 7 132246838.331 7      2721.103 7        45.958                  
  23702937.589 8 124559778.488 8     -2845.402 8        49.917                  
  23375496.910 8 122839068.326 8     -2478.846 8        48.882                  
 02  5 18 00 02 35.0000000  0  5G15G10G12G13G05                                 
  21312543.011 9 111998192.288 9     -1833.436 9        55.050                  
  24208551.511 8 127216796.094 8      2899.174 8        48.786                  
  25165219.796 7 132244117.833 7      2719.838 7        46.289                  
  23703479.896 8 124562624.516 8     -2844.404 8        49.799                  
  23375968.724 8 122841546.028 8     -2480.015 8        49.318                  
 02  5 18 00 02 36.0000000  0  5G15G10G12G13G05                                 
  21312891.922 9 112000026.537 9     -1834.226 9        55.404                  
  24208002.003 8 127213897.163 8      2903.124 8        48.327                  
  25164699.164 8 132241397.167 8      2721.043 8        48.255                  
  23704021.685 8 124565470.502 8     -2848.480 8        48.571                  
  23376438.608 8 122844023.973 8     -2478.338 8        49.226                  
 02  5 18 00 02 37.0000000  0  5G15G10G12G13G05                                 
  21313246.461 8 112001860.971 8     -1834.705 8        53.597                  
  24207448.635 7 127210998.175 7      2896.788 7        46.908                  
  25164183.464 7 132238676.286 7      2722.316 7        47.384                  
  23704566.744 7 124568316.443 7     -2843.611 7        47.298                  
  23376909.725 8 122846502.177 8     -2477.487 8        49.303                  
 02  5 18 00 02 38.0000000  0  5G15G10G12G13G05                                 
  21313590.225 8 112003695.541 8     -1835.199 8        50.987                  
  24206896.876 8 127208099.123 8      2897.769 8        48.407                  
  25163664.012 7 132235955.240 7      2722.836 7        46.427                  
  23705106.174 8 124571162.320 8     -2843.675 8        49.643                  
  23377382.753 8 122848980.625 8     -2479.943 8        49.954                  
 02  5 18 00 02 39.0000000  0  5G15G10G12G13G05                                 
  21313939.189 8 112005530.253 8     -1834.706 8        51.590                  
  24206347.224 8 127205200.001 8      2898.746 8        48.460                  
  25163146.507 7 132233233.990 7      2716.490 7        43.146                  
  23705646.712 8 124574008.211 8     -2846.406 8        49.181                  
  23377854.942 8 122851459.305 8     -2477.477 8        50.898                  
 02  5 18 00 02 40.0000000  0  5G15G10G12G13G05                                 
  21314293.282 9 112007365.136 9     -1835.419 9        54.014                  
  24205793.892 8 127202300.832 8      2895.794 8        49.001                  
  25162629.699 7 132230512.549 7      2721.070 7        45.520                  
  23706188.787 8 124576854.092 8     -2846.627 8        51.608                  
  23378327.399 8 122853938.252 8     -2478.239 8        49.787                  
 02  5 18 00 02 41.0000000  0  5G15G10G12G13G05                                 
  21314637.725 9 112009200.172 9     -1835.519 9        54.833                  
  24205241.722 8 127199401.588 8      2897.307 8        48.120                  
  25162109.854 7 132227790.925 7      2721.468 7        45.489                  
  23706728.771 8 124579699.864 8     -2847.857 8        51.113                  
  23378797.980 8 122856417.438 8     -2479.152 8        49.284                  
 02  5 18 00 02 42.0000000  0  5G15G10G12G13G05                                 
  21314986.260 9 112011035.353 9     -1836.572 9        56.514                  
  24204691.195 7 127196502.299 7      2897.785 7        47.719                  
  25161595.708 8 132225069.107 8      2720.887 8        48.057                  
  23707272.704 8 124582545.617 8     -2844.617 8        52.740                  
  23379270.080 8 122858896.858 8     -2480.808 8        48.169                  
 02  5 18 00 02 43.0000000  0  5G15G10G12G13G05                                 
  21315340.764 9 112012870.683 9     -1835.183 9        55.422                  
  24204139.167 8 127193602.940 8      2898.205 8        48.412                  
  25161072.825 7 132222347.103 7      2722.754 7        46.951                  
  23707812.473 8 124585391.386 8     -2846.205 8        50.528                  
  23379741.232 8 122861376.542 8     -2480.266 8        49.765                  
 02  5 18 00 02 44.0000000  0  5G15G10G12G13G05                                 
  21315686.101 9 112014706.185 9     -1835.808 9        55.445                  
  24203586.425 8 127190703.530 8      2901.294 8        49.699                  
  25160559.662 7 132219624.913 7      2719.327 7        46.743                  
  23708352.457 8 124588237.106 8     -2843.789 8        50.927                  
  23380213.510 8 122863856.464 8     -2479.445 8        49.400                  
 02  5 18 00 02 45.0000000  0  5G15G10G12G13G05                                 
  21316034.028 9 112016541.832 9     -1836.775 9        55.607                  
  24203035.594 8 127187804.050 8      2899.054 8        48.910                  
  25160038.012 8 132216902.532 8      2722.853 8        48.403                  
  23708897.498 8 124591082.757 8     -2846.146 8        50.806                  
  23380684.895 8 122866336.622 8     -2479.904 8        48.825                  
 02  5 18 00 02 46.0000000  0  5G15G10G12G13G05                                 
  21316389.854 9 112018377.617 9     -1836.093 9        55.190                  
  24202483.763 8 127184904.522 8      2899.280 8        48.509                  
  25159522.634 7 132214179.971 7      2719.650 7        47.231                  
  23709434.980 8 124593928.404 8     -2845.545 8        50.524                  
  23381158.174 8 122868817.045 8     -2478.812 8        48.494                  
 02  5 18 00 02 47.0000000  0  5G15G10G12G13G05                                 
  21316734.012 9 112020213.583 9     -1836.700 9        54.529                  
  24201931.146 7 127182004.926 7      2897.235 7        47.649                  
  25159001.573 7 132211457.204 7      2724.236 7        46.343                  
  23709980.111 8 124596774.041 8     -2845.647 8        49.388                  
  23381630.631 8 122871297.711 8     -2480.671 8        48.174                  
 02  5 18 00 02 48.0000000  0  5G15G10G12G13G05                                 
  21317081.922 8 112022049.696 8     -1836.605 8        53.707                  
  24201380.494 8 127179105.276 8      2899.524 8        48.188                  
  25158486.570 7 132208734.274 7      2721.278 7        47.856                  
  23710521.828 8 124599619.581 8     -2848.084 8        49.004                  
  23382101.748 8 122873778.620 8     -2479.662 8        48.912                  
 02  5 18 00 02 49.0000000  0  5G15G10G12G13G05                                 
  21317436.872 9 112023885.947 9     -1836.051 9        54.454                  
  24200828.180 8 127176205.545 8      2901.258 8        48.389                  
  25157966.260 8 132206011.130 8      2723.404 8        48.348                  
  23711059.811 7 124602465.114 7     -2843.164 7        47.591                  
  23382573.526 8 122876259.784 8     -2479.115 8        48.330                  
 02  5 18 00 02 50.0000000  0  5G15G10G12G13G05                                 
  21317782.316 9 112025722.352 9     -1836.937 9        54.653                  
  24200275.170 7 127173305.783 7      2899.235 7        46.935                  
  25157448.433 8 132203287.814 8      2725.114 8        48.215                  
  23711604.208 8 124605310.639 8     -2844.376 8        48.430                  
  23383046.126 7 122878741.184 7     -2481.826 7        47.569                  
 02  5 18 00 02 51.0000000  0  5G15G10G12G13G05                                 
  21318130.583 9 112027558.928 9     -1836.201 9        55.168                  
  24199724.482 7 127170405.930 7      2900.780 7        47.915                  
  25156931.143 7 132200564.305 7      2722.070 7        45.828                  
  23712144.693 8 124608156.129 8     -2846.161 8        48.997                  
  23383518.207 8 122881222.848 8     -2481.338 8        49.065                  
 02  5 18 00 02 52.0000000  0  5G15G10G12G13G05                                 
  21318486.016 8 112029395.643 8     -1836.890 8        52.603                  
  24199173.384 7 127167506.044 7      2900.574 7        47.587                  
  25156410.314 7 132197840.608 7      2725.993 7        47.216                  
  23712685.141 8 124611001.539 8     -2845.737 8        50.521                  
  23383991.415 8 122883704.751 8     -2481.114 8        48.755                  
 02  5 18 00 02 53.0000000  0  5G15G10G12G13G05                                 
  21318830.834 8 112031232.504 8     -1836.160 8        53.575                  
  24198619.926 8 127164606.077 8      2899.681 8        48.794                  
  25155894.614 7 132195116.720 7      2726.457 7        45.026                  
  23713228.574 8 124613846.938 8     -2844.177 8        49.073                  
  23384463.765 8 122886186.894 8     -2481.578 8        48.866                  
 02  5 18 00 02 54.0000000  0  5G15G10G12G13G05                                 
  21319179.084 9 112033069.544 9     -1837.314 9        54.975                  
  24198068.721 8 127161706.072 8      2902.128 8        50.789                  
  25155373.161 7 132192392.648 7      2721.997 7        45.059                  
  23713770.613 8 124616692.350 8     -2845.429 8        49.594                  
  23384936.275 8 122888669.293 8     -2483.767 8        49.560                  
 02  5 18 00 02 55.0000000  0  5G15G10G12G13G05                                 
  21319533.980 8 112034906.725 8     -1835.750 8        52.776                  
  24197517.854 8 127158805.984 8      2901.987 8        50.335                  
  25154858.586 7 132189668.393 7      2724.725 7        45.015                  
  23714311.258 8 124619537.676 8     -2846.276 8        49.432                  
  23385408.804 8 122891151.937 8     -2485.196 8        48.622                  
 02  5 18 00 02 56.0000000  0  5G15G10G12G13G05                                 
  21319880.389 8 112036744.048 8     -1836.915 8        53.192                  
  24196964.772 8 127155905.864 8      2899.074 8        48.329                  
  25154335.846 7 132186943.937 7      2725.272 7        46.208                  
  23714850.081 8 124622382.966 8     -2845.071 8        50.043                  
  23385880.099 8 122893634.812 8     -2481.185 8        50.010                  
 02  5 18 00 02 57.0000000  0  5G15G10G12G13G05                                 
  21320227.120 8 112038581.533 8     -1837.910 8        53.021                  
  24196413.030 8 127153005.656 8      2897.740 8        48.656                  
  25153821.683 7 132184219.299 7      2726.179 7        46.059                  
  23715393.799 8 124625228.240 8     -2844.938 8        49.449                  
  23386351.966 8 122896117.952 8     -2482.621 8        49.079                  
 02  5 18 00 02 58.0000000  0  5G15G10G12G13G05                                 
  21320582.964 8 112040419.180 8     -1837.163 8        52.908                  
  24195862.361 8 127150105.412 8      2900.881 8        48.072                  
  25153299.764 7 132181494.478 7      2719.090 7        47.114                  
  23715934.534 8 124628073.509 8     -2844.954 8        48.258                  
  23386825.102 8 122898601.333 8     -2482.393 8        49.382                  
 02  5 18 00 02 59.0000000  0  5G15G10G12G13G05                                 
  21320929.087 9 112042256.966 9     -1837.370 9        54.473                  
  24195309.493 8 127147205.086 8      2901.182 8        49.624                  
  25152784.028 7 132178769.470 7      2723.394 7        47.511                  
  23716474.303 8 124630918.676 8     -2846.146 8        51.064                  
  23387298.649 8 122901084.950 8     -2483.112 8        50.515                  
 02  5 18 00 03  0.0000000  0  5G15G10G12G13G05                                 
  21321276.639 9 112044094.901 9     -1838.214 9        56.275                  
  24194757.519 7 127144304.724 7      2897.311 7        47.379                  
  25152263.325 7 132176044.276 7      2724.683 7        47.390                  
  23717018.683 8 124633763.849 8     -2844.096 8        50.035                  
  23387771.571 8 122903568.831 8     -2484.478 8        48.780                  
 02  5 18 00 03  1.0000000  0  5G15G10G12G13G05                                 
  21321632.250 8 112045933.000 8     -1839.130 8        52.792                  
  24194207.117 7 127141404.281 7      2898.639 7        47.124                  
  25151745.552 7 132173318.884 7      2728.196 7        46.995                  
  23717559.293 8 124636609.009 8     -2843.949 8        50.010                  
  23388243.778 8 122906052.952 8     -2484.396 8        49.231                  
 02  5 18 00 03  2.0000000  0  5G15G10G12G13G05                                 
  21321978.463 8 112047771.256 8     -1838.449 8        53.793                  
  24193653.964 7 127138503.799 7      2899.912 7        47.572                  
  25151226.547 7 132170593.322 7      2728.433 7        46.568                  
  23718098.740 8 124639454.108 8     -2843.314 8        49.170                  
  23388716.110 8 122908537.308 8     -2484.402 8        50.258                  
 02  5 18 00 03  3.0000000  0  5G15G10G12G13G05                                 
  21322326.140 8 112049609.653 8     -1838.208 8        53.623                  
  24193101.400 7 127135603.232 7      2903.253 7        46.583                  
  25150707.541 7 132167867.554 7      2723.610 7        47.532                  
  23718640.672 8 124642299.148 8     -2847.138 8        48.593                  
  23389188.745 8 122911021.931 8     -2485.774 8        48.691                  
 02  5 18 00 03  4.0000000  0  5G15G10G12G13G05                                 
  21322681.627 9 112051448.194 9     -1838.549 9        54.861                  
  24192550.909 7 127132702.633 7      2900.381 7        46.785                  
  25150190.822 7 132165141.618 7      2723.937 7        44.797                  
  23719182.854 8 124645144.195 8     -2843.678 8        51.755                  
  23389661.345 8 122913506.786 8     -2485.403 8        49.286                  
 02  5 18 00 03  5.0000000  0  5G15G10G12G13G05                                 
  21323026.910 9 112053286.913 9     -1838.644 9        55.605                  
  24191998.185 7 127129801.946 7      2902.650 7        47.341                  
  25149669.011 7 132162415.482 7      2726.541 7        45.878                  
  23719727.252 8 124647989.221 8     -2845.276 8        49.176                  
  23390134.892 7 122915991.895 7     -2485.101 7        47.625                  
 02  5 18 00 03  6.0000000  0  5G15G10G12G13G05                                 
  21323376.589 9 112055125.779 9     -1839.039 9        55.261                  
  24191444.799 7 127126901.227 7      2903.684 7        47.633                  
  25149154.187 7 132159689.163 7      2725.042 7        46.987                  
  23720265.234 8 124650834.159 8     -2844.749 8        48.809                  
  23390609.082 8 122918477.255 8     -2485.526 8        48.841                  
 02  5 18 00 03  7.0000000  0  5G15G10G12G13G05                                 
  21323731.932 9 112056964.784 9     -1838.561 9        56.017                  
  24190894.862 7 127124000.426 7      2897.515 7        46.538                  
  25148629.677 7 132156962.673 7      2724.578 7        46.446                  
  23720804.718 7 124653679.086 7     -2848.035 7        47.697                  
  23391080.932 8 122920962.851 8     -2485.225 8        50.275                  
 02  5 18 00 03  8.0000000  0  5G15G10G12G13G05                                 
  21324077.162 9 112058803.943 9     -1838.036 9        57.070                  
  24190342.155 7 127121099.586 7      2903.485 7        46.607                  
  25148115.853 7 132154235.972 7      2726.056 7        44.965                  
  23721352.904 8 124656524.013 8     -2843.663 8        50.984                  
  23391553.853 8 122923448.697 8     -2483.437 8        49.231                  
 02  5 18 00 03  9.0000000  0  5G15G10G12G13G05                                 
  21324425.983 8 112060643.274 8     -1839.023 8        53.435                  
  24189788.876 7 127118198.676 7      2899.254 7        46.186                  
  25147591.701 7 132151509.107 7      2725.673 7        46.238                  
  23721887.920 8 124659368.861 8     -2848.293 8        49.459                  
  23392026.471 8 122925934.799 8     -2483.865 8        50.021                  
 02  5 18 00 03 10.0000000  0  5G15G10G12G13G05                                 
  21324781.862 8 112062482.742 8     -1838.120 8        52.457                  
  24189238.314 7 127115297.717 7      2901.420 7        46.868                  
  25147077.377 7 132148782.040 7      2726.192 7        47.263                  
  23722429.602 8 124662213.665 8     -2845.225 8        49.112                  
  23392499.500 8 122928421.139 8     -2485.809 8        48.397                  
 02  5 18 00 03 11.0000000  0  5G15G10G12G13G05                                 
  21325127.074 9 112064322.357 9     -1839.619 9        54.443                  
  24188686.608 7 127112396.690 7      2900.120 7        46.815                  
  25146556.263 8 132146054.793 8      2727.590 8        48.026                  
  23722973.732 8 124665058.478 8     -2844.539 8        49.552                  
  23392972.868 8 122930907.720 8     -2485.093 8        48.427                  
 02  5 18 00 03 12.0000000  0  5G15G10G12G13G05                                 
  21325476.413 9 112066162.138 9     -1840.202 9        54.997                  
  24188132.847 8 127109495.612 8      2901.689 8        49.005                  
  25146039.151 8 132143327.354 8      2730.907 8        48.047                  
  23723509.105 7 124667903.260 7     -2840.774 7        45.574                  
  23393447.148 8 122933394.556 8     -2486.807 8        48.195                  
 02  5 18 00 03 13.0000000  0  5G15G10G12G13G05                                 
  21325831.953 9 112068002.077 9     -1839.173 9        54.048                  
  24187581.802 8 127106594.463 8      2900.571 8        48.677                  
  25145518.591 8 132140599.740 8      2727.599 8        50.000                  
  23724055.361 7 124670747.945 7     -2845.402 7        47.868                  
  23393919.641 8 122935881.631 8     -2488.290 8        48.303                  
 02  5 18 00 03 14.0000000  0  5G15G10G12G13G05                                 
  21326176.951 8 112069842.152 8     -1839.759 8        53.560                  
  24187030.132 8 127103693.266 8      2902.198 8        48.196                  
  25145000.711 7 132137871.932 7      2729.472 7        47.717                  
  23724597.383 8 124673592.634 8     -2845.796 8        48.116                  
  23394394.027 8 122938368.954 8     -2485.584 8        48.631                  
 02  5 18 00 03 15.0000000  0  5G15G10G12G13G05                                 
  21326527.237 9 112071682.388 9     -1841.204 9        54.893                  
  24186477.103 8 127100791.997 8      2901.507 8        49.726                  
  25144480.901 8 132135143.938 8      2729.650 8        48.186                  
  23725137.760 8 124676437.329 8     -2846.141 8        48.331                  
  23394866.020 8 122940856.535 8     -2489.337 8        48.595                  
 02  5 18 00 03 16.0000000  0  5G15G10G12G13G05                                 
  21326882.688 9 112073522.776 9     -1840.691 9        55.225                  
  24185925.504 7 127097890.680 7      2902.631 7        47.799                  
  25143961.574 8 132132415.762 8      2726.274 8        48.008                  
  23725681.085 7 124679281.918 7     -2844.106 7        47.469                  
  23395339.406 8 122943344.350 8     -2487.199 8        48.507                  
 02  5 18 00 03 17.0000000  0  5G15G10G12G13G05                                 
  21327227.756 9 112075363.303 9     -1839.962 9        54.667                  
  24185373.816 8 127094989.294 8      2901.364 8        50.115                  
  25143443.801 7 132129687.397 7      2725.723 7        45.434                  
  23726222.088 8 124682126.501 8     -2843.851 8        48.068                  
  23395813.078 8 122945832.411 8     -2489.879 8        48.100                  
 02  5 18 00 03 18.0000000  0  5G15G10G12G13G05                                 
  21327577.703 8 112077203.993 8     -1841.762 8        52.380                  
  24184820.788 8 127092087.861 8      2899.024 8        48.470                  
  25142920.775 7 132126958.859 7      2730.233 7        47.207                  
  23726762.876 8 124684971.074 8     -2846.965 8        48.773                  
  23396286.804 8 122948320.729 8     -2488.564 8        50.603                  
 02  5 18 00 03 19.0000000  0  5G15G10G12G13G05                                 
  21327933.297 9 112079044.848 9     -1841.475 9        54.886                  
  24184268.706 7 127089186.365 7      2900.748 7        47.154                  
  25142405.861 7 132124230.111 7      2728.214 7        46.497                  
  23727303.735 8 124687815.596 8     -2845.893 8        49.718                  
  23396761.012 8 122950809.283 8     -2489.201 8        50.008                  
 02  5 18 00 03 20.0000000  0  5G15G10G12G13G05                                 
  21328279.098 8 112080885.845 8     -1840.770 8        53.633                  
  24183717.536 7 127086284.811 7      2903.577 7        46.939                  
  25141882.477 7 132121501.192 7      2732.118 7        45.962                  
  23727845.345 8 124690660.042 8     -2843.535 8        48.105                  
  23397234.255 8 122953298.098 8     -2489.442 8        49.437                  
 02  5 18 00 03 21.0000000  0  5G15G10G12G13G05                                 
  21328629.277 8 112082726.986 8     -1840.786 8        51.748                  
  24183165.223 8 127083383.197 8      2901.821 8        48.735                  
  25141367.295 7 132118772.092 7      2729.173 7        45.375                  
  23728387.563 8 124693504.492 8     -2841.620 8        48.103                  
  23397708.892 8 122955787.149 8     -2488.468 8        50.990                  
 02  5 18 00 03 22.0000000  0  5G15G10G12G13G05                                 
  21328984.567 8 112084568.277 8     -1842.021 8        51.801                  
  24182612.016 7 127080481.521 7      2906.284 7        46.658                  
  25140844.108 7 132116042.805 7      2732.317 7        45.693                  
  23728925.653 8 124696348.955 8     -2842.843 8        48.574                  
  23398180.670 8 122958276.449 8     -2490.839 8        49.914                  
 02  5 18 00 03 23.0000000  0  5G15G10G12G13G05                                 
  21329329.386 9 112086409.739 9     -1841.091 9        54.588                  
  24182061.364 7 127077579.791 7      2902.621 7        45.977                  
  25140329.034 7 132113313.332 7      2728.864 7        45.573                  
  23729467.352 8 124699193.297 8     -2842.679 8        48.435                  
  23398655.378 8 122960765.986 8     -2490.667 8        50.082                  
 02  5 18 00 03 24.0000000  0  5G15G10G12G13G05                                 
  21329680.780 9 112088251.344 9     -1839.776 9        56.401                  
  24181508.300 7 127074677.998 7      2902.596 7        47.532                  
  25139805.221 7 132110583.663 7      2728.206 7        47.441                  
  23730009.463 8 124702037.629 8     -2842.738 8        49.464                  
  23399128.818 8 122963255.781 8     -2492.531 8        49.364                  
 02  5 18 00 03 25.0000000  0  5G15G10G12G13G05                                 
  21330035.498 9 112090093.095 9     -1843.729 9        54.086                  
  24180954.735 7 127071776.158 7      2902.995 7        47.037                  
  25139289.646 7 132107853.823 7      2727.801 7        45.570                  
  23730552.217 8 124704881.963 8     -2843.660 8        51.906                  
  23399603.187 8 122965745.815 8     -2489.963 8        50.286                  
 02  5 18 00 03 26.0000000  0  5G15G10G12G13G05                                 
  21330380.656 8 112091934.995 8     -1840.742 8        50.880                  
  24180404.423 7 127068874.245 7      2903.423 7        47.538                  
  25138767.084 7 132105123.785 7      2728.213 7        46.695                  
  23731092.504 8 124707726.238 8     -2845.886 8        50.666                  
  23400076.823 8 122968236.090 8     -2488.162 8        50.436                  
 02  5 18 00 03 27.0000000  0  5G15G10G12G13G05                                 
  21330732.604 8 112093777.067 8     -1842.952 8        51.515                  
  24179852.002 8 127065972.287 8      2902.777 8        48.112                  
  25138249.740 7 132102393.580 7      2731.932 7        46.831                  
  23731632.613 8 124710570.451 8     -2843.948 8        53.026                  
  23400550.781 8 122970726.628 8     -2491.617 8        49.732                  
 02  5 18 00 03 28.0000000  0  5G15G10G12G13G05                                 
  21331087.233 8 112095619.278 8     -1840.649 8        53.962                  
  24179298.581 7 127063070.258 7      2902.243 7        47.442                  
  25137728.769 7 132099663.177 7      2729.421 7        44.511                  
  23732175.617 8 124713414.664 8     -2844.037 8        51.762                  
  23401023.703 8 122973217.392 8     -2488.294 8        50.168                  
 02  5 18 00 03 29.0000000  0  5G15G10G12G13G05                                 
  21331433.159 9 112097461.638 9     -1843.010 9        55.817                  
  24178747.393 8 127060168.187 8      2904.325 8        50.899                  
  25137210.013 8 132096932.604 8      2731.236 8        48.616                  
  23732718.496 8 124716258.863 8     -2842.393 8        51.576                  
  23401498.054 8 122975708.416 8     -2490.715 8        50.304                  
 02  5 18 00 03 30.0000000  0  5G15G10G12G13G05                                 
  21331783.267 8 112099304.156 8     -1842.136 8        53.324                  
  24178195.222 8 127057266.040 8      2903.334 8        48.404                  
  25136690.400 7 132094201.829 7      2734.357 7        46.374                  
  23733259.624 8 124719102.965 8     -2844.049 8        49.578                  
  23401972.655 8 122978199.689 8     -2491.004 8        51.289                  
 02  5 18 00 03 31.0000000  0  5G15G10G12G13G05                                 
  21332139.701 8 112101146.826 8     -1842.965 8        53.291                  
  24177641.783 8 127054363.854 8      2901.758 8        48.703                  
  25136169.500 7 132091470.885 7      2730.933 7        47.126                  
  23733800.841 8 124721947.053 8     -2844.838 8        48.316                  
  23402448.025 8 122980691.198 8     -2492.700 8        51.702                  
 02  5 18 00 03 32.0000000  0  5G15G10G12G13G05                                 
  21332484.054 9 112102989.631 9     -1842.762 9        55.694                  
  24177090.273 8 127051461.583 8      2903.146 8        48.678                  
  25135651.817 7 132088739.743 7      2731.801 7        47.947                  
  23734342.308 8 124724791.160 8     -2845.519 8        48.031                  
  23402921.375 8 122983182.959 8     -2490.689 8        50.862                  
 02  5 18 00 03 33.0000000  0  5G15G10G12G13G05                                 
  21332837.182 9 112104832.606 9     -1843.056 9        55.822                  
  24176538.424 8 127048559.280 8      2900.959 8        48.923                  
  25135128.844 7 132086008.417 7      2732.343 7        47.296                  
  23734880.058 8 124727635.167 8     -2842.744 8        50.325                  
  23403395.280 8 122985674.971 8     -2492.983 8        49.076                  
 02  5 18 00 03 34.0000000  0  5G15G10G12G13G05                                 
  21333191.864 9 112106675.736 9     -1843.476 9        54.521                  
  24175984.985 7 127045656.892 7      2904.615 7        47.231                  
  25134612.358 7 132083276.917 7      2732.427 7        47.912                  
  23735422.383 8 124730479.140 8     -2844.963 8        50.651                  
  23403868.469 8 122988167.217 8     -2490.942 8        49.450                  
 02  5 18 00 03 35.0000000  0  5G15G10G12G13G05                                 
  21333538.398 8 112108519.013 8     -1841.037 8        51.883                  
  24175433.136 8 127042754.479 8      2899.729 8        50.603                  
  25134089.206 7 132080545.224 7      2732.613 7        47.945                  
  23735962.313 8 124733323.112 8     -2843.029 8        50.131                  
  23404343.964 8 122990659.727 8     -2493.308 8        48.981                  
 02  5 18 00 03 36.0000000  0  5G15G10G12G13G05                                 
  21333889.989 8 112110362.429 8     -1843.097 8        53.456                  
  24174881.823 8 127039851.969 8      2902.231 8        49.355                  
  25133573.453 7 132077813.351 7      2731.202 7        46.011                  
  23736506.104 8 124736167.061 8     -2845.763 8        48.264                  
  23404818.530 8 122993152.487 8     -2495.303 8        49.666                  
 02  5 18 00 03 37.0000000  0  5G15G10G12G13G05                                 
  21334242.545 9 112112206.000 9     -1844.124 9        54.262                  
  24174328.830 8 127036949.449 8      2903.217 8        49.225                  
  25133049.158 7 132075081.291 7      2732.053 7        47.932                  
  23737046.749 8 124739010.919 8     -2844.441 8        49.962                  
  23405292.291 8 122995645.468 8     -2493.265 8        51.190                  
 02  5 18 00 03 38.0000000  0  5G15G10G12G13G05                                 
  21334589.097 9 112114049.740 9     -1844.834 9        55.541                  
  24173776.552 8 127034046.821 8      2904.334 8        48.843                  
  25132533.100 8 132072349.061 8      2729.761 8        48.270                  
  23737586.268 8 124741854.771 8     -2841.738 8        48.985                  
  23405767.053 8 122998138.706 8     -2493.918 8        51.217                  
 02  5 18 00 03 39.0000000  0  5G15G10G12G13G05                                 
  21334942.850 9 112115893.624 9     -1844.935 9        54.998                  
  24173225.078 8 127031144.186 8      2901.832 8        48.070                  
  25132009.431 7 132069616.630 7      2731.374 7        47.514                  
  23738128.432 8 124744698.633 8     -2845.917 8        48.562                  
  23406242.155 8 123000632.199 8     -2493.111 8        49.997                  
 02  5 18 00 03 40.0000000  0  5G15G10G12G13G05                                 
  21335296.567 9 112117737.647 9     -1844.325 9        54.032                  
  24172671.300 7 127028241.437 7      2904.092 7        47.928                  
  25131493.892 8 132066884.030 8      2734.908 8        48.076                  
  23738666.701 7 124747542.382 7     -2844.114 7        47.369                  
  23406715.862 8 123003125.923 8     -2492.687 8        50.074                  
 02  5 18 00 03 41.0000000  0  5G15G10G12G13G05                                 
  21335643.191 9 112119581.836 9     -1843.083 9        56.606                  
  24172119.075 8 127025338.691 8      2903.639 8        48.542                  
  25130969.811 7 132064151.231 7      2730.241 7        47.187                  
  23739208.918 8 124750386.116 8     -2845.260 8        48.344                  
  23407188.284 8 123005619.898 8     -2496.779 8        48.929                  
 02  5 18 00 03 42.0000000  0  5G15G10G12G13G05                                 
  21335994.996 9 112121426.169 9     -1844.360 9        56.482                  
  24171567.691 8 127022435.828 8      2901.184 8        48.588                  
  25130453.379 7 132061418.261 7      2731.815 7        47.433                  
  23739755.228 7 124753229.861 7     -2841.987 7        46.842                  
  23407664.475 8 123008114.125 8     -2492.337 8        49.179                  
 02  5 18 00 03 43.0000000  0  5G15G10G12G13G05                                 
  21336349.053 9 112123270.647 9     -1844.504 9        56.170                  
  24171014.037 7 127019532.964 7      2902.054 7        47.056                  
  25129930.906 8 132058685.102 8      2731.067 8        48.222                  
  23740289.333 7 124756073.517 7     -2843.427 7        47.192                  
  23408140.059 8 123010608.590 8     -2494.087 8        50.272                  
 02  5 18 00 03 44.0000000  0  5G15G10G12G13G05                                 
  21336694.925 9 112125115.282 9     -1844.972 9        54.218                  
  24170461.688 8 127016629.979 8      2904.130 8        48.528                  
  25129412.240 8 132055951.765 8      2733.830 8        48.410                  
  23740835.964 8 124758917.138 8     -2847.170 8        48.705                  
  23408614.321 7 123013103.299 7     -2492.430 7        47.197                  
 02  5 18 00 03 45.0000000  0  5G15G10G12G13G05                                 
  21337050.662 8 112126960.081 8     -1844.566 8        53.716                  
  24169910.607 7 127013726.994 7      2899.331 7        47.242                  
  25128891.251 7 132053218.236 7      2733.605 7        47.912                  
  23741371.999 7 124761760.755 7     -2844.927 7        47.107                  
  23409088.690 8 123015598.265 8     -2495.549 8        49.960                  
 02  5 18 00 03 46.0000000  0  5G15G10G12G13G05                                 
  21337401.181 9 112128805.024 9     -1845.223 9        56.322                  
  24169357.793 8 127010823.902 8      2902.294 8        49.797                  
  25128370.440 8 132050484.528 8      2731.403 8        48.232                  
  23741913.216 8 124764604.355 8     -2846.705 8        49.891                  
  23409564.614 8 123018093.467 8     -2494.027 8        51.559                  
 02  5 18 00 03 47.0000000  0  5G15G10G12G13G05                                 
  21337747.786 9 112130650.109 9     -1844.885 9        54.763                  
  24168804.103 8 127007920.798 8      2903.292 8        49.638                  
  25127851.327 7 132047750.643 7      2734.136 7        47.715                  
  23742458.007 8 124767447.846 8     -2844.228 8        49.469                  
  23410038.554 8 123020588.914 8     -2496.555 8        50.177                  
 02  5 18 00 03 48.0000000  0  5G15G10G12G13G05                                 
  21338103.487 9 112132495.347 9     -1844.964 9        55.922                  
  24168252.272 8 127005017.599 8      2901.949 8        51.335                  
  25127329.498 7 132045016.575 7      2732.425 7        46.197                  
  23742996.222 8 124770291.359 8     -2846.553 8        49.383                  
  23410513.280 8 123023084.618 8     -2494.218 8        49.334                  
 02  5 18 00 03 49.0000000  0  5G15G10G12G13G05                                 
  21338454.452 8 112134340.744 8     -1843.976 8        53.303                  
  24167699.637 8 127002114.374 8      2903.998 8        48.602                  
  25126811.993 7 132042282.331 7      2732.994 7        46.302                  
  23743541.174 7 124773134.849 7     -2846.606 7        46.840                  
  23410991.151 8 123025580.562 8     -2496.279 8        48.952                  
 02  5 18 00 03 50.0000000  0  5G15G10G12G13G05                                 
  21338800.826 8 112136186.289 8     -1844.753 8        53.742                  
  24167146.644 8 126999211.057 8      2903.519 8        48.010                  
  25126288.306 7 132039547.896 7      2735.265 7        47.218                  
  23744082.676 7 124775978.231 7     -2841.752 7        47.378                  
  23411464.287 7 123028076.761 7     -2496.228 7        47.734                  
 02  5 18 00 03 51.0000000  0  5G15G10G12G13G05                                 
  21339157.956 8 112138031.966 8     -1846.770 8        53.495                  
  24166595.206 8 126996307.714 8      2904.802 8        48.975                  
  25125771.266 8 132036813.285 8      2735.494 8        49.112                  
  23744620.784 7 124778821.621 7     -2840.132 7        46.963                  
  23411935.565 8 123030573.205 8     -2495.512 8        48.574                  
 02  5 18 00 03 52.0000000  0  5G15G10G12G13G05                                 
  21339507.045 9 112139877.825 9     -1847.442 9        54.272                  
  24166042.893 8 126993404.287 8      2907.184 8        49.576                  
  25125246.899 7 132034078.480 7      2736.689 7        47.871                  
  23745164.556 8 124781665.008 8     -2846.288 8        49.500                  
  23412413.382 8 123033069.889 8     -2497.539 8        49.080                  
 02  5 18 00 03 53.0000000  0  5G15G10G12G13G05                                 
  21339854.133 9 112141723.833 9     -1846.560 9        54.768                  
  24165489.686 8 126990500.828 8      2902.398 8        49.544                  
  25124730.681 8 132031343.509 8      2735.084 8        48.610                  
  23745703.129 8 124784508.320 8     -2844.065 8        50.596                  
  23412889.681 8 123035566.809 8     -2496.751 8        51.224                  
 02  5 18 00 03 54.0000000  0  5G15G10G12G13G05                                 
  21340212.121 8 112143569.980 8     -1845.745 8        51.211                  
  24164936.872 8 126987597.291 8      2906.910 8        49.423                  
  25124205.850 8 132028608.338 8      2733.486 8        48.213                  
  23746243.256 8 124787351.570 8     -2840.826 8        50.977                  
  23413365.230 8 123038063.994 8     -2498.427 8        49.414                  
 02  5 18 00 03 55.0000000  0  5G15G10G12G13G05                                 
  21340560.299 8 112145416.271 8     -1845.606 8        52.382                  
  24164385.094 8 126984693.711 8      2905.992 8        49.471                  
  25123689.721 7 132025872.995 7      2735.612 7        47.595                  
  23746785.116 7 124790194.830 7     -2843.408 7        47.795                  
  23413843.476 8 123040561.421 8     -2497.469 8        48.597                  
 02  5 18 00 03 56.0000000  0  5G15G10G12G13G05                                 
  21340908.816 8 112147262.729 8     -1846.418 8        52.764                  
  24163832.191 8 126981790.072 8      2906.676 8        49.871                  
  25123164.944 7 132023137.466 7      2735.019 7        47.836                  
  23747326.726 7 124793038.074 7     -2845.334 7        47.767                  
  23414316.076 8 123043059.080 8     -2498.615 8        51.856                  
 02  5 18 00 03 57.0000000  0  5G15G10G12G13G05                                 
  21341266.518 8 112149109.320 8     -1845.930 8        53.464                  
  24163279.216 8 126978886.372 8      2903.588 8        49.029                  
  25122648.207 7 132020401.766 7      2733.044 7        46.642                  
  23747868.211 8 124795881.222 8     -2845.489 8        49.235                  
  23414790.070 8 123045557.002 8     -2496.831 8        53.514                  
 02  5 18 00 03 58.0000000  0  5G15G10G12G13G05                                 
  21341613.571 8 112150956.063 8     -1848.042 8        53.794                  
  24162728.100 7 126975982.627 7      2902.176 7        47.590                  
  25122123.912 7 132017665.867 7      2737.657 7        44.803                  
  23748407.820 8 124798724.367 8     -2841.038 8        49.504                  
  23415265.350 8 123048055.164 8     -2500.936 8        48.942                  
 02  5 18 00 03 59.0000000  0  5G15G10G12G13G05                                 
  21341964.340 9 112152802.962 9     -1847.101 9        54.802                  
  24162174.696 8 126973078.808 8      2903.058 8        49.607                  
  25121606.139 7 132014929.796 7      2735.826 7        45.340                  
  23748948.161 8 124801567.509 8     -2843.970 8        49.624                  
  23415740.684 8 123050553.566 8     -2498.203 8        50.535                  
 02  5 18 00 04  0.0000000  0  5G15G10G12G13G05                                 
  21342320.380 8 112154650.026 8     -1847.043 8        53.362                  
  24161621.364 8 126970174.941 8      2902.952 8        49.246                  
  25121083.238 7 132012193.541 7      2737.544 7        45.611                  
  23749494.453 8 124804410.540 8     -2843.814 8        50.631                  
  23416216.339 8 123053052.215 8     -2499.388 8        51.959                  
 02  5 18 00 04  1.0000000  0  5G15G10G12G13G05                                 
  21342667.503 9 112156497.236 9     -1846.749 9        54.214                  
  24161070.212 8 126967271.000 8      2904.269 8        50.816                  
  25120565.162 7 132009457.104 7      2732.786 7        46.697                  
  23750030.810 8 124807253.558 8     -2844.657 8        49.949                  
  23416691.423 8 123055551.119 8     -2500.613 8        49.986                  
 02  5 18 00 04  2.0000000  0  5G15G10G12G13G05                                 
  21343018.397 8 112158344.587 8     -1846.584 8        52.785                  
  24160516.987 8 126964367.028 8      2903.301 8        48.999                  
  25120042.296 7 132006720.489 7      2735.465 7        46.771                  
  23750575.029 8 124810096.573 8     -2843.812 8        48.679                  
  23417168.258 8 123058050.252 8     -2496.241 8        50.855                  
 02  5 18 00 04  3.0000000  0  5G15G10G12G13G05                                 
  21343376.064 9 112160192.092 9     -1847.548 9        55.429                  
  24159963.351 8 126961462.970 8      2904.252 8        49.357                  
  25119522.361 7 132003983.691 7      2734.241 7        45.780                  
  23751113.083 8 124812939.530 8     -2845.587 8        48.172                  
  23417643.431 8 123060549.632 8     -2499.845 8        51.406                  
 02  5 18 00 04  4.0000000  0  5G15G10G12G13G05                                 
  21343721.454 9 112162039.752 9     -1848.269 9        54.546                  
  24159412.324 8 126958558.888 8      2902.397 8        48.522                  
  25119001.533 7 132001246.702 7      2738.562 7        45.962                  
  23751656.069 8 124815782.436 8     -2841.241 8        48.995                  
  23418118.568 8 123063049.271 8     -2499.987 8        51.178                  
 02  5 18 00 04  5.0000000  0  5G15G10G12G13G05                                 
  21344074.439 9 112163887.554 9     -1847.434 9        55.202                  
  24158859.474 7 126955654.714 7      2901.946 7        47.561                  
  25118480.204 7 131998509.551 7      2736.648 7        47.613                  
  23752195.016 8 124818625.350 8     -2844.390 8        48.663                  
  23418595.207 8 123065549.150 8     -2498.523 8        48.445                  
 02  5 18 00 04  6.0000000  0  5G15G10G12G13G05                                 
  21344430.175 9 112165735.503 9     -1849.222 9        54.839                  
  24158305.230 8 126952750.524 8      2904.700 8        48.594                  
  25117960.483 7 131995772.212 7      2733.345 7        47.568                  
  23752734.554 8 124821468.207 8     -2842.918 8        49.262                  
  23419070.005 8 123068049.280 8     -2501.181 8        49.921                  
 02  5 18 00 04  7.0000000  0  5G15G10G12G13G05                                 
  21344776.388 8 112167583.604 8     -1848.837 8        53.444                  
  24157753.596 8 126949846.227 8      2903.572 8        48.097                  
  25117435.795 7 131993034.682 7      2740.186 7        47.079                  
  23753279.148 8 124824310.990 8     -2842.841 8        50.434                  
  23419546.750 8 123070549.658 8     -2500.684 8        52.497                  
 02  5 18 00 04  8.0000000  0  5G15G10G12G13G05                                 
  21345129.247 8 112169431.862 8     -1849.852 8        52.538                  
  24157201.461 8 126946941.928 8      2906.688 8        49.475                  
  25116919.363 7 131990296.984 7      2738.083 7        47.769                  
  23753820.347 7 124827153.767 7     -2845.142 7        47.862                  
  23420020.511 8 123073050.269 8     -2498.279 8        51.156                  
 02  5 18 00 04  9.0000000  0  5G15G10G12G13G05                                 
  21345484.751 8 112171280.270 8     -1847.802 8        51.291                  
  24156647.611 8 126944037.518 8      2904.748 8        48.589                  
  25116394.603 7 131987559.090 7      2741.602 7        47.663                  
  23754359.241 8 124829996.542 8     -2841.093 8        49.220                  
  23420497.382 8 123075551.131 8     -2501.590 8        49.844                  
 02  5 18 00 04 10.0000000  0  5G15G10G12G13G05                                 
  21345830.946 8 112173128.828 8     -1848.103 8        53.223                  
  24156095.029 7 126941133.103 7      2900.144 7        46.087                  
  25115877.706 7 131984821.034 7      2738.816 7        47.281                  
  23754902.834 8 124832839.210 8     -2842.631 8        49.376                  
  23420972.627 8 123078052.248 8     -2500.608 8        52.161                  
 02  5 18 00 04 11.0000000  0  5G15G10G12G13G05                                 
  21346186.772 9 112174977.549 9     -1849.354 9        55.909                  
  24155543.537 7 126938228.573 7      2911.997 7        46.351                  
  25115352.142 7 131982082.790 7      2731.667 7        46.429                  
  23755440.960 8 124835681.880 8     -2841.879 8        50.993                  
  23421449.408 8 123080553.608 8     -2503.381 8        50.314                  
 02  5 18 00 04 12.0000000  0  5G15G10G12G13G05                                 
  21346539.989 9 112176826.409 9     -1848.058 9        56.030                  
  24154989.812 8 126935324.046 8      2905.424 8        49.070                  
  25114835.030 7 131979344.371 7      2737.803 7        46.435                  
  23755981.623 8 124838524.549 8     -2844.917 8        49.699                  
  23421926.189 8 123083055.199 8     -2499.743 8        49.490                  
 02  5 18 00 04 13.0000000  0  5G15G10G12G13G05                                 
  21346886.576 9 112178675.424 9     -1849.519 9        54.803                  
  24154436.801 8 126932419.412 8      2907.678 8        49.294                  
  25114309.092 7 131976605.763 7      2738.889 7        46.286                  
  23756523.180 8 124841367.105 8     -2844.071 8        48.149                  
  23422402.917 8 123085557.047 8     -2502.063 8        48.492                  
 02  5 18 00 04 14.0000000  0  5G15G10G12G13G05                                 
  21347242.777 9 112180524.571 9     -1847.874 9        54.367                  
  24153886.167 8 126929514.763 8      2903.045 8        50.074                  
  25113792.927 7 131973866.978 7      2738.202 7        45.955                  
  23757064.933 8 124844209.660 8     -2842.554 8        50.436                  
  23422878.608 8 123088059.138 8     -2501.474 8        50.706                  
 02  5 18 00 04 15.0000000  0  5G15G10G12G13G05                                 
  21347595.172 9 112182373.889 9     -1849.225 9        54.417                  
  24153331.656 7 126926610.038 7      2904.343 7        47.744                  
  25113267.810 7 131971128.014 7      2737.831 7        45.007                  
  23757605.471 8 124847052.204 8     -2843.530 8        51.108                  
  23423354.317 8 123090561.476 8     -2503.681 8        50.128                  
 02  5 18 00 04 16.0000000  0  5G15G10G12G13G05                                 
  21347943.493 8 112184223.348 8     -1849.054 8        53.437                  
  24152778.217 7 126923705.263 7      2903.246 7        47.442                  
  25112751.109 7 131968388.867 7      2740.550 7        45.892                  
  23758141.666 8 124849894.679 8     -2841.768 8        49.917                  
  23423830.830 8 123093064.055 8     -2501.000 8        50.560                  
 02  5 18 00 04 17.0000000  0  5G15G10G12G13G05                                 
  21348299.641 8 112186072.949 8     -1848.388 8        53.412                  
  24152226.993 7 126920800.430 7      2904.632 7        47.061                  
  25112224.938 7 131965649.538 7      2736.264 7        45.234                  
  23758688.655 8 124852737.126 8     -2842.024 8        49.088                  
  23424306.933 8 123095566.896 8     -2506.578 8        50.027                  
 02  5 18 00 04 18.0000000  0  5G15G10G12G13G05                                 
  21348649.623 9 112187922.699 9     -1850.191 9        55.494                  
  24151673.750 8 126917895.537 8      2906.003 8        49.069                  
