$GPRMC,000030.00,A,4852.4662586,N,00217.5805411,E,1.19,0.00,180502,0.0,E,A*3F
$GPGGA,000030.00,4852.4662586,N,00217.5805411,E,1,06,1.0,-8.461,M,0.000,M,0.0,*5E
$GPGSA,A,3,01,08,10,16,21,23,,,,,,,2.2,1.3,1.8,1*29
$GPGSV,2,1,06,01,15,255,47,08,73,299,56,10,56,076,54,16,27,182,50,1*66
$GPGSV,2,2,06,21,45,263,53,23,28,048,50,,,,,,,,,1*63
$GPRMC,000031.00,A,4852.4660605,N,00217.5818075,E,0.53,0.00,180502,0.0,E,A*31
$GPGGA,000031.00,4852.4660605,N,00217.5818075,E,1,06,1.0,-9.744,M,0.000,M,0.0,*5A
$GPGSA,A,3,01,08,10,16,21,23,,,,,,,2.2,1.3,1.8,1*29
$GPGSV,2,1,06,01,15,255,47,08,73,299,57,10,56,076,54,16,27,182,50,1*67
$GPGSV,2,2,06,21,45,263,54,23,28,048,50,,,,,,,,,1*64
$GPRMC,000032.00,A,4852.4666250,N,00217.5821019,E,1.28,0.00,180502,0.0,E,A*3D
$GPGGA,000032.00,4852.4666250,N,00217.5821019,E,1,06,1.0,-15.230,M,0.000,M,0.0,*60
$GPGSA,A,3,01,08,10,16,21,23,,,,,,,2.2,1.3,1.8,1*29
$GPGSV,2,1,06,01,15,255,48,08,73,299,57,10,56,076,54,16,27,182,50,1*68
$GPGSV,2,2,06,21,45,263,53,23,28,048,51,,,,,,,,,1*62
$GPRMC,000033.00,A,4852.4665573,N,00217.5806575,E,1.50,0.00,180502,0.0,E,A*3C
$GPGGA,000033.00,4852.4665573,N,00217.5806575,E,1,06,1.0,-15.329,M,0.000,M,0.0,*67
$GPGSA,A,3,01,08,10,16,21,23,,,,,,,2.2,1.3,1.8,1*29
$GPGSV,2,1,06,01,15,255,48,08,73,299,56,10,56,076,54,16,27,182,49,1*61
$GPGSV,2,2,06,21,45,263,54,23,28,048,50,,,,,,,,,1*64
$GPRMC,000034.00,A,4852.4669008,N,00217.5813381,E,1.85,0.00,180502,0.0,E,A*3F
$GPGGA,000034.00,4852.4669008,N,00217.5813381,E,1,06,1.0,-13.868,M,0.000,M,0.0,*64
$GPGSA,A,3,01,08,10,16,21,23,,,,,,,2.2,1.3,1.8,1*29
$GPGSV,2,1,06,01,15,255,48,08,73,299,56,10,56,076,54,16,27,182,50,1*69
$GPGSV,2,2,06,21,45,263,52,23,28,048,50,,,,,,,,,1*62
$GPRMC,000035.00,A,4852.4661320,N,00217.5808781,E,0.37,0.00,180502,0.0,E,A*39
$GPGGA,000035.00,4852.4661320,N,00217.5808781,E,1,06,1.0,-7.684,M,0.000,M,0.0,*53
$GPGSA,A,3,01,08,10,16,21,23,,,,,,,2.2,1.3,1.8,1*29
$GPGSV,2,1,06,01,15,255,47,08,73,299,58,10,56,076,57,16,27,182,50,1*6B
$GPGSV,2,2,06,21,45,263,52,23,27,048,51,,,,,,,,,1*6C
$GPRMC,000036.00,A,4852.4672768,N,00217.5796304,E,0.93,0.00,180502,0.0,E,A*3F
$GPGGA,000036.00,4852.4672768,N,00217.5796304,E,1,06,1.0,-8.329,M,0.000,M,0.0,*56
$GPGSA,A,3,01,08,10,16,21,23,,,,,,,2.2,1.3,1.8,1*29
$GPGSV,2,1,06,01,15,255,49,08,73,299,57,10,56,076,57,16,27,182,51,1*6B
$GPGSV,2,2,06,21,45,263,54,23,27,048,50,,,,,,,,,1*6B
$GPRMC,000037.00,A,4852.4677480,N,00217.5783542,E,0.60,0.00,180502,0.0,E,A*32
$GPGGA,000037.00,4852.4677480,N,00217.5783542,E,1,06,1.0,-2.632,M,0.000,M,0.0,*52
$GPGSA,A,3,01,08,10,16,21,23,,,,,,,2.2,1.3,1.8,1*29
$GPGSV,2,1,06,01,15,255,47,08,73,299,59,10,56,076,56,16,27,182,49,1*63
$GPGSV,2,2,06,21,45,263,53,23,27,048,50,,,,,,,,,1*6C
$GPRMC,000038.00,A,4852.4664009,N,00217.5801735,E,0.54,0.00,180502,0.0,E,A*3A
$GPGGA,000038.00,4852.4664009,N,00217.5801735,E,1,06,1.0,-2.124,M,0.000,M,0.0,*5D
$GPGSA,A,3,01,08,10,16,21,23,,,,,,,2.2,1.3,1.8,1*29
$GPGSV,2,1,06,01,15,255,48,08,73,299,55,10,56,076,55,16,27,182,50,1*6B
$GPGSV,2,2,06,21,45,263,53,23,27,048,50,,,,,,,,,1*6C
$GPRMC,000039.00,A,4852.4669146,N,00217.5808734,E,0.80,0.00,180502,0.0,E,A*3D
$GPGGA,000039.00,4852.4669146,N,00217.5808734,E,1,06,1.0,-7.774,M,0.000,M,0.0,*55
$GPGSA,A,3,01,08,10,16,21,23,,,,,,,2.2,1.3,1.8,1*29
$GPGSV,2,1,06,01,15,255,48,08,73,299,56,10,56,076,54,16,27,182,50,1*69
$GPGSV,2,2,06,21,45,263,52,23,27,048,52,,,,,,,,,1*6F
$GPRMC,000040.00,A,4852.4669671,N,00217.5787055,E,1.62,0.00,180502,0.0,E,A*35
$GPGGA,000040.00,4852.4669671,N,00217.5787055,E,1,06,1.0,-7.037,M,0.000,M,0.0,*50
$GPGSA,A,3,01,08,10,16,21,23,,,,,,,2.2,1.3,1.8,1*29
$GPGSV,2,1,06,01,15,255,48,08,73,299,57,10,56,076,55,16,27,182,50,1*69
$GPGSV,2,2,06,21,45,263,52,23,27,048,50,,,,,,,,,1*6D
$GPRMC,000041.00,A,4852.4665714,N,00217.5803576,E,0.52,0.00,180502,0.0,E,A*3F
$GPGGA,000041.00,4852.4665714,N,00217.5803576,E,1,06,1.0,-10.925,M,0.000,M,0.0,*64
$GPGSA,A,3,01,08,10,16,21,23,,,,,,,2.2,1.3,1.8,1*29
$GPGSV,2,1,06,01,15,255,47,08,73,299,55,10,56,076,54,16,27,182,50,1*65
$GPGSV,2,2,06,21,45,263,54,23,27,048,50,,,,,,,,,1*6B
$GPRMC,000042.00,A,4852.4658059,N,00217.5820770,E,0.85,0.00,180502,0.0,E,A*33
$GPGGA,000042.00,4852.4658059,N,00217.5820770,E,1,06,1.0,-14.052,M,0.000,M,0.0,*6F
$GPGSA,A,3,01,08,10,16,21,23,,,,,,,2.2,1.3,1.8,1*29
$GPGSV,2,1,06,01,15,255,49,08,73,299,57,10,56,076,54,16,27,182,50,1*69
$GPGSV,2,2,06,21,45,263,53,23,27,048,50,,,,,,,,,1*6C
$GPRMC,000043.00,A,4852.4667886,N,00217.5812419,E,0.97,0.00,180502,0.0,E,A*3A
$GPGGA,000043.00,4852.4667886,N,00217.5812419,E,1,06,1.0,-16.884,M,0.000,M,0.0,*64
$GPGSA,A,3,01,08,10,16,21,23,,,,,,,2.2,1.3,1.8,1*29
$GPGSV,2,1,06,01,15,255,47,08,73,299,56,10,56,076,54,16,27,182,48,1*6F
$GPGSV,2,2,06,21,45,263,54,23,27,048,52,,,,,,,,,1*69
$GPRMC,000044.00,A,4852.4663513,N,00217.5806330,E,0.68,0.00,180502,0.0,E,A*31
$GPGGA,000044.00,4852.4663513,N,00217.5806330,E,1,06,1.0,-13.101,M,0.000,M,0.0,*6E
$GPGSA,A,3,01,08,10,16,21,23,,,,,,,2.2,1.3,1.8,1*29
$GPGSV,2,1,06,01,15,255,49,08,73,299,58,10,56,076,56,16,27,182,48,1*6D
$GPGSV,2,2,06,21,45,263,52,23,27,048,51,,,,,,,,,1*6C
$GPRMC,000045.00,A,4852.4663998,N,00217.5802222,E,0.41,0.00,180502,0.0,E,A*32
$GPGGA,000045.00,4852.4663998,N,00217.5802222,E,1,06,1.0,-10.362,M,0.000,M,0.0,*62
$GPGSA,A,3,01,08,10,16,21,23,,,,,,,2.2,1.3,1.8,1*29
$GPGSV,2,1,06,01,15,255,48,08,73,299,57,10,56,076,56,16,27,182,48,1*63
$GPGSV,2,2,06,21,45,263,52,23,27,048,50,,,,,,,,,1*6D
$GPRMC,000046.00,A,4852.4672188,N,00217.5808335,E,0.46,0.00,180502,0.0,E,A*32
$GPGGA,000046.00,4852.4672188,N,00217.5808335,E,1,06,1.0,-11.115,M,0.000,M,0.0,*66
$GPGSA,A,3,01,08,10,16,21,23,,,,,,,2.2,1.3,1.8,1*29
$GPGSV,2,1,06,01,15,255,49,08,73,299,55,10,56,076,56,16,27,182,48,1*60
$GPGSV,2,2,06,21,45,263,51,23,27,048,50,,,,,,,,,1*6E
$GPRMC,000047.00,A,4852.4662382,N,00217.5796649,E,1.55,0.00,180502,0.0,E,A*3F
$GPGGA,000047.00,4852.4662382,N,00217.5796649,E,1,06,1.0,-4.160,M,0.000,M,0.0,*5E
$GPGSA,A,3,01,08,10,16,21,23,,,,,,,2.2,1.3,1.8,1*29
$GPGSV,2,1,06,01,15,255,50,08,73,299,57,10,56,076,58,16,27,182,49,1*65
$GPGSV,2,2,06,21,45,263,52,23,27,048,52,,,,,,,,,1*6F
$GPRMC,000048.00,A,4852.4673102,N,00217.5779611,E,1.32,0.00,180502,0.0,E,A*37
$GPGGA,000048.00,4852.4673102,N,00217.5779611,E,1,06,1.0,-2.649,M,0.000,M,0.0,*5D
$GPGSA,A,3,01,08,10,16,21,23,,,,,,,2.2,1.3,1.8,1*29
$GPGSV,2,1,06,01,15,255,50,08,73,299,57,10,56,076,55,16,27,182,50,1*60
$GPGSV,2,2,06,21,45,263,54,23,27,048,49,,,,,,,,,1*63
$GPRMC,000049.00,A,4852.4672517,N,00217.5791449,E,1.43,0.00,180502,0.0,E,A*38
$GPGGA,000049.00,4852.4672517,N,00217.5791449,E,1,06,1.0,-5.468,M,0.000,M,0.0,*52
$GPGSA,A,3,01,08,10,16,21,23,,,,,,,2.2,1.3,1.8,1*29
$GPGSV,2,1,06,01,15,255,49,08,73,299,57,10,56,076,54,16,27,182,49,1*61
$GPGSV,2,2,06,21,45,263,51,23,27,048,50,,,,,,,,,1*6E
$GPRMC,000050.00,A,4852.4658301,N,00217.5809952,E,1.13,0.00,180502,0.0,E,A*35
$GPGGA,000050.00,4852.4658301,N,00217.5809952,E,1,06,1.0,-6.844,M,0.000,M,0.0,*5B
$GPGSA,A,3,01,08,10,16,21,23,,,,,,,2.2,1.3,1.8,1*29
$GPGSV,2,1,06,01,15,255,49,08,73,299,56,10,56,076,55,16,27,182,51,1*68
$GPGSV,2,2,06,21,45,263,52,23,27,048,51,,,,,,,,,1*6C
$GPRMC,000051.00,A,4852.4671754,N,00217.5807525,E,1.18,0.00,180502,0.0,E,A*32
$GPGGA,000051.00,4852.4671754,N,00217.5807525,E,1,06,1.0,-9.575,M,0.000,M,0.0,*57
$GPGSA,A,3,01,08,10,16,21,23,,,,,,,2.2,1.3,1.8,1*29
$GPGSV,2,1,06,01,15,255,49,08,73,299,57,10,56,076,55,16,27,182,52,1*6A
$GPGSV,2,2,06,21,45,263,54,23,27,048,53,,,,,,,,,1*68
$GPRMC,000052.00,A,4852.4667826,N,00217.5797377,E,1.97,136.97,180502,0.0,E,A*36
$GPGGA,000052.00,4852.4667826,N,00217.5797377,E,1,06,1.0,-10.170,M,0.000,M,0.0,*67
$GPGSA,A,3,01,08,10,16,21,23,,,,,,,2.2,1.3,1.8,1*29
$GPGSV,2,1,06,01,15,255,48,08,73,299,56,10,56,076,56,16,27,182,49,1*63
$GPGSV,2,2,06,21,45,263,54,23,27,048,51,,,,,,,,,1*6A
$GPRMC,000053.00,A,4852.4661878,N,00217.5818694,E,1.41,136.97,180502,0.0,E,A*31
$GPGGA,000053.00,4852.4661878,N,00217.5818694,E,1,06,1.0,-15.880,M,0.000,M,0.0,*68
$GPGSA,A,3,01,08,10,16,21,23,,,,,,,2.2,1.3,1.8,1*29
$GPGSV,2,1,06,01,15,255,48,08,73,299,57,10,56,076,56,16,27,182,49,1*62
$GPGSV,2,2,06,21,45,263,52,23,27,048,49,,,,,,,,,1*65
$GPRMC,000054.00,A,4852.4662685,N,00217.5830319,E,0.43,136.97,180502,0.0,E,A*30
$GPGGA,000054.00,4852.4662685,N,00217.5830319,E,1,06,1.0,-15.758,M,0.000,M,0.0,*60
$GPGSA,A,3,01,08,10,16,21,23,,,,,,,2.2,1.3,1.8,1*29
$GPGSV,2,1,06,01,15,255,49,08,73,299,57,10,56,076,55,16,27,182,50,1*68
$GPGSV,2,2,06,21,45,263,53,23,27,048,49,,,,,,,,,1*64
$GPRMC,000055.00,A,4852.4663822,N,00217.5810495,E,0.52,136.97,180502,0.0,E,A*32
$GPGGA,000055.00,4852.4663822,N,00217.5810495,E,1,06,1.0,-12.194,M,0.000,M,0.0,*63
$GPGSA,A,3,01,08,10,16,21,23,,,,,,,2.2,1.3,1.8,1*29
$GPGSV,2,1,06,01,15,255,49,08,73,299,59,10,56,076,58,16,27,182,51,1*6A
$GPGSV,2,2,06,21,45,263,52,23,27,048,50,,,,,,,,,1*6D
$GPRMC,000056.00,A,4852.4664972,N,00217.5808773,E,1.23,136.97,180502,0.0,E,A*37
$GPGGA,000056.00,4852.4664972,N,00217.5808773,E,1,06,1.0,-11.051,M,0.000,M,0.0,*6A
$GPGSA,A,3,01,08,10,16,21,23,,,,,,,2.2,1.3,1.8,1*29
$GPGSV,2,1,06,01,15,255,48,08,73,299,58,10,56,076,56,16,27,182,48,1*6C
$GPGSV,2,2,06,21,45,263,54,23,27,048,50,,,,,,,,,1*6B
$GPRMC,000057.00,A,4852.4662574,N,00217.5814087,E,1.86,136.97,180502,0.0,E,A*34
$GPGGA,000057.00,4852.4662574,N,00217.5814087,E,1,06,1.0,-6.098,M,0.000,M,0.0,*55
$GPGSA,A,3,01,08,10,16,21,23,,,,,,,2.2,1.3,1.8,1*29
$GPGSV,2,1,06,01,16,255,50,08,73,299,57,10,56,076,55,16,27,182,50,1*63
$GPGSV,2,2,06,21,45,263,53,23,27,048,50,,,,,,,,,1*6C
$GPRMC,000058.00,A,4852.4667102,N,00217.5816984,E,1.12,136.97,180502,0.0,E,A*3E
$GPGGA,000058.00,4852.4667102,N,00217.5816984,E,1,06,1.0,-5.218,M,0.000,M,0.0,*5B
$GPGSA,A,3,01,08,10,16,21,23,,,,,,,2.2,1.3,1.8,1*29
$GPGSV,2,1,06,01,16,255,48,08,73,299,57,10,56,076,56,16,27,182,51,1*68
$GPGSV,2,2,06,21,45,263,52,23,27,048,50,,,,,,,,,1*6D
$GPRMC,000059.00,A,4852.4667318,N,00217.5797579,E,0.89,136.97,180502,0.0,E,A*3D
$GPGGA,000059.00,4852.4667318,N,00217.5797579,E,1,06,1.0,-0.638,M,0.000,M,0.0,*58
$GPGSA,A,3,01,08,10,16,21,23,,,,,,,2.2,1.3,1.8,1*29
$GPGSV,2,1,06,01,16,255,50,08,73,299,57,10,56,076,57,16,26,182,52,1*62
$GPGSV,2,2,06,21,45,263,53,23,27,048,51,,,,,,,,,1*6D
$GPRMC,000100.00,A,4852.4668237,N,00217.5792622,E,0.66,136.97,180502,0.0,E,A*3A
$GPGGA,000100.00,4852.4668237,N,00217.5792622,E,1,06,1.0,0.243,M,0.000,M,0.0,*7B
$GPGSA,A,3,01,08,10,16,21,23,,,,,,,2.2,1.3,1.8,1*29
$GPGSV,2,1,06,01,16,255,49,08,73,299,56,10,56,076,57,16,26,182,50,1*69
$GPGSV,2,2,06,21,45,263,53,23,27,048,50,,,,,,,,,1*6C
$GPRMC,000101.00,A,4852.4665691,N,00217.5817054,E,0.63,136.97,180502,0.0,E,A*3E
$GPGGA,000101.00,4852.4665691,N,00217.5817054,E,1,06,1.0,-4.793,M,0.000,M,0.0,*5B
$GPGSA,A,3,01,08,10,16,21,23,,,,,,,2.2,1.3,1.8,1*29
$GPGSV,2,1,06,01,16,255,48,08,73,299,55,10,56,076,55,16,26,182,50,1*69
$GPGSV,2,2,06,21,45,263,52,23,27,048,51,,,,,,,,,1*6C
$GPRMC,000102.00,A,4852.4655809,N,00217.5811277,E,0.55,136.97,180502,0.0,E,A*31
$GPGGA,000102.00,4852.4655809,N,00217.5811277,E,1,06,1.0,-5.527,M,0.000,M,0.0,*5D
$GPGSA,A,3,01,08,10,16,21,23,,,,,,,2.2,1.3,1.8,1*29
$GPGSV,2,1,06,01,16,255,49,08,73,299,56,10,56,076,55,16,26,182,49,1*63
$GPGSV,2,2,06,21,45,263,53,23,27,048,50,,,,,,,,,1*6C
$GPRMC,000103.00,A,4852.4671116,N,00217.5809670,E,1.54,136.97,180502,0.0,E,A*3B
$GPGGA,000103.00,4852.4671116,N,00217.5809670,E,1,06,1.0,-8.947,M,0.000,M,0.0,*50
$GPGSA,A,3,01,08,10,16,21,23,,,,,,,2.2,1.3,1.8,1*29
$GPGSV,2,1,06,01,16,255,48,08,73,299,56,10,56,076,56,16,26,182,50,1*69
$GPGSV,2,2,06,21,45,263,53,23,27,048,51,,,,,,,,,1*6D
$GPRMC,000104.00,A,4852.4663662,N,00217.5814720,E,1.60,136.97,180502,0.0,E,A*34
$GPGGA,000104.00,4852.4663662,N,00217.5814720,E,1,06,1.0,-9.855,M,0.000,M,0.0,*5B
$GPGSA,A,3,01,08,10,16,21,23,,,,,,,2.2,1.3,1.8,1*29
$GPGSV,2,1,06,01,16,255,47,08,73,299,58,10,56,076,56,16,26,182,50,1*68
$GPGSV,2,2,06,21,45,263,54,23,27,048,50,,,,,,,,,1*6B
$GPRMC,000105.00,A,4852.4656510,N,00217.5829052,E,2.02,353.12,180502,0.0,E,A*32
$GPGGA,000105.00,4852.4656510,N,00217.5829052,E,1,06,1.0,-13.270,M,0.000,M,0.0,*60
$GPGSA,A,3,01,08,10,16,21,23,,,,,,,2.2,1.3,1.8,1*29
$GPGSV,2,1,06,01,16,255,48,08,73,299,58,10,56,076,55,16,26,182,50,1*64
$GPGSV,2,2,06,21,45,263,53,23,27,048,50,,,,,,,,,1*6C
$GPRMC,000106.00,A,4852.4668601,N,00217.5825800,E,1.16,353.12,180502,0.0,E,A*3A
$GPGGA,000106.00,4852.4668601,N,00217.5825800,E,1,06,1.0,-18.046,M,0.000,M,0.0,*62
$GPGSA,A,3,01,08,10,16,21,23,,,,,,,2.2,1.3,1.8,1*29
$GPGSV,2,1,06,01,16,255,48,08,73,299,56,10,56,076,55,16,26,182,51,1*6B
$GPGSV,2,2,06,21,45,263,53,23,27,048,50,,,,,,,,,1*6C
$GPRMC,000107.00,A,4852.4662301,N,00217.5809533,E,0.88,353.12,180502,0.0,E,A*31
$GPGGA,000107.00,4852.4662301,N,00217.5809533,E,1,06,1.0,-11.615,M,0.000,M,0.0,*66
$GPGSA,A,3,01,08,10,16,21,23,,,,,,,2.2,1.3,1.8,1*29
$GPGSV,2,1,06,01,16,255,47,08,73,299,56,10,56,076,54,16,26,182,50,1*64
$GPGSV,2,2,06,21,45,263,51,23,27,048,51,,,,,,,,,1*6F
$GPRMC,000108.00,A,4852.4657117,N,00217.5826555,E,9.91,112.44,180502,0.0,E,A*35
$GPGGA,000108.00,4852.4657117,N,00217.5826555,E,1,06,1.0,-11.792,M,0.000,M,0.0,*69
$GPGSA,A,3,01,08,10,16,21,23,,,,,,,2.2,1.3,1.8,1*29
$GPGSV,2,1,06,01,16,255,46,08,73,299,57,10,56,076,55,16,26,182,51,1*64
$GPGSV,2,2,06,21,45,263,51,23,27,048,52,,,,,,,,,1*6C
$GPRMC,000109.00,A,4852.4645878,N,00217.5887676,E,20.29,116.02,180502,0.0,E,A*00
$GPGGA,000109.00,4852.4645878,N,00217.5887676,E,1,06,1.0,-11.071,M,0.000,M,0.0,*68
$GPGSA,A,3,01,08,10,16,21,23,,,,,,,2.2,1.3,1.8,1*29
$GPGSV,2,1,06,01,16,255,41,08,73,299,59,10,56,076,52,16,26,182,51,1*6A
$GPGSV,2,2,06,21,45,263,48,23,27,048,54,,,,,,,,,1*62
$GPRMC,000110.00,A,4852.4594137,N,00217.5993509,E,29.51,117.28,180502,0.0,E,A*05
$GPGGA,000110.00,4852.4594137,N,00217.5993509,E,1,06,1.0,-9.567,M,0.000,M,0.0,*59
$GPGSA,A,3,01,08,10,16,21,23,,,,,,,2.2,1.3,1.8,1*29
$GPGSV,2,1,06,01,16,255,50,08,73,299,57,10,56,076,48,16,26,182,44,1*6B
$GPGSV,2,2,06,21,45,263,52,23,27,048,47,,,,,,,,,1*6B
$GPRMC,000111.00,A,4852.4571818,N,00217.6100583,E,31.29,115.36,180502,0.0,E,A*03
$GPGGA,000111.00,4852.4571818,N,00217.6100583,E,1,06,1.0,-8.477,M,0.000,M,0.0,*55
$GPGSA,A,3,01,08,10,16,21,23,,,,,,,2.2,1.3,1.8,1*29
$GPGSV,2,1,06,01,16,255,53,08,73,299,50,10,56,076,54,16,26,182,44,1*62
$GPGSV,2,2,06,21,45,263,58,23,27,048,43,,,,,,,,,1*65
$GPRMC,000112.00,A,4852.4549282,N,00217.6202260,E,32.70,115.69,180502,0.0,E,A*0C
$GPGGA,000112.00,4852.4549282,N,00217.6202260,E,1,06,1.0,-4.609,M,0.000,M,0.0,*58
$GPGSA,A,3,01,08,10,16,21,23,,,,,,,2.2,1.3,1.8,1*29
$GPGSV,2,1,06,01,16,255,50,08,73,299,48,10,56,076,57,16,26,182,49,1*66
$GPGSV,2,2,06,21,45,263,59,23,27,048,48,,,,,,,,,1*6F
$GPRMC,000113.00,A,4852.4495003,N,00217.6336012,E,31.45,114.86,180502,0.0,E,A*02
$GPGGA,000113.00,4852.4495003,N,00217.6336012,E,1,06,1.0,-3.881,M,0.000,M,0.0,*5A
$GPGSA,A,3,01,08,10,16,21,23,,,,,,,2.2,1.3,1.8,1*29
$GPGSV,2,1,06,01,16,255,48,08,73,299,50,10,56,076,56,16,26,182,48,1*66
$GPGSV,2,2,06,21,45,263,53,23,27,048,49,,,,,,,,,1*64
$GPRMC,000114.00,A,4852.4458902,N,00217.6442985,E,22.75,109.65,180502,0.0,E,A*0F
$GPGGA,000114.00,4852.4458902,N,00217.6442985,E,1,06,1.0,0.636,M,0.000,M,0.0,*7B
$GPGSA,A,3,01,08,10,16,21,23,,,,,,,2.2,1.3,1.8,1*29
$GPGSV,2,1,06,01,16,255,45,08,73,299,47,10,56,076,52,16,26,182,45,1*64
$GPGSV,2,2,06,21,45,263,49,23,27,048,44,,,,,,,,,1*62
$GPRMC,000115.00,A,4852.4463840,N,00217.6529838,E,13.74,108.01,180502,0.0,E,A*0A
$GPGGA,000115.00,4852.4463840,N,00217.6529838,E,1,06,1.0,-9.222,M,0.000,M,0.0,*5B
$GPGSA,A,3,01,08,10,16,21,23,,,,,,,2.2,1.3,1.8,1*29
$GPGSV,2,1,06,01,16,255,40,08,73,299,47,10,56,076,46,16,26,182,40,1*61
$GPGSV,2,2,06,21,45,263,45,23,27,048,40,,,,,,,,,1*6A
$GPRMC,000116.00,A,4852.4460220,N,00217.6563399,E,9.52,62.18,180502,0.0,E,A*02
$GPGGA,000116.00,4852.4460220,N,00217.6563399,E,1,06,1.0,-7.142,M,0.000,M,0.0,*52
$GPGSA,A,3,01,08,10,16,21,23,,,,,,,2.2,1.3,1.8,1*29
$GPGSV,2,1,06,01,16,255,37,08,73,298,48,10,56,076,42,16,26,182,37,1*6B
$GPGSV,2,2,06,21,45,263,42,23,27,048,37,,,,,,,,,1*6D
$GPRMC,000117.00,A,4852.4478464,N,00217.6617227,E,21.18,65.94,180502,0.0,E,A*3F
$GPGGA,000117.00,4852.4478464,N,00217.6617227,E,1,06,1.0,-5.578,M,0.000,M,0.0,*57
$GPGSA,A,3,01,08,10,16,21,23,,,,,,,2.2,1.3,1.8,1*29
$GPGSV,2,1,06,01,16,255,35,08,73,298,58,10,56,076,37,16,26,182,35,1*68
$GPGSV,2,2,06,21,45,263,37,23,27,048,36,,,,,,,,,1*6E
$GPRMC,000118.00,A,4852.4526307,N,00217.6706883,E,31.84,56.61,180502,0.0,E,A*33
$GPGGA,000118.00,4852.4526307,N,00217.6706883,E,1,06,1.0,-9.233,M,0.000,M,0.0,*51
$GPGSA,A,3,01,08,10,16,21,23,,,,,,,2.2,1.3,1.8,1*29
$GPGSV,2,1,06,01,16,255,35,08,73,298,54,10,56,076,36,16,26,182,36,1*66
$GPGSV,2,2,06,21,45,263,35,23,27,048,35,,,,,,,,,1*6F
$GPRMC,000119.00,A,4852.4529430,N,00217.6851667,E,27.94,68.97,180502,0.0,E,A*35
$GPGGA,000119.00,4852.4529430,N,00217.6851667,E,1,06,1.0,-7.909,M,0.000,M,0.0,*59
$GPGSA,A,3,01,08,10,16,21,23,,,,,,,2.2,1.3,1.8,1*29
$GPGSV,2,1,06,01,16,255,36,08,74,298,50,10,56,076,36,16,26,182,36,1*66
$GPGSV,2,2,06,21,45,263,35,23,27,048,36,,,,,,,,,1*6C
$GPRMC,000120.00,A,4852.4565560,N,00217.6929712,E,20.74,78.04,180502,0.0,E,A*3C
$GPGGA,000120.00,4852.4565560,N,00217.6929712,E,1,06,1.0,-12.653,M,0.000,M,0.0,*66
$GPGSA,A,3,01,08,10,16,21,23,,,,,,,2.2,1.3,1.8,1*29
$GPGSV,2,1,06,01,16,255,36,08,74,298,54,10,56,076,36,16,26,182,36,1*62
$GPGSV,2,2,06,21,45,263,36,23,27,048,36,,,,,,,,,1*6F
$GPRMC,000121.00,A,4852.4578009,N,00217.6969247,E,20.47,83.81,180502,0.0,E,A*33
$GPGGA,000121.00,4852.4578009,N,00217.6969247,E,1,06,1.0,-12.174,M,0.000,M,0.0,*62
$GPGSA,A,3,01,08,10,16,21,23,,,,,,,2.2,1.3,1.8,1*29
$GPGSV,2,1,06,01,16,255,36,08,74,298,55,10,56,076,38,16,26,182,36,1*6D
$GPGSV,2,2,06,21,45,263,38,23,27,048,37,,,,,,,,,1*60
$GPRMC,000122.00,A,4852.4574551,N,00217.7067214,E,20.32,94.39,180502,0.0,E,A*33
$GPGGA,000122.00,4852.4574551,N,00217.7067214,E,1,06,1.0,-15.296,M,0.000,M,0.0,*6D
$GPGSA,A,3,01,08,10,16,21,23,,,,,,,2.2,1.3,1.8,1*29
$GPGSV,2,1,06,01,16,255,37,08,74,298,53,10,56,076,39,16,26,182,37,1*6A
$GPGSV,2,2,06,21,45,263,38,23,27,048,37,,,,,,,,,1*60
$GPRMC,000123.00,A,4852.4539750,N,00217.7163230,E,19.78,110.40,180502,0.0,E,A*0C
$GPGGA,000123.00,4852.4539750,N,00217.7163230,E,1,06,1.0,-18.311,M,0.000,M,0.0,*66
$GPGSA,A,3,01,08,10,16,21,23,,,,,,,2.2,1.3,1.8,1*29
$GPGSV,2,1,06,01,16,255,39,08,74,298,51,10,56,076,43,16,26,182,39,1*65
$GPGSV,2,2,06,21,45,263,41,23,27,048,39,,,,,,,,,1*60
$GPRMC,000125.00,A,4852.4446440,N,00217.7346635,E,20.33,125.22,180502,0.0,E,A*02
$GPGGA,000125.00,4852.4446440,N,00217.7346635,E,1,06,1.0,-7.646,M,0.000,M,0.0,*56
$GPGSA,A,3,01,08,10,16,21,23,,,,,,,2.2,1.3,1.8,1*29
$GPGSV,2,1,06,01,16,255,46,08,74,298,53,10,56,076,50,16,26,182,46,1*65
$GPGSV,2,2,06,21,45,263,52,23,27,048,48,,,,,,,,,1*64
$GPRMC,000126.00,A,4852.4465697,N,00217.7361356,E,14.92,132.67,180502,0.0,E,A*06
$GPGGA,000126.00,4852.4465697,N,00217.7361356,E,1,06,1.0,-17.743,M,0.000,M,0.0,*6C
$GPGSA,A,3,01,08,10,16,21,23,,,,,,,2.2,1.3,1.8,1*29
$GPGSV,2,1,06,01,16,255,42,08,74,298,53,10,56,076,46,16,26,182,42,1*62
$GPGSV,2,2,06,21,45,263,46,23,27,048,42,,,,,,,,,1*6B
$GPRMC,000127.00,A,4852.4438780,N,00217.7386814,E,16.11,144.42,180502,0.0,E,A*03
$GPGGA,000127.00,4852.4438780,N,00217.7386814,E,1,06,1.0,-11.893,M,0.000,M,0.0,*62
$GPGSA,A,3,01,08,10,16,21,23,,,,,,,2.2,1.3,1.8,1*29
$GPGSV,2,1,06,01,16,255,38,08,74,298,51,10,56,076,41,16,26,182,40,1*68
$GPGSV,2,2,06,21,45,263,40,23,27,048,38,,,,,,,,,1*60
$GPRMC,000128.00,A,4852.4372254,N,00217.7440398,E,20.36,161.90,180502,0.0,E,A*03
$GPGGA,000128.00,4852.4372254,N,00217.7440398,E,1,06,1.0,-8.519,M,0.000,M,0.0,*5D
$GPGSA,A,3,01,08,10,16,21,23,,,,,,,2.2,1.3,1.8,1*29
$GPGSV,2,1,06,01,16,255,36,08,74,298,52,10,56,076,39,16,26,182,37,1*6A
$GPGSV,2,2,06,21,45,263,38,23,27,048,37,,,,,,,,,1*60
$GPRMC,000129.00,A,4852.4333446,N,00217.7469628,E,24.72,165.17,180502,0.0,E,A*08
$GPGGA,000129.00,4852.4333446,N,00217.7469628,E,1,06,1.0,-6.262,M,0.000,M,0.0,*5C
$GPGSA,A,3,01,08,10,16,21,23,,,,,,,2.2,1.3,1.8,1*29
$GPGSV,2,1,06,01,16,255,36,08,74,298,47,10,56,076,37,16,26,182,36,1*61
$GPGSV,2,2,06,21,45,263,37,23,27,048,37,,,,,,,,,1*6F
$GPRMC,000130.00,A,4852.4258675,N,00217.7487514,E,19.47,167.54,180502,0.0,E,A*0F
$GPGGA,000130.00,4852.4258675,N,00217.7487514,E,1,06,1.0,-3.555,M,0.000,M,0.0,*50
$GPGSA,A,3,01,08,10,16,21,23,,,,,,,2.2,1.3,1.8,1*29
$GPGSV,2,1,06,01,16,255,36,08,74,298,45,10,56,076,36,16,26,182,36,1*62
$GPGSV,2,2,06,21,45,263,36,23,27,048,36,,,,,,,,,1*6F
$GPRMC,000131.00,A,4852.4220526,N,00217.7485851,E,23.63,166.51,180502,0.0,E,A*01
$GPGGA,000131.00,4852.4220526,N,00217.7485851,E,1,06,1.0,-0.484,M,0.000,M,0.0,*5B
$GPGSA,A,3,01,08,10,16,21,23,,,,,,,2.2,1.3,1.8,1*29
$GPGSV,2,1,06,01,16,255,36,08,74,298,57,10,56,076,36,16,26,182,36,1*61
$GPGSV,2,2,06,21,45,263,36,23,27,048,36,,,,,,,,,1*6F
$GPRMC,000132.00,A,4852.4198424,N,00217.7514223,E,13.06,149.24,180502,0.0,E,A*08
$GPGGA,000132.00,4852.4198424,N,00217.7514223,E,1,06,1.0,-4.375,M,0.000,M,0.0,*50
$GPGSA,A,3,01,08,10,16,21,23,,,,,,,2.2,1.3,1.8,1*29
$GPGSV,2,1,06,01,16,255,35,08,74,298,53,10,56,076,36,16,26,182,35,1*65
$GPGSV,2,2,06,21,45,263,36,23,27,048,36,,,,,,,,,1*6F
$GPRMC,000133.00,A,4852.4138019,N,00217.7581709,E,15.35,124.76,180502,0.0,E,A*02
$GPGGA,000133.00,4852.4138019,N,00217.7581709,E,1,06,1.0,1.180,M,0.000,M,0.0,*70
$GPGSA,A,3,01,08,10,16,21,23,,,,,,,2.2,1.3,1.8,1*29
$GPGSV,2,1,06,01,16,255,36,08,74,298,50,10,56,076,40,16,26,182,35,1*64
$GPGSV,2,2,06,21,45,263,40,23,27,048,35,,,,,,,,,1*6D
$GPRMC,000134.00,A,4852.4172849,N,00217.7681730,E,24.23,117.41,180502,0.0,E,A*0E
$GPGGA,000134.00,4852.4172849,N,00217.7681730,E,1,06,1.0,-17.935,M,0.000,M,0.0,*61
$GPGSA,A,3,01,08,10,16,21,23,,,,,,,2.2,1.3,1.8,1*29
$GPGSV,2,1,06,01,16,255,39,08,74,298,43,10,56,076,44,16,26,182,35,1*6D
$GPGSV,2,2,06,21,45,263,41,23,27,048,42,,,,,,,,,1*6C
$GPRMC,000135.00,A,4852.4082011,N,00217.7772080,E,35.19,118.30,180502,0.0,E,A*05
$GPGGA,000135.00,4852.4082011,N,00217.7772080,E,1,06,1.0,-6.596,M,0.000,M,0.0,*5F
$GPGSA,A,3,01,08,10,16,21,23,,,,,,,2.2,1.3,1.8,1*29
$GPGSV,2,1,06,01,16,255,37,08,74,298,41,10,56,076,41,16,26,182,35,1*64
$GPGSV,2,2,06,21,45,263,38,23,27,048,45,,,,,,,,,1*65
$GPRMC,000136.00,A,4852.4049910,N,00217.7866894,E,32.32,119.01,180502,0.0,E,A*03
$GPGGA,000136.00,4852.4049910,N,00217.7866894,E,1,06,1.0,-10.545,M,0.000,M,0.0,*6D
$GPGSA,A,3,01,08,10,16,21,23,,,,,,,2.2,1.3,1.8,1*29
$GPGSV,2,1,06,01,16,255,41,08,74,298,46,10,56,076,47,16,26,182,37,1*66
$GPGSV,2,2,06,21,45,263,42,23,27,048,46,,,,,,,,,1*6B
$GPRMC,000137.00,A,4852.4003756,N,00217.7999073,E,32.69,118.91,180502,0.0,E,A*06
$GPGGA,000137.00,4852.4003756,N,00217.7999073,E,1,06,1.0,0.513,M,0.000,M,0.0,*71
$GPGSA,A,3,01,08,10,16,21,23,,,,,,,2.2,1.3,1.8,1*29
$GPGSV,2,1,06,01,16,255,43,08,74,298,55,10,56,076,52,16,26,182,42,1*60
$GPGSV,2,2,06,21,45,263,48,23,27,048,45,,,,,,,,,1*62
$GPRMC,000138.00,A,4852.3935506,N,00217.8119265,E,27.24,120.00,180502,0.0,E,A*01
$GPGGA,000138.00,4852.3935506,N,00217.8119265,E,1,06,1.0,-7.262,M,0.000,M,0.0,*53
$GPGSA,A,3,01,08,10,16,21,23,,,,,,,2.2,1.3,1.8,1*29
$GPGSV,2,1,06,01,16,255,41,08,74,298,51,10,56,076,47,16,26,182,45,1*65
$GPGSV,2,2,06,21,45,263,44,23,27,048,42,,,,,,,,,1*69
$GPRMC,000139.00,A,4852.3921312,N,00217.8197248,E,16.62,127.34,180502,0.0,E,A*0F
$GPGGA,000139.00,4852.3921312,N,00217.8197248,E,1,06,1.0,-6.515,M,0.000,M,0.0,*5B
$GPGSA,A,3,01,08,10,16,21,23,,,,,,,2.2,1.3,1.8,1*29
$GPGSV,2,1,06,01,16,255,36,08,74,298,45,10,56,076,40,16,26,182,46,1*64
$GPGSV,2,2,06,21,45,263,38,23,27,048,38,,,,,,,,,1*6F
$GPRMC,000140.00,A,4852.3901569,N,00217.8206610,E,10.36,152.41,180502,0.0,E,A*0C
$GPGGA,000140.00,4852.3901569,N,00217.8206610,E,1,06,1.0,-9.845,M,0.000,M,0.0,*58
$GPGSA,A,3,01,08,10,16,21,23,,,,,,,2.2,1.3,1.8,1*29
$GPGSV,2,1,06,01,16,255,35,08,74,298,42,10,56,076,37,16,26,182,46,1*60
$GPGSV,2,2,06,21,45,263,36,23,27,048,36,,,,,,,,,1*6F
$GPRMC,000141.00,A,4852.3870252,N,00217.8215735,E,10.95,178.42,180502,0.0,E,A*03
$GPGGA,000141.00,4852.3870252,N,00217.8215735,E,1,06,1.0,-10.904,M,0.000,M,0.0,*69
$GPGSA,A,3,01,08,10,16,21,23,,,,,,,2.2,1.3,1.8,1*29
$GPGSV,2,1,06,01,16,255,35,08,74,298,43,10,56,076,38,16,26,182,50,1*69
$GPGSV,2,2,06,21,45,263,36,23,27,048,37,,,,,,,,,1*6E
$GPRMC,000142.00,A,4852.3834636,N,00217.8221527,E,23.13,195.49,180502,0.0,E,A*06
$GPGGA,000142.00,4852.3834636,N,00217.8221527,E,1,06,1.0,-18.289,M,0.000,M,0.0,*6C
$GPGSA,A,3,01,08,10,16,21,23,,,,,,,2.2,1.3,1.8,1*29
$GPGSV,2,1,06,01,16,255,35,08,74,298,51,10,56,076,38,16,26,182,39,1*65
$GPGSV,2,2,06,21,45,263,37,23,27,048,36,,,,,,,,,1*6E
$GPRMC,000143.00,A,4852.3758952,N,00217.8166747,E,28.13,215.13,180502,0.0,E,A*04
$GPGGA,000143.00,4852.3758952,N,00217.8166747,E,1,06,1.0,-17.611,M,0.000,M,0.0,*6B
$GPGSA,A,3,01,08,10,16,21,23,,,,,,,2.2,1.3,1.8,1*29
$GPGSV,2,1,06,01,16,255,35,08,74,298,50,10,56,076,37,16,26,182,36,1*64
$GPGSV,2,2,06,21,45,263,36,23,27,048,35,,,,,,,,,1*6C
$GPRMC,000144.00,A,4852.3700937,N,00217.8039323,E,35.01,222.58,180502,0.0,E,A*04
$GPGGA,000144.00,4852.3700937,N,00217.8039323,E,1,05,1.0,-19.029,M,0.000,M,0.0,*6F
$GPGSA,A,3,08,10,16,21,23,,,,,,,,3.0,1.6,2.6,1*23
$GPGSV,2,1,05,08,74,298,48,10,56,076,38,16,26,182,38,21,45,263,37,1*6C
$GPGSV,2,2,05,23,27,048,36,,,,,,,,,,,,,1*5C
$GPRMC,000145.00,A,4852.3670431,N,00217.8018929,E,29.64,218.98,180502,0.0,E,A*00
$GPGGA,000145.00,4852.3670431,N,00217.8018929,E,1,05,1.0,-24.035,M,0.000,M,0.0,*63
$GPGSA,A,3,08,10,16,21,23,,,,,,,,3.0,1.6,2.6,1*23
$GPGSV,2,1,05,08,74,298,50,10,56,076,45,16,26,182,43,21,45,263,43,1*60
$GPGSV,2,2,05,23,27,048,44,,,,,,,,,,,,,1*59
$GPRMC,000146.00,A,4852.3574544,N,00217.7939685,E,23.90,231.67,180502,0.0,E,A*01
$GPGGA,000146.00,4852.3574544,N,00217.7939685,E,1,05,1.0,-14.080,M,0.000,M,0.0,*65
$GPGSA,A,3,08,10,16,21,23,,,,,,,,3.0,1.6,2.6,1*23
$GPGSV,2,1,05,08,74,298,55,10,56,076,47,16,26,182,38,21,45,263,46,1*6E
$GPGSV,2,2,05,23,27,048,40,,,,,,,,,,,,,1*5D
$GPRMC,000147.00,A,4852.3512763,N,00217.7865914,E,30.23,232.65,180502,0.0,E,A*03
$GPGGA,000147.00,4852.3512763,N,00217.7865914,E,1,05,1.0,-2.810,M,0.000,M,0.0,*5A
$GPGSA,A,3,08,10,16,21,23,,,,,,,,3.0,1.6,2.6,1*23
$GPGSV,2,1,05,08,74,298,50,10,56,076,46,16,26,182,41,21,45,263,46,1*64
$GPGSV,2,2,05,23,27,048,45,,,,,,,,,,,,,1*58
$GPRMC,000148.00,A,4852.3516774,N,00217.7677937,E,34.82,249.77,180502,0.0,E,A*02
$GPGGA,000148.00,4852.3516774,N,00217.7677937,E,1,05,1.0,-3.543,M,0.000,M,0.0,*51
$GPGSA,A,3,08,10,16,21,23,,,,,,,,3.0,1.6,2.6,1*23
$GPGSV,2,1,05,08,74,298,47,10,55,076,42,16,26,182,49,21,45,263,40,1*6B
$GPGSV,2,2,05,23,27,048,40,,,,,,,,,,,,,1*5D
$GPRMC,000149.00,A,4852.3454907,N,00217.7534900,E,32.64,244.32,180502,0.0,E,A*0C
$GPGGA,000149.00,4852.3454907,N,00217.7534900,E,1,05,1.0,-10.349,M,0.000,M,0.0,*63
$GPGSA,A,3,08,10,16,21,23,,,,,,,,3.0,1.6,2.6,1*23
$GPGSV,2,1,05,08,74,298,50,10,55,076,47,16,26,182,43,21,45,263,44,1*66
$GPGSV,2,2,05,23,27,048,45,,,,,,,,,,,,,1*58
$GPRMC,000150.00,A,4852.3441826,N,00217.7418894,E,32.70,251.42,180502,0.0,E,A*07
$GPGGA,000150.00,4852.3441826,N,00217.7418894,E,1,05,1.0,3.032,M,0.000,M,0.0,*7E
$GPGSA,A,3,08,10,16,21,23,,,,,,,,3.0,1.6,2.6,1*23
$GPGSV,2,1,05,08,74,298,50,10,55,076,54,16,26,182,40,21,45,263,47,1*64
$GPGSV,2,2,05,23,27,048,44,,,,,,,,,,,,,1*59
$GPRMC,000151.00,A,4852.3393621,N,00217.7333176,E,33.41,266.59,180502,0.0,E,A*01
$GPGGA,000151.00,4852.3393621,N,00217.7333176,E,1,05,1.0,4.349,M,0.000,M,0.0,*7D
$GPGSA,A,3,08,10,16,21,23,,,,,,,,3.0,1.6,2.6,1*23
$GPGSV,2,1,05,08,74,298,52,10,55,075,52,16,26,182,40,21,45,263,49,1*6D
$GPGSV,2,2,05,23,27,048,44,,,,,,,,,,,,,1*59
$GPRMC,000153.00,A,4852.3405982,N,00217.7037586,E,31.99,265.52,180502,0.0,E,A*0E
$GPGGA,000153.00,4852.3405982,N,00217.7037586,E,1,05,1.0,-2.321,M,0.000,M,0.0,*58
$GPGSA,A,3,08,10,16,21,23,,,,,,,,3.0,1.6,2.6,1*23
$GPGSV,2,1,05,08,74,298,52,10,55,075,56,16,26,182,43,21,45,263,46,1*65
$GPGSV,2,2,05,23,27,048,46,,,,,,,,,,,,,1*5B
$GPRMC,000154.00,A,4852.3404506,N,00217.6900902,E,33.87,278.05,180502,0.0,E,A*07
$GPGGA,000154.00,4852.3404506,N,00217.6900902,E,1,05,1.0,-1.800,M,0.000,M,0.0,*59
$GPGSA,A,3,08,10,16,21,23,,,,,,,,3.0,1.6,2.6,1*23
$GPGSV,2,1,05,08,74,298,53,10,55,075,54,16,26,182,41,21,45,263,54,1*67
$GPGSV,2,2,05,23,27,048,44,,,,,,,,,,,,,1*59
$GPRMC,000156.00,A,4852.3462314,N,00217.6570217,E,31.31,281.02,180502,0.0,E,A*0A
$GPGGA,000156.00,4852.3462314,N,00217.6570217,E,1,05,1.0,-27.499,M,0.000,M,0.0,*62
$GPGSA,A,3,08,10,16,21,23,,,,,,,,3.0,1.6,2.6,1*23
$GPGSV,2,1,05,08,74,298,53,10,55,075,51,16,26,182,42,21,45,263,50,1*65
$GPGSV,2,2,05,23,27,048,44,,,,,,,,,,,,,1*59
$GPRMC,000157.00,A,4852.3431100,N,00217.6567703,E,32.42,284.71,180502,0.0,E,A*0A
$GPGGA,000157.00,4852.3431100,N,00217.6567703,E,1,05,1.0,10.476,M,0.000,M,0.0,*4C
$GPGSA,A,3,08,10,16,21,23,,,,,,,,3.0,1.6,2.6,1*23
$GPGSV,2,1,05,08,74,298,53,10,55,075,52,16,26,182,42,21,45,263,51,1*67
$GPGSV,2,2,05,23,27,048,43,,,,,,,,,,,,,1*5E
$GPRMC,000158.00,A,4852.3477702,N,00217.6367737,E,34.76,299.77,180502,0.0,E,A*09
$GPGGA,000158.00,4852.3477702,N,00217.6367737,E,1,05,1.0,-19.037,M,0.000,M,0.0,*61
$GPGSA,A,3,08,10,16,21,23,,,,,,,,3.0,1.6,2.6,1*23
$GPGSV,2,1,05,08,74,298,56,10,55,075,48,16,26,182,40,21,45,263,48,1*63
$GPGSV,2,2,05,23,27,048,42,,,,,,,,,,,,,1*5F
$GPRMC,000159.00,A,4852.3508556,N,00217.6300845,E,24.86,298.81,180502,0.0,E,A*0F
$GPGGA,000159.00,4852.3508556,N,00217.6300845,E,1,05,1.0,-8.781,M,0.000,M,0.0,*5B
$GPGSA,A,3,08,10,16,21,23,,,,,,,,3.0,1.6,2.6,1*23
$GPGSV,2,1,05,08,74,298,50,10,55,075,42,16,26,182,44,21,45,263,41,1*62
$GPGSV,2,2,05,23,27,048,39,,,,,,,,,,,,,1*53
$GPRMC,000200.00,A,4852.3550140,N,00217.6180947,E,26.28,303.82,180502,0.0,E,A*01
$GPGGA,000200.00,4852.3550140,N,00217.6180947,E,1,05,1.0,-8.332,M,0.000,M,0.0,*5F
$GPGSA,A,3,08,10,16,21,23,,,,,,,,3.0,1.6,2.6,1*23
$GPGSV,2,1,05,08,74,298,48,10,55,075,41,16,26,182,47,21,45,263,40,1*6A
$GPGSV,2,2,05,23,27,048,39,,,,,,,,,,,,,1*53
$GPRMC,000201.00,A,4852.3592405,N,00217.6122005,E,28.83,313.89,180502,0.0,E,A*08
$GPGGA,000201.00,4852.3592405,N,00217.6122005,E,1,05,1.0,-14.785,M,0.000,M,0.0,*66
$GPGSA,A,3,08,10,16,21,23,,,,,,,,3.0,1.6,2.6,1*23
$GPGSV,2,1,05,08,74,298,55,10,55,075,47,16,26,182,44,21,45,263,46,1*65
$GPGSV,2,2,05,23,27,048,43,,,,,,,,,,,,,1*5E
$GPRMC,000202.00,A,4852.3639220,N,00217.6054133,E,25.75,317.99,180502,0.0,E,A*0D
$GPGGA,000202.00,4852.3639220,N,00217.6054133,E,1,05,1.0,-2.262,M,0.000,M,0.0,*59
$GPGSA,A,3,08,10,16,21,23,,,,,,,,3.0,1.6,2.6,1*23
$GPGSV,2,1,05,08,74,298,56,10,55,075,50,16,26,182,46,21,45,263,46,1*62
$GPGSV,2,2,05,23,27,048,44,,,,,,,,,,,,,1*59
$GPRMC,000204.00,A,4852.3749884,N,00217.5940833,E,35.35,329.54,180502,0.0,E,A*06
$GPGGA,000204.00,4852.3749884,N,00217.5940833,E,1,05,1.0,6.263,M,0.000,M,0.0,*73
$GPGSA,A,3,08,10,16,21,23,,,,,,,,3.0,1.6,2.6,1*23
$GPGSV,2,1,05,08,74,298,50,10,55,075,52,16,26,182,38,21,45,263,50,1*68
$GPGSV,2,2,05,23,27,048,41,,,,,,,,,,,,,1*5C
$GPRMC,000205.00,A,4852.3824468,N,00217.5846125,E,31.64,331.87,180502,0.0,E,A*03
$GPGGA,000205.00,4852.3824468,N,00217.5846125,E,1,05,1.0,-2.155,M,0.000,M,0.0,*5E
$GPGSA,A,3,08,10,16,21,23,,,,,,,,3.0,1.6,2.6,1*23
$GPGSV,2,1,05,08,74,298,54,10,55,075,50,16,26,182,38,21,45,263,48,1*67
$GPGSV,2,2,05,23,27,047,40,,,,,,,,,,,,,1*52
$GPRMC,000206.00,A,4852.3915227,N,00217.5789082,E,29.68,338.08,180502,0.0,E,A*05
$GPGGA,000206.00,4852.3915227,N,00217.5789082,E,1,06,1.0,-0.432,M,0.000,M,0.0,*56
$GPGSA,A,3,01,08,10,16,21,23,,,,,,,2.2,1.3,1.8,1*29
$GPGSV,2,1,06,01,16,255,41,08,74,298,54,10,55,075,47,16,26,182,44,1*61
$GPGSV,2,2,06,21,45,263,44,23,27,047,41,,,,,,,,,1*65
$GPRMC,000207.00,A,4852.3981660,N,00217.5751194,E,32.70,342.70,180502,0.0,E,A*0C
$GPGGA,000207.00,4852.3981660,N,00217.5751194,E,1,06,1.0,-8.102,M,0.000,M,0.0,*50
$GPGSA,A,3,01,08,10,16,21,23,,,,,,,2.2,1.3,1.8,1*29
$GPGSV,2,1,06,01,16,255,42,08,74,298,54,10,55,075,47,16,26,182,47,1*61
$GPGSV,2,2,06,21,45,263,46,23,27,047,43,,,,,,,,,1*65
$GPRMC,000208.00,A,4852.4123324,N,00217.5667619,E,34.33,348.08,180502,0.0,E,A*03
$GPGGA,000208.00,4852.4123324,N,00217.5667619,E,1,06,1.0,-8.301,M,0.000,M,0.0,*5A
$GPGSA,A,3,01,08,10,16,21,23,,,,,,,2.2,1.3,1.8,1*29
$GPGSV,2,1,06,01,16,255,40,08,74,298,51,10,55,075,46,16,26,182,46,1*66
$GPGSV,2,2,06,21,45,263,44,23,27,047,43,,,,,,,,,1*67
$GPRMC,000209.00,A,4852.4157190,N,00217.5682788,E,31.13,349.39,180502,0.0,E,A*0A
$GPGGA,000209.00,4852.4157190,N,00217.5682788,E,1,06,1.0,-13.547,M,0.000,M,0.0,*69
$GPGSA,A,3,01,08,10,16,21,23,,,,,,,2.2,1.3,1.8,1*29
$GPGSV,2,1,06,01,16,255,41,08,74,298,54,10,55,075,46,16,26,182,47,1*63
$GPGSV,2,2,06,21,45,263,45,23,27,047,44,,,,,,,,,1*61
$GPRMC,000210.00,A,4852.4249729,N,00217.5652192,E,31.52,354.61,180502,0.0,E,A*0E
$GPGGA,000210.00,4852.4249729,N,00217.5652192,E,1,06,1.0,-14.556,M,0.000,M,0.0,*6E
$GPGSA,A,3,01,08,10,16,21,23,,,,,,,2.2,1.3,1.8,1*29
$GPGSV,2,1,06,01,16,255,42,08,74,298,53,10,55,075,46,16,26,182,47,1*67
$GPGSV,2,2,06,21,45,263,46,23,27,047,45,,,,,,,,,1*63
$GPRMC,000211.00,A,4852.4374667,N,00217.5646965,E,34.32,1.19,180502,0.0,E,A*01
$GPGGA,000211.00,4852.4374667,N,00217.5646965,E,1,06,1.0,-14.091,M,0.000,M,0.0,*60
$GPGSA,A,3,01,08,10,16,21,23,,,,,,,2.2,1.3,1.8,1*29
$GPGSV,2,1,06,01,16,255,40,08,74,298,50,10,55,075,44,16,26,182,46,1*65
$GPGSV,2,2,06,21,45,263,43,23,27,047,43,,,,,,,,,1*60
$GPRMC,000212.00,A,4852.4384365,N,00217.5689725,E,32.52,4.82,180502,0.0,E,A*04
$GPGGA,000212.00,4852.4384365,N,00217.5689725,E,1,06,1.0,-15.950,M,0.000,M,0.0,*67
$GPGSA,A,3,01,08,10,16,21,23,,,,,,,2.2,1.3,1.8,1*29
$GPGSV,2,1,06,01,16,255,40,08,74,298,49,10,55,075,44,16,26,182,47,1*6C
$GPGSV,2,2,06,21,45,263,42,23,27,047,42,,,,,,,,,1*60
$GPRMC,000213.00,A,4852.4554797,N,00217.5690109,E,26.40,13.36,180502,0.0,E,A*38
$GPGGA,000213.00,4852.4554797,N,00217.5690109,E,1,06,1.0,-20.931,M,0.000,M,0.0,*65
$GPGSA,A,3,01,08,10,16,21,23,,,,,,,2.2,1.3,1.8,1*29
$GPGSV,2,1,06,01,16,255,40,08,74,298,48,10,55,075,46,16,26,182,43,1*6B
$GPGSV,2,2,06,21,45,263,44,23,27,047,44,,,,,,,,,1*60
$GPRMC,000214.00,A,4852.4568605,N,00217.5716580,E,19.46,9.96,180502,0.0,E,A*0B
$GPGGA,000214.00,4852.4568605,N,00217.5716580,E,1,06,1.0,-11.555,M,0.000,M,0.0,*61
$GPGSA,A,3,01,08,10,16,21,23,,,,,,,2.2,1.3,1.8,1*29
$GPGSV,2,1,06,01,16,255,45,08,74,298,48,10,55,075,49,16,26,182,37,1*62
$GPGSV,2,2,06,21,45,263,49,23,27,047,40,,,,,,,,,1*69
$GPRMC,000215.00,A,4852.4609932,N,00217.5741988,E,6.40,23.98,180502,0.0,E,A*0D
$GPGGA,000215.00,4852.4609932,N,00217.5741988,E,1,06,1.0,-11.332,M,0.000,M,0.0,*6E
$GPGSA,A,3,01,08,10,16,21,23,,,,,,,2.2,1.3,1.8,1*29
$GPGSV,2,1,06,01,16,255,39,08,74,298,51,10,55,075,43,16,26,182,35,1*69
$GPGSV,2,2,06,21,45,263,44,23,27,047,36,,,,,,,,,1*65
$GPRMC,000216.00,A,4852.4628039,N,00217.5726329,E,3.16,6.54,180502,0.0,E,A*3E
$GPGGA,000216.00,4852.4628039,N,00217.5726329,E,1,06,1.0,-8.345,M,0.000,M,0.0,*54
$GPGSA,A,3,01,08,10,16,21,23,,,,,,,2.2,1.3,1.8,1*29
$GPGSV,2,1,06,01,16,255,37,08,74,298,50,10,55,075,42,16,26,182,35,1*67
$GPGSV,2,2,06,21,45,263,42,23,27,047,36,,,,,,,,,1*63
$GPRMC,000217.00,A,4852.4592100,N,00217.5713128,E,3.70,273.29,180502,0.0,E,A*39
$GPGGA,000217.00,4852.4592100,N,00217.5713128,E,1,06,1.0,1.404,M,0.000,M,0.0,*7F
$GPGSA,A,3,01,08,10,16,21,23,,,,,,,2.2,1.3,1.8,1*29
$GPGSV,2,1,06,01,16,255,40,08,74,298,54,10,55,075,46,16,26,182,38,1*6A
$GPGSV,2,2,06,21,45,263,46,23,27,047,39,,,,,,,,,1*68
$GPRMC,000218.00,A,4852.4622553,N,00217.5718831,E,1.19,273.29,180502,0.0,E,A*3B
$GPGGA,000218.00,4852.4622553,N,00217.5718831,E,1,06,1.0,-6.747,M,0.000,M,0.0,*5E
$GPGSA,A,3,01,08,10,16,21,23,,,,,,,2.2,1.3,1.8,1*29
$GPGSV,2,1,06,01,16,255,48,08,74,298,56,10,55,075,54,16,26,182,49,1*65
$GPGSV,2,2,06,21,45,263,51,23,27,047,48,,,,,,,,,1*68
$GPRMC,000219.00,A,4852.4618317,N,00217.5718212,E,0.44,273.29,180502,0.0,E,A*37
$GPGGA,000219.00,4852.4618317,N,00217.5718212,E,1,06,1.0,-7.451,M,0.000,M,0.0,*5E
$GPGSA,A,3,01,08,10,16,21,23,,,,,,,2.2,1.3,1.8,1*29
$GPGSV,2,1,06,01,16,255,49,08,74,298,56,10,55,075,53,16,26,182,52,1*69
$GPGSV,2,2,06,21,45,263,52,23,27,047,51,,,,,,,,,1*63
$GPRMC,000220.00,A,4852.4608370,N,00217.5720431,E,0.85,273.29,180502,0.0,E,A*3C
$GPGGA,000220.00,4852.4608370,N,00217.5720431,E,1,06,1.0,-4.506,M,0.000,M,0.0,*58
$GPGSA,A,3,01,08,10,16,21,23,,,,,,,2.2,1.3,1.8,1*29
$GPGSV,2,1,06,01,16,255,51,08,74,298,56,10,55,075,53,16,26,182,52,1*60
$GPGSV,2,2,06,21,45,263,54,23,27,047,50,,,,,,,,,1*64
$GPRMC,000221.00,A,4852.4632003,N,00217.5713587,E,1.27,273.29,180502,0.0,E,A*36
$GPGGA,000221.00,4852.4632003,N,00217.5713587,E,1,06,1.0,-5.943,M,0.000,M,0.0,*57
$GPGSA,A,3,01,08,10,16,21,23,,,,,,,2.2,1.3,1.8,1*29
$GPGSV,2,1,06,01,16,255,50,08,74,298,57,10,55,075,54,16,26,182,51,1*64
$GPGSV,2,2,06,21,45,263,55,23,27,047,51,,,,,,,,,1*64
$GPRMC,000222.00,A,4852.4625680,N,00217.5691443,E,0.78,273.29,180502,0.0,E,A*37
$GPGGA,000222.00,4852.4625680,N,00217.5691443,E,1,06,1.0,-2.071,M,0.000,M,0.0,*52
$GPGSA,A,3,01,08,10,16,21,23,,,,,,,2.2,1.3,1.8,1*29
$GPGSV,2,1,06,01,16,255,48,08,74,298,55,10,55,075,54,16,26,182,51,1*6F
$GPGSV,2,2,06,21,45,263,53,23,27,047,50,,,,,,,,,1*63
