$GPRMC,000030.00,A,4852.4662587,N,00217.5805414,E,1.19,0.00,180502,0.0,E,A*3B
$GPGGA,000030.00,4852.4662587,N,00217.5805414,E,1,06,1.0,-8.476,M,0.000,M,0.0,*5C
$GPGSA,A,3,01,08,10,16,21,23,,,,,,,2.2,1.3,1.8,1*29
$GPGSV,2,1,06,01,15,255,47,08,73,299,56,10,56,076,54,16,27,182,50,1*66
$GPGSV,2,2,06,21,45,263,53,23,28,048,50,,,,,,,,,1*63
$GPRMC,000031.00,A,4852.4660586,N,00217.5818123,E,0.53,0.00,180502,0.0,E,A*3B
$GPGGA,000031.00,4852.4660586,N,00217.5818123,E,1,06,1.0,-9.729,M,0.000,M,0.0,*5B
$GPGSA,A,3,01,08,10,16,21,23,,,,,,,2.2,1.3,1.8,1*29
$GPGSV,2,1,06,01,15,255,47,08,73,299,57,10,56,076,54,16,27,182,50,1*67
$GPGSV,2,2,06,21,45,263,54,23,28,048,50,,,,,,,,,1*64
$GPRMC,000032.00,A,4852.4666250,N,00217.5821019,E,1.28,0.00,180502,0.0,E,A*3D
$GPGGA,000032.00,4852.4666250,N,00217.5821019,E,1,06,1.0,-15.230,M,0.000,M,0.0,*60
$GPGSA,A,3,01,08,10,16,21,23,,,,,,,2.2,1.3,1.8,1*29
$GPGSV,2,1,06,01,15,255,48,08,73,299,57,10,56,076,54,16,27,182,50,1*68
$GPGSV,2,2,06,21,45,263,53,23,28,048,51,,,,,,,,,1*62
$GPRMC,000033.00,A,4852.4665591,N,00217.5806523,E,1.50,0.00,180502,0.0,E,A*33
$GPGGA,000033.00,4852.4665591,N,00217.5806523,E,1,06,1.0,-15.330,M,0.000,M,0.0,*60
$GPGSA,A,3,01,08,10,16,21,23,,,,,,,2.2,1.3,1.8,1*29
$GPGSV,2,1,06,01,15,255,48,08,73,299,56,10,56,076,54,16,27,182,49,1*61
$GPGSV,2,2,06,21,45,263,54,23,28,048,50,,,,,,,,,1*64
$GPRMC,000034.00,A,4852.4668928,N,00217.5813428,E,1.85,0.00,180502,0.0,E,A*31
$GPGGA,000034.00,4852.4668928,N,00217.5813428,E,1,06,1.0,-13.871,M,0.000,M,0.0,*62
$GPGSA,A,3,01,08,10,16,21,23,,,,,,,2.2,1.3,1.8,1*29
$GPGSV,2,1,06,01,15,255,48,08,73,299,56,10,56,076,54,16,27,182,50,1*69
$GPGSV,2,2,06,21,45,263,52,23,28,048,50,,,,,,,,,1*62
$GPRMC,000035.00,A,4852.4661282,N,00217.5808878,E,0.37,0.00,180502,0.0,E,A*39
$GPGGA,000035.00,4852.4661282,N,00217.5808878,E,1,06,1.0,-7.653,M,0.000,M,0.0,*59
$GPGSA,A,3,01,08,10,16,21,23,,,,,,,2.2,1.3,1.8,1*29
$GPGSV,2,1,06,01,15,255,47,08,73,299,58,10,56,076,57,16,27,182,50,1*6B
$GPGSV,2,2,06,21,45,263,52,23,27,048,51,,,,,,,,,1*6C
$GPRMC,000036.00,A,4852.4672758,N,00217.5796335,E,0.93,0.00,180502,0.0,E,A*3E
$GPGGA,000036.00,4852.4672758,N,00217.5796335,E,1,06,1.0,-8.349,M,0.000,M,0.0,*51
$GPGSA,A,3,01,08,10,16,21,23,,,,,,,2.2,1.3,1.8,1*29
$GPGSV,2,1,06,01,15,255,49,08,73,299,57,10,56,076,57,16,27,182,51,1*6B
$GPGSV,2,2,06,21,45,263,54,23,27,048,50,,,,,,,,,1*6B
$GPRMC,000037.00,A,4852.4677519,N,00217.5783636,E,0.60,0.00,180502,0.0,E,A*33
$GPGGA,000037.00,4852.4677519,N,00217.5783636,E,1,06,1.0,-2.654,M,0.000,M,0.0,*53
$GPGSA,A,3,01,08,10,16,21,23,,,,,,,2.2,1.3,1.8,1*29
$GPGSV,2,1,06,01,15,255,47,08,73,299,59,10,56,076,56,16,27,182,49,1*63
$GPGSV,2,2,06,21,45,263,53,23,27,048,50,,,,,,,,,1*6C
$GPRMC,000038.00,A,4852.4663915,N,00217.5801841,E,0.53,0.00,180502,0.0,E,A*32
$GPGGA,000038.00,4852.4663915,N,00217.5801841,E,1,06,1.0,-2.132,M,0.000,M,0.0,*55
$GPGSA,A,3,01,08,10,16,21,23,,,,,,,2.2,1.3,1.8,1*29
$GPGSV,2,1,06,01,15,255,48,08,73,299,55,10,56,076,55,16,27,182,50,1*6B
$GPGSV,2,2,06,21,45,263,53,23,27,048,50,,,,,,,,,1*6C
$GPRMC,000039.00,A,4852.4669137,N,00217.5808765,E,0.80,0.00,180502,0.0,E,A*3F
$GPGGA,000039.00,4852.4669137,N,00217.5808765,E,1,06,1.0,-7.794,M,0.000,M,0.0,*59
$GPGSA,A,3,01,08,10,16,21,23,,,,,,,2.2,1.3,1.8,1*29
$GPGSV,2,1,06,01,15,255,48,08,73,299,56,10,56,076,54,16,27,182,50,1*69
$GPGSV,2,2,06,21,45,263,52,23,27,048,52,,,,,,,,,1*6F
$GPRMC,000040.00,A,4852.4669737,N,00217.5787031,E,1.62,0.00,180502,0.0,E,A*34
$GPGGA,000040.00,4852.4669737,N,00217.5787031,E,1,06,1.0,-7.049,M,0.000,M,0.0,*58
$GPGSA,A,3,01,08,10,16,21,23,,,,,,,2.2,1.3,1.8,1*29
$GPGSV,2,1,06,01,15,255,48,08,73,299,57,10,56,076,55,16,27,182,50,1*69
$GPGSV,2,2,06,21,45,263,52,23,27,048,50,,,,,,,,,1*6D
$GPRMC,000041.00,A,4852.4665714,N,00217.5803576,E,0.52,0.00,180502,0.0,E,A*3F
$GPGGA,000041.00,4852.4665714,N,00217.5803576,E,1,06,1.0,-10.925,M,0.000,M,0.0,*64
$GPGSA,A,3,01,08,10,16,21,23,,,,,,,2.2,1.3,1.8,1*29
$GPGSV,2,1,06,01,15,255,47,08,73,299,55,10,56,076,54,16,27,182,50,1*65
$GPGSV,2,2,06,21,45,263,54,23,27,048,50,,,,,,,,,1*6B
$GPRMC,000042.00,A,4852.4658026,N,00217.5820874,E,0.85,0.00,180502,0.0,E,A*30
$GPGGA,000042.00,4852.4658026,N,00217.5820874,E,1,06,1.0,-14.026,M,0.000,M,0.0,*6F
$GPGSA,A,3,01,08,10,16,21,23,,,,,,,2.2,1.3,1.8,1*29
$GPGSV,2,1,06,01,15,255,49,08,73,299,57,10,56,076,54,16,27,182,50,1*69
$GPGSV,2,2,06,21,45,263,53,23,27,048,50,,,,,,,,,1*6C
$GPRMC,000043.00,A,4852.4667966,N,00217.5812372,E,0.96,0.00,180502,0.0,E,A*3E
$GPGGA,000043.00,4852.4667966,N,00217.5812372,E,1,06,1.0,-16.881,M,0.000,M,0.0,*64
$GPGSA,A,3,01,08,10,16,21,23,,,,,,,2.2,1.3,1.8,1*29
$GPGSV,2,1,06,01,15,255,47,08,73,299,56,10,56,076,54,16,27,182,48,1*6F
$GPGSV,2,2,06,21,45,263,54,23,27,048,52,,,,,,,,,1*69
$GPRMC,000044.00,A,4852.4663503,N,00217.5806360,E,0.68,0.00,180502,0.0,E,A*35
$GPGGA,000044.00,4852.4663503,N,00217.5806360,E,1,06,1.0,-13.122,M,0.000,M,0.0,*6B
$GPGSA,A,3,01,08,10,16,21,23,,,,,,,2.2,1.3,1.8,1*29
$GPGSV,2,1,06,01,15,255,49,08,73,299,58,10,56,076,56,16,27,182,48,1*6D
$GPGSV,2,2,06,21,45,263,52,23,27,048,51,,,,,,,,,1*6C
$GPRMC,000045.00,A,4852.4664017,N,00217.5802173,E,0.41,0.00,180502,0.0,E,A*3C
$GPGGA,000045.00,4852.4664017,N,00217.5802173,E,1,06,1.0,-10.377,M,0.000,M,0.0,*68
$GPGSA,A,3,01,08,10,16,21,23,,,,,,,2.2,1.3,1.8,1*29
$GPGSV,2,1,06,01,15,255,48,08,73,299,57,10,56,076,56,16,27,182,48,1*63
$GPGSV,2,2,06,21,45,263,52,23,27,048,50,,,,,,,,,1*6D
$GPRMC,000046.00,A,4852.4672168,N,00217.5808384,E,0.46,0.00,180502,0.0,E,A*36
$GPGGA,000046.00,4852.4672168,N,00217.5808384,E,1,06,1.0,-11.100,M,0.000,M,0.0,*66
$GPGSA,A,3,01,08,10,16,21,23,,,,,,,2.2,1.3,1.8,1*29
$GPGSV,2,1,06,01,15,255,49,08,73,299,55,10,56,076,56,16,27,182,48,1*60
$GPGSV,2,2,06,21,45,263,51,23,27,048,50,,,,,,,,,1*6E
$GPRMC,000047.00,A,4852.4662302,N,00217.5796696,E,1.55,0.00,180502,0.0,E,A*35
$GPGGA,000047.00,4852.4662302,N,00217.5796696,E,1,06,1.0,-4.163,M,0.000,M,0.0,*57
$GPGSA,A,3,01,08,10,16,21,23,,,,,,,2.2,1.3,1.8,1*29
$GPGSV,2,1,06,01,15,255,50,08,73,299,57,10,56,076,58,16,27,182,49,1*65
$GPGSV,2,2,06,21,45,263,52,23,27,048,52,,,,,,,,,1*6F
$GPRMC,000048.00,A,4852.4673163,N,00217.5779613,E,1.32,0.00,180502,0.0,E,A*32
$GPGGA,000048.00,4852.4673163,N,00217.5779613,E,1,06,1.0,-2.631,M,0.000,M,0.0,*57
$GPGSA,A,3,01,08,10,16,21,23,,,,,,,2.2,1.3,1.8,1*29
$GPGSV,2,1,06,01,15,255,50,08,73,299,57,10,56,076,55,16,27,182,50,1*60
$GPGSV,2,2,06,21,45,263,54,23,27,048,49,,,,,,,,,1*63
$GPRMC,000049.00,A,4852.4672517,N,00217.5791449,E,1.43,0.00,180502,0.0,E,A*38
$GPGGA,000049.00,4852.4672517,N,00217.5791449,E,1,06,1.0,-5.468,M,0.000,M,0.0,*52
$GPGSA,A,3,01,08,10,16,21,23,,,,,,,2.2,1.3,1.8,1*29
$GPGSV,2,1,06,01,15,255,49,08,73,299,57,10,56,076,54,16,27,182,49,1*61
$GPGSV,2,2,06,21,45,263,51,23,27,048,50,,,,,,,,,1*6E
$GPRMC,000050.00,A,4852.4658301,N,00217.5809952,E,1.13,0.00,180502,0.0,E,A*35
$GPGGA,000050.00,4852.4658301,N,00217.5809952,E,1,06,1.0,-6.844,M,0.000,M,0.0,*5B
$GPGSA,A,3,01,08,10,16,21,23,,,,,,,2.2,1.3,1.8,1*29
$GPGSV,2,1,06,01,15,255,49,08,73,299,56,10,56,076,55,16,27,182,51,1*68
$GPGSV,2,2,06,21,45,263,52,23,27,048,51,,,,,,,,,1*6C
$GPRMC,000051.00,A,4852.4671806,N,00217.5807560,E,1.18,0.00,180502,0.0,E,A*3B
$GPGGA,000051.00,4852.4671806,N,00217.5807560,E,1,06,1.0,-9.592,M,0.000,M,0.0,*57
$GPGSA,A,3,01,08,10,16,21,23,,,,,,,2.2,1.3,1.8,1*29
$GPGSV,2,1,06,01,15,255,49,08,73,299,57,10,56,076,55,16,27,182,52,1*6A
$GPGSV,2,2,06,21,45,263,54,23,27,048,53,,,,,,,,,1*68
$GPRMC,000052.00,A,4852.4667826,N,00217.5797377,E,1.97,136.97,180502,0.0,E,A*36
$GPGGA,000052.00,4852.4667826,N,00217.5797377,E,1,06,1.0,-10.170,M,0.000,M,0.0,*67
$GPGSA,A,3,01,08,10,16,21,23,,,,,,,2.2,1.3,1.8,1*29
$GPGSV,2,1,06,01,15,255,48,08,73,299,56,10,56,076,56,16,27,182,49,1*63
$GPGSV,2,2,06,21,45,263,54,23,27,048,51,,,,,,,,,1*6A
$GPRMC,000053.00,A,4852.4661884,N,00217.5818704,E,1.41,136.97,180502,0.0,E,A*3A
$GPGGA,000053.00,4852.4661884,N,00217.5818704,E,1,06,1.0,-15.901,M,0.000,M,0.0,*6B
$GPGSA,A,3,01,08,10,16,21,23,,,,,,,2.2,1.3,1.8,1*29
$GPGSV,2,1,06,01,15,255,48,08,73,299,57,10,56,076,56,16,27,182,49,1*62
$GPGSV,2,2,06,21,45,263,52,23,27,048,49,,,,,,,,,1*65
$GPRMC,000054.00,A,4852.4662717,N,00217.5830211,E,0.43,136.97,180502,0.0,E,A*33
$GPGGA,000054.00,4852.4662717,N,00217.5830211,E,1,06,1.0,-15.768,M,0.000,M,0.0,*60
$GPGSA,A,3,01,08,10,16,21,23,,,,,,,2.2,1.3,1.8,1*29
$GPGSV,2,1,06,01,15,255,49,08,73,299,57,10,56,076,55,16,27,182,50,1*68
$GPGSV,2,2,06,21,45,263,53,23,27,048,49,,,,,,,,,1*64
$GPRMC,000055.00,A,4852.4663742,N,00217.5810542,E,0.52,136.97,180502,0.0,E,A*30
$GPGGA,000055.00,4852.4663742,N,00217.5810542,E,1,06,1.0,-12.197,M,0.000,M,0.0,*62
$GPGSA,A,3,01,08,10,16,21,23,,,,,,,2.2,1.3,1.8,1*29
$GPGSV,2,1,06,01,15,255,49,08,73,299,59,10,56,076,58,16,27,182,51,1*6A
$GPGSV,2,2,06,21,45,263,52,23,27,048,50,,,,,,,,,1*6D
$GPRMC,000056.00,A,4852.4665044,N,00217.5808759,E,1.23,136.97,180502,0.0,E,A*32
$GPGGA,000056.00,4852.4665044,N,00217.5808759,E,1,06,1.0,-11.083,M,0.000,M,0.0,*60
$GPGSA,A,3,01,08,10,16,21,23,,,,,,,2.2,1.3,1.8,1*29
$GPGSV,2,1,06,01,15,255,48,08,73,299,58,10,56,076,56,16,27,182,48,1*6C
$GPGSV,2,2,06,21,45,263,54,23,27,048,50,,,,,,,,,1*6B
$GPRMC,000057.00,A,4852.4662574,N,00217.5814087,E,1.86,136.97,180502,0.0,E,A*34
$GPGGA,000057.00,4852.4662574,N,00217.5814087,E,1,06,1.0,-6.098,M,0.000,M,0.0,*55
$GPGSA,A,3,01,08,10,16,21,23,,,,,,,2.2,1.3,1.8,1*29
$GPGSV,2,1,06,01,16,255,50,08,73,299,57,10,56,076,55,16,27,182,50,1*63
$GPGSV,2,2,06,21,45,263,53,23,27,048,50,,,,,,,,,1*6C
$GPRMC,000058.00,A,4852.4667083,N,00217.5817033,E,1.12,136.97,180502,0.0,E,A*32
$GPGGA,000058.00,4852.4667083,N,00217.5817033,E,1,06,1.0,-5.203,M,0.000,M,0.0,*5D
$GPGSA,A,3,01,08,10,16,21,23,,,,,,,2.2,1.3,1.8,1*29
$GPGSV,2,1,06,01,16,255,48,08,73,299,57,10,56,076,56,16,27,182,51,1*68
$GPGSV,2,2,06,21,45,263,52,23,27,048,50,,,,,,,,,1*6D
$GPRMC,000059.00,A,4852.4667418,N,00217.5797483,E,0.89,136.97,180502,0.0,E,A*3E
$GPGGA,000059.00,4852.4667418,N,00217.5797483,E,1,06,1.0,-0.650,M,0.000,M,0.0,*55
$GPGSA,A,3,01,08,10,16,21,23,,,,,,,2.2,1.3,1.8,1*29
$GPGSV,2,1,06,01,16,255,50,08,73,299,57,10,56,076,57,16,26,182,52,1*62
$GPGSV,2,2,06,21,45,263,53,23,27,048,51,,,,,,,,,1*6D
$GPRMC,000100.00,A,4852.4668172,N,00217.5792646,E,0.66,136.97,180502,0.0,E,A*3A
$GPGGA,000100.00,4852.4668172,N,00217.5792646,E,1,06,1.0,0.255,M,0.000,M,0.0,*7C
$GPGSA,A,3,01,08,10,16,21,23,,,,,,,2.2,1.3,1.8,1*29
$GPGSV,2,1,06,01,16,255,49,08,73,299,56,10,56,076,57,16,26,182,50,1*69
$GPGSV,2,2,06,21,45,263,53,23,27,048,50,,,,,,,,,1*6C
$GPRMC,000101.00,A,4852.4665691,N,00217.5817054,E,0.63,136.97,180502,0.0,E,A*3E
$GPGGA,000101.00,4852.4665691,N,00217.5817054,E,1,06,1.0,-4.793,M,0.000,M,0.0,*5B
$GPGSA,A,3,01,08,10,16,21,23,,,,,,,2.2,1.3,1.8,1*29
$GPGSV,2,1,06,01,16,255,48,08,73,299,55,10,56,076,55,16,26,182,50,1*69
$GPGSV,2,2,06,21,45,263,52,23,27,048,51,,,,,,,,,1*6C
$GPRMC,000102.00,A,4852.4655889,N,00217.5811230,E,0.55,136.97,180502,0.0,E,A*3A
$GPGGA,000102.00,4852.4655889,N,00217.5811230,E,1,06,1.0,-5.524,M,0.000,M,0.0,*55
$GPGSA,A,3,01,08,10,16,21,23,,,,,,,2.2,1.3,1.8,1*29
$GPGSV,2,1,06,01,16,255,49,08,73,299,56,10,56,076,55,16,26,182,49,1*63
$GPGSV,2,2,06,21,45,263,53,23,27,048,50,,,,,,,,,1*6C
$GPRMC,000103.00,A,4852.4671135,N,00217.5809621,E,1.54,136.97,180502,0.0,E,A*3E
$GPGGA,000103.00,4852.4671135,N,00217.5809621,E,1,06,1.0,-8.962,M,0.000,M,0.0,*52
$GPGSA,A,3,01,08,10,16,21,23,,,,,,,2.2,1.3,1.8,1*29
$GPGSV,2,1,06,01,16,255,48,08,73,299,56,10,56,076,56,16,26,182,50,1*69
$GPGSV,2,2,06,21,45,263,53,23,27,048,51,,,,,,,,,1*6D
$GPRMC,000104.00,A,4852.4663696,N,00217.5814615,E,1.60,136.97,180502,0.0,E,A*38
$GPGGA,000104.00,4852.4663696,N,00217.5814615,E,1,06,1.0,-9.880,M,0.000,M,0.0,*5F
$GPGSA,A,3,01,08,10,16,21,23,,,,,,,2.2,1.3,1.8,1*29
$GPGSV,2,1,06,01,16,255,47,08,73,299,58,10,56,076,56,16,26,182,50,1*68
$GPGSV,2,2,06,21,45,263,54,23,27,048,50,,,,,,,,,1*6B
$GPRMC,000105.00,A,4852.4656530,N,00217.5829002,E,2.02,353.12,180502,0.0,E,A*35
$GPGGA,000105.00,4852.4656530,N,00217.5829002,E,1,06,1.0,-13.285,M,0.000,M,0.0,*6D
$GPGSA,A,3,01,08,10,16,21,23,,,,,,,2.2,1.3,1.8,1*29
$GPGSV,2,1,06,01,16,255,48,08,73,299,58,10,56,076,55,16,26,182,50,1*64
$GPGSV,2,2,06,21,45,263,53,23,27,048,50,,,,,,,,,1*6C
$GPRMC,000106.00,A,4852.4668654,N,00217.5825835,E,1.16,353.12,180502,0.0,E,A*3C
$GPGGA,000106.00,4852.4668654,N,00217.5825835,E,1,06,1.0,-18.063,M,0.000,M,0.0,*63
$GPGSA,A,3,01,08,10,16,21,23,,,,,,,2.2,1.3,1.8,1*29
$GPGSV,2,1,06,01,16,255,48,08,73,299,56,10,56,076,55,16,26,182,51,1*6B
$GPGSV,2,2,06,21,45,263,53,23,27,048,50,,,,,,,,,1*6C
$GPRMC,000107.00,A,4852.4662301,N,00217.5809533,E,0.88,353.12,180502,0.0,E,A*31
$GPGGA,000107.00,4852.4662301,N,00217.5809533,E,1,06,1.0,-11.615,M,0.000,M,0.0,*66
$GPGSA,A,3,01,08,10,16,21,23,,,,,,,2.2,1.3,1.8,1*29
$GPGSV,2,1,06,01,16,255,47,08,73,299,56,10,56,076,54,16,26,182,50,1*64
$GPGSV,2,2,06,21,45,263,51,23,27,048,51,,,,,,,,,1*6F
$GPRMC,000108.00,A,4852.4656825,N,00217.5826697,E,9.92,112.69,180502,0.0,E,A*3D
$GPGGA,000108.00,4852.4656825,N,00217.5826697,E,1,06,1.0,-11.774,M,0.000,M,0.0,*65
$GPGSA,A,3,01,08,10,16,21,23,,,,,,,2.2,1.3,1.8,1*29
$GPGSV,2,1,06,01,16,255,46,08,73,299,57,10,56,076,55,16,26,182,51,1*64
$GPGSV,2,2,06,21,45,263,51,23,27,048,52,,,,,,,,,1*6C
$GPRMC,000109.00,A,4852.4644497,N,00217.5890462,E,20.22,115.99,180502,0.0,E,A*07
$GPGGA,000109.00,4852.4644497,N,00217.5890462,E,1,06,1.0,-9.611,M,0.000,M,0.0,*5C
$GPGSA,A,3,01,08,10,16,21,23,,,,,,,2.2,1.3,1.8,1*29
$GPGSV,2,1,06,01,16,255,39,08,73,299,59,10,56,076,52,16,26,182,51,1*65
$GPGSV,2,2,06,21,45,263,46,23,27,048,54,,,,,,,,,1*6C
$GPRMC,000110.00,A,4852.4597314,N,00217.5990959,E,29.07,117.06,180502,0.0,E,A*00
$GPGGA,000110.00,4852.4597314,N,00217.5990959,E,1,06,1.0,-8.915,M,0.000,M,0.0,*5B
$GPGSA,A,3,01,08,10,16,21,23,,,,,,,2.2,1.3,1.8,1*29
$GPGSV,2,1,06,01,16,255,50,08,73,299,57,10,56,076,47,16,26,182,43,1*63
$GPGSV,2,2,06,21,45,263,52,23,27,048,46,,,,,,,,,1*6A
$GPRMC,000111.00,A,4852.4575192,N,00217.6101642,E,31.28,115.32,180502,0.0,E,A*06
$GPGGA,000111.00,4852.4575192,N,00217.6101642,E,1,06,1.0,-9.418,M,0.000,M,0.0,*5D
$GPGSA,A,3,01,08,10,16,21,23,,,,,,,2.2,1.3,1.8,1*29
$GPGSV,2,1,06,01,16,255,53,08,73,299,49,10,56,076,54,16,26,182,41,1*6F
$GPGSV,2,2,06,21,45,263,59,23,27,048,40,,,,,,,,,1*67
$GPRMC,000112.00,A,4852.4548925,N,00217.6203131,E,32.75,115.69,180502,0.0,E,A*08
$GPGGA,000112.00,4852.4548925,N,00217.6203131,E,1,06,1.0,-5.124,M,0.000,M,0.0,*50
$GPGSA,A,3,01,08,10,16,21,23,,,,,,,2.2,1.3,1.8,1*29
$GPGSV,2,1,06,01,16,255,50,08,73,299,46,10,56,076,57,16,26,182,48,1*69
$GPGSV,2,2,06,21,45,263,59,23,27,048,48,,,,,,,,,1*6F
$GPRMC,000113.00,A,4852.4498496,N,00217.6335658,E,31.41,115.14,180502,0.0,E,A*02
$GPGGA,000113.00,4852.4498496,N,00217.6335658,E,1,06,1.0,-4.307,M,0.000,M,0.0,*56
$GPGSA,A,3,01,08,10,16,21,23,,,,,,,2.2,1.3,1.8,1*29
$GPGSV,2,1,06,01,16,255,47,08,73,299,48,10,56,076,55,16,26,182,48,1*63
$GPGSV,2,2,06,21,45,263,53,23,27,048,48,,,,,,,,,1*65
$GPRMC,000114.00,A,4852.4451038,N,00217.6445036,E,23.11,109.65,180502,0.0,E,A*03
$GPGGA,000114.00,4852.4451038,N,00217.6445036,E,1,06,1.0,1.196,M,0.000,M,0.0,*78
$GPGSA,A,3,01,08,10,16,21,23,,,,,,,2.2,1.3,1.8,1*29
$GPGSV,2,1,06,01,16,255,44,08,73,299,44,10,56,076,51,16,26,182,44,1*64
$GPGSV,2,2,06,21,45,263,48,23,27,048,43,,,,,,,,,1*64
$GPRMC,000115.00,A,4852.4465010,N,00217.6524697,E,13.52,111.23,180502,0.0,E,A*0B
$GPGGA,000115.00,4852.4465010,N,00217.6524697,E,1,06,1.0,-11.989,M,0.000,M,0.0,*65
$GPGSA,A,3,01,08,10,16,21,23,,,,,,,2.2,1.3,1.8,1*29
$GPGSV,2,1,06,01,16,255,39,08,73,299,44,10,56,076,45,16,26,182,38,1*60
$GPGSV,2,2,06,21,45,263,44,23,27,048,38,,,,,,,,,1*64
$GPRMC,000116.00,A,4852.4454649,N,00217.6563004,E,10.73,116.13,180502,0.0,E,A*0B
$GPGGA,000116.00,4852.4454649,N,00217.6563004,E,1,06,1.0,-9.089,M,0.000,M,0.0,*51
$GPGSA,A,3,01,08,10,16,21,23,,,,,,,2.2,1.3,1.8,1*29
$GPGSV,2,1,06,01,16,255,36,08,73,298,45,10,56,076,41,16,26,182,36,1*65
$GPGSV,2,2,06,21,45,263,40,23,27,048,36,,,,,,,,,1*6E
$GPRMC,000117.00,A,4852.4463007,N,00217.6625314,E,13.71,105.50,180502,0.0,E,A*05
$GPGGA,000117.00,4852.4463007,N,00217.6625314,E,1,06,1.0,-4.054,M,0.000,M,0.0,*56
$GPGSA,A,3,01,08,10,16,21,23,,,,,,,2.2,1.3,1.8,1*29
$GPGSV,2,1,06,01,16,255,34,08,73,298,57,10,56,076,36,16,26,182,34,1*66
$GPGSV,2,2,06,21,45,263,36,23,27,048,34,,,,,,,,,1*6D
$GPRMC,000118.00,A,4852.4516886,N,00217.6699878,E,22.62,109.01,180502,0.0,E,A*06
$GPGGA,000118.00,4852.4516886,N,00217.6699878,E,1,06,1.0,-11.209,M,0.000,M,0.0,*63
$GPGSA,A,3,01,08,10,16,21,23,,,,,,,2.2,1.3,1.8,1*29
$GPGSV,2,1,06,01,16,255,34,08,73,298,54,10,56,076,34,16,26,182,34,1*67
$GPGSV,2,2,06,21,45,263,34,23,27,048,34,,,,,,,,,1*6F
$GPRMC,000119.00,A,4852.4499316,N,00217.6835053,E,23.37,109.07,180502,0.0,E,A*0D
$GPGGA,000119.00,4852.4499316,N,00217.6835053,E,1,06,1.0,-5.482,M,0.000,M,0.0,*5F
$GPGSA,A,3,01,08,10,16,21,23,,,,,,,2.2,1.3,1.8,1*29
$GPGSV,2,1,06,01,16,255,34,08,74,298,50,10,56,076,34,16,26,182,34,1*64
$GPGSV,2,2,06,21,45,263,34,23,27,048,35,,,,,,,,,1*6E
$GPRMC,000120.00,A,4852.4508292,N,00217.6904861,E,16.24,121.27,180502,0.0,E,A*05
$GPGGA,000120.00,4852.4508292,N,00217.6904861,E,1,06,1.0,-10.496,M,0.000,M,0.0,*6A
$GPGSA,A,3,01,08,10,16,21,23,,,,,,,2.2,1.3,1.8,1*29
$GPGSV,2,1,06,01,16,255,35,08,74,298,53,10,56,076,35,16,26,182,35,1*66
$GPGSV,2,2,06,21,45,263,35,23,27,048,35,,,,,,,,,1*6F
$GPRMC,000121.00,A,4852.4501500,N,00217.6944831,E,25.41,126.07,180502,0.0,E,A*06
$GPGGA,000121.00,4852.4501500,N,00217.6944831,E,1,06,1.0,-12.629,M,0.000,M,0.0,*6B
$GPGSA,A,3,01,08,10,16,21,23,,,,,,,2.2,1.3,1.8,1*29
$GPGSV,2,1,06,01,16,255,35,08,74,298,54,10,56,076,37,16,26,182,35,1*63
$GPGSV,2,2,06,21,45,263,37,23,27,048,35,,,,,,,,,1*6D
$GPRMC,000122.00,A,4852.4504913,N,00217.7026302,E,21.60,93.57,180502,0.0,E,A*34
$GPGGA,000122.00,4852.4504913,N,00217.7026302,E,1,05,1.0,-16.792,M,0.000,M,0.0,*62
$GPGSA,A,3,01,08,16,21,23,,,,,,,,2.4,1.4,1.9,1*28
$GPGSV,2,1,05,01,16,255,35,08,74,298,52,16,26,182,35,21,45,263,37,1*60
$GPGSV,2,2,05,23,27,048,35,,,,,,,,,,,,,1*5F
$GPRMC,000123.00,A,4852.4504612,N,00217.7130152,E,19.66,112.90,180502,0.0,E,A*04
$GPGGA,000123.00,4852.4504612,N,00217.7130152,E,1,05,1.0,-30.984,M,0.000,M,0.0,*61
$GPGSA,A,3,01,08,16,21,23,,,,,,,,2.4,1.4,1.9,1*28
$GPGSV,2,1,05,01,16,255,37,08,74,298,50,16,26,182,37,21,45,263,40,1*62
$GPGSV,2,2,05,23,27,048,38,,,,,,,,,,,,,1*52
$GPRMC,000124.00,A,4852.4427907,N,00217.7222423,E,19.92,111.74,180502,0.0,E,A*09
$GPGGA,000124.00,4852.4427907,N,00217.7222423,E,1,05,1.0,-23.987,M,0.000,M,0.0,*6F
$GPGSA,A,3,01,08,16,21,23,,,,,,,,2.4,1.4,1.9,1*28
$GPGSV,2,1,05,01,16,255,42,08,74,298,46,16,26,182,44,21,45,263,46,1*65
$GPGSV,2,2,05,23,27,048,43,,,,,,,,,,,,,1*5E
$GPRMC,000125.00,A,4852.4355114,N,00217.7347213,E,19.73,123.37,180502,0.0,E,A*0E
$GPGGA,000125.00,4852.4355114,N,00217.7347213,E,1,05,1.0,-2.072,M,0.000,M,0.0,*51
$GPGSA,A,3,01,08,16,21,23,,,,,,,,2.4,1.4,1.9,1*28
$GPGSV,2,1,05,01,16,255,46,08,74,298,52,16,26,182,44,21,45,263,52,1*61
$GPGSV,2,2,05,23,27,048,46,,,,,,,,,,,,,1*5B
$GPRMC,000126.00,A,4852.4413582,N,00217.7359385,E,16.01,130.78,180502,0.0,E,A*01
$GPGGA,000126.00,4852.4413582,N,00217.7359385,E,1,05,1.0,-24.660,M,0.000,M,0.0,*6C
$GPGSA,A,3,01,08,16,21,23,,,,,,,,2.4,1.4,1.9,1*28
$GPGSV,2,1,05,01,16,255,40,08,74,298,52,16,26,182,40,21,45,263,44,1*64
$GPGSV,2,2,05,23,27,048,40,,,,,,,,,,,,,1*5D
$GPRMC,000127.00,A,4852.4355773,N,00217.7336639,E,15.47,142.56,180502,0.0,E,A*0A
$GPGGA,000127.00,4852.4355773,N,00217.7336639,E,1,05,1.0,-10.171,M,0.000,M,0.0,*6F
$GPGSA,A,3,01,08,16,21,23,,,,,,,,2.4,1.4,1.9,1*28
$GPGSV,2,1,05,01,16,255,36,08,74,298,49,16,26,182,38,21,45,263,38,1*6B
$GPGSV,2,2,05,23,27,048,36,,,,,,,,,,,,,1*5C
$GPRMC,000128.00,A,4852.4320456,N,00217.7398499,E,19.34,165.59,180502,0.0,E,A*0D
$GPGGA,000128.00,4852.4320456,N,00217.7398499,E,1,05,1.0,-8.383,M,0.000,M,0.0,*5C
$GPGSA,A,3,01,08,16,21,23,,,,,,,,2.4,1.4,1.9,1*28
$GPGSV,2,1,05,01,16,255,35,08,74,298,51,16,26,182,36,21,45,263,37,1*60
$GPGSV,2,2,05,23,27,048,35,,,,,,,,,,,,,1*5F
$GPRMC,000129.00,A,4852.4310013,N,00217.7441795,E,25.69,161.57,180502,0.0,E,A*0B
$GPGGA,000129.00,4852.4310013,N,00217.7441795,E,1,05,1.0,-10.764,M,0.000,M,0.0,*63
$GPGSA,A,3,01,08,16,21,23,,,,,,,,2.4,1.4,1.9,1*28
$GPGSV,2,1,05,01,16,255,35,08,74,298,45,16,26,182,35,21,45,263,36,1*67
$GPGSV,2,2,05,23,27,048,35,,,,,,,,,,,,,1*5F
$GPRMC,000130.00,A,4852.4225757,N,00217.7513944,E,19.96,159.48,180502,0.0,E,A*0D
$GPGGA,000130.00,4852.4225757,N,00217.7513944,E,1,04,1.0,5.046,M,0.000,M,0.0,*70
$GPGSA,A,3,08,16,21,23,,,,,,,,,4.3,2.1,3.7,1*22
$GPGSV,1,1,04,08,74,298,42,16,26,182,35,21,45,263,35,23,27,048,35,1*6D
$GPRMC,000131.00,A,4852.4188765,N,00217.7513535,E,21.84,173.48,180502,0.0,E,A*03
$GPGGA,000131.00,4852.4188765,N,00217.7513535,E,1,04,1.0,7.891,M,0.000,M,0.0,*7E
$GPGSA,A,3,08,16,21,23,,,,,,,,,4.3,2.1,3.7,1*22
$GPGSV,1,1,04,08,74,298,56,16,26,182,35,21,45,263,34,23,27,048,34,1*68
$GPRMC,000132.00,A,4852.4187103,N,00217.7556447,E,8.15,183.75,180502,0.0,E,A*3E
$GPGGA,000132.00,4852.4187103,N,00217.7556447,E,1,04,1.0,6.108,M,0.000,M,0.0,*79
$GPGSA,A,3,08,16,21,23,,,,,,,,,4.3,2.1,3.7,1*22
$GPGSV,1,1,04,08,74,298,52,16,26,182,34,21,45,263,35,23,27,048,34,1*6C
$GPRMC,000206.00,A,4852.3902404,N,00217.5728788,E,31.52,343.36,180502,0.0,E,A*03
$GPGGA,000206.00,4852.3902404,N,00217.5728788,E,1,05,1.0,7.949,M,0.000,M,0.0,*79
$GPGSA,A,3,01,08,10,16,27,,,,,,,,3.7,2.1,3.0,1*21
$GPGSV,2,1,05,01,16,255,40,08,74,298,52,10,55,075,46,16,26,182,44,1*64
$GPGSV,2,2,05,27,69,121,52,,,,,,,,,,,,,1*5E
$GPRMC,000207.00,A,4852.3958454,N,00217.5754378,E,32.19,337.77,180502,0.0,E,A*02
$GPGGA,000207.00,4852.3958454,N,00217.5754378,E,1,05,1.0,-1.079,M,0.000,M,0.0,*53
$GPGSA,A,3,01,08,10,16,27,,,,,,,,3.7,2.1,3.0,1*21
$GPGSV,2,1,05,01,16,255,41,08,74,298,54,10,55,075,46,16,26,182,46,1*61
$GPGSV,2,2,05,27,69,121,52,,,,,,,,,,,,,1*5E
$GPRMC,000208.00,A,4852.4103191,N,00217.5685789,E,37.94,349.92,180502,0.0,E,A*05
$GPGGA,000208.00,4852.4103191,N,00217.5685789,E,1,05,1.0,-0.185,M,0.000,M,0.0,*55
$GPGSA,A,3,01,08,10,16,27,,,,,,,,3.7,2.1,3.0,1*21
$GPGSV,2,1,05,01,16,255,39,08,74,298,50,10,55,075,44,16,26,182,46,1*68
$GPGSV,2,2,05,27,69,121,51,,,,,,,,,,,,,1*5D
$GPRMC,000209.00,A,4852.4132861,N,00217.5709985,E,32.34,351.58,180502,0.0,E,A*07
$GPGGA,000209.00,4852.4132861,N,00217.5709985,E,1,05,1.0,-9.139,M,0.000,M,0.0,*59
$GPGSA,A,3,01,08,10,16,27,,,,,,,,3.7,2.1,3.0,1*21
$GPGSV,2,1,05,01,16,255,40,08,74,298,53,10,55,075,45,16,26,182,46,1*64
$GPGSV,2,2,05,27,69,121,51,,,,,,,,,,,,,1*5D
$GPRMC,000210.00,A,4852.4247007,N,00217.5675541,E,29.86,353.56,180502,0.0,E,A*07
$GPGGA,000210.00,4852.4247007,N,00217.5675541,E,1,05,1.0,-16.789,M,0.000,M,0.0,*65
$GPGSA,A,3,01,08,10,16,27,,,,,,,,3.7,2.1,3.0,1*21
$GPGSV,2,1,05,01,16,255,40,08,74,298,52,10,55,075,45,16,26,182,46,1*65
$GPGSV,2,2,05,27,69,121,51,,,,,,,,,,,,,1*5D
$GPRMC,000211.00,A,4852.4383316,N,00217.5665015,E,33.19,0.24,180502,0.0,E,A*04
$GPGGA,000211.00,4852.4383316,N,00217.5665015,E,1,05,1.0,-17.850,M,0.000,M,0.0,*61
$GPGSA,A,3,01,08,10,16,27,,,,,,,,3.7,2.1,3.0,1*21
$GPGSV,2,1,05,01,16,255,38,08,74,298,49,10,55,075,43,16,26,182,45,1*65
$GPGSV,2,2,05,27,69,121,49,,,,,,,,,,,,,1*54
$GPRMC,000212.00,A,4852.4387051,N,00217.5700799,E,35.81,6.42,180502,0.0,E,A*03
$GPGGA,000212.00,4852.4387051,N,00217.5700799,E,1,05,1.0,-22.156,M,0.000,M,0.0,*6E
$GPGSA,A,3,01,08,10,16,27,,,,,,,,3.7,2.1,3.0,1*21
$GPGSV,2,1,05,01,16,255,38,08,74,298,48,10,55,075,43,16,26,182,46,1*67
$GPGSV,2,2,05,27,69,121,48,,,,,,,,,,,,,1*55
$GPRMC,000213.00,A,4852.4541912,N,00217.5702844,E,26.10,10.05,180502,0.0,E,A*33
$GPGGA,000213.00,4852.4541912,N,00217.5702844,E,1,05,1.0,-18.571,M,0.000,M,0.0,*68
$GPGSA,A,3,01,08,10,16,27,,,,,,,,3.7,2.1,3.0,1*21
$GPGSV,2,1,05,01,16,255,39,08,74,298,46,10,55,075,44,16,26,182,42,1*6B
$GPGSV,2,2,05,27,69,121,45,,,,,,,,,,,,,1*58
$GPRMC,000214.00,A,4852.4561766,N,00217.5727654,E,22.89,12.69,180502,0.0,E,A*3F
$GPGGA,000214.00,4852.4561766,N,00217.5727654,E,1,05,1.0,-9.653,M,0.000,M,0.0,*5B
$GPGSA,A,3,01,08,10,16,27,,,,,,,,3.7,2.1,3.0,1*21
$GPGSV,2,1,05,01,16,255,44,08,74,298,46,10,55,075,48,16,26,182,36,1*6E
$GPGSV,2,2,05,27,69,121,44,,,,,,,,,,,,,1*59
$GPRMC,000215.00,A,4852.4624677,N,00217.5745487,E,3.89,58.62,180502,0.0,E,A*03
$GPGGA,000215.00,4852.4624677,N,00217.5745487,E,1,05,1.0,-15.311,M,0.000,M,0.0,*6F
$GPGSA,A,3,01,08,10,16,27,,,,,,,,3.7,2.1,3.0,1*21
$GPGSV,2,1,05,01,16,255,38,08,74,298,50,10,55,075,42,16,26,182,34,1*6A
$GPGSV,2,2,05,27,69,121,47,,,,,,,,,,,,,1*5A
$GPRMC,000216.00,A,4852.4646961,N,00217.5726157,E,2.83,45.00,180502,0.0,E,A*02
$GPGGA,000216.00,4852.4646961,N,00217.5726157,E,1,05,1.0,-12.989,M,0.000,M,0.0,*61
$GPGSA,A,3,01,08,10,16,27,,,,,,,,3.7,2.1,3.0,1*21
$GPGSV,2,1,05,01,16,255,36,08,74,298,50,10,55,075,40,16,26,182,34,1*66
$GPGSV,2,2,05,27,69,121,49,,,,,,,,,,,,,1*54
$GPRMC,000217.00,A,4852.4636758,N,00217.5735740,E,6.14,333.13,180502,0.0,E,A*38
$GPGGA,000217.00,4852.4636758,N,00217.5735740,E,1,05,1.0,-14.099,M,0.000,M,0.0,*6F
$GPGSA,A,3,01,08,10,16,27,,,,,,,,3.7,2.1,3.0,1*21
$GPGSV,2,1,05,01,16,255,40,08,74,298,53,10,55,075,46,16,26,182,37,1*61
$GPGSV,2,2,05,27,69,121,54,,,,,,,,,,,,,1*58
$GPRMC,000218.00,A,4852.4614717,N,00217.5729441,E,1.55,333.13,180502,0.0,E,A*31
$GPGGA,000218.00,4852.4614717,N,00217.5729441,E,1,04,1.0,-4.322,M,0.000,M,0.0,*57
$GPGSA,A,3,08,10,16,27,,,,,,,,,6.4,3.3,5.4,1*27
$GPGSV,1,1,04,08,74,298,56,10,55,075,54,16,26,182,48,27,69,121,54,1*64
$GPRMC,000219.00,A,4852.4577644,N,00217.5747307,E,1.66,333.13,180502,0.0,E,A*3C
$GPGGA,000219.00,4852.4577644,N,00217.5747307,E,1,04,1.0,11.342,M,0.000,M,0.0,*45
$GPGSA,A,3,08,10,16,27,,,,,,,,,6.4,3.3,5.4,1*27
$GPGSV,1,1,04,08,74,298,56,10,55,075,53,16,26,182,52,27,69,121,52,1*6E
$GPRMC,000220.00,A,4852.4595654,N,00217.5706661,E,0.47,333.13,180502,0.0,E,A*39
$GPGGA,000220.00,4852.4595654,N,00217.5706661,E,1,04,1.0,4.187,M,0.000,M,0.0,*7D
$GPGSA,A,3,08,10,16,27,,,,,,,,,6.4,3.3,5.4,1*27
$GPGSV,1,1,04,08,74,298,56,10,55,075,52,16,26,182,52,27,69,121,50,1*6D
$GPRMC,000221.00,A,4852.4647249,N,00217.5656267,E,11.04,350.39,180502,0.0,E,A*00
$GPGGA,000221.00,4852.4647249,N,00217.5656267,E,1,04,1.0,-11.073,M,0.000,M,0.0,*6D
$GPGSA,A,3,08,10,16,27,,,,,,,,,6.4,3.3,5.4,1*27
$GPGSV,1,1,04,08,74,298,57,10,55,075,54,16,26,182,51,27,69,121,52,1*6B
$GPRMC,000222.00,A,4852.4663826,N,00217.5638247,E,1.03,350.39,180502,0.0,E,A*3A
$GPGGA,000222.00,4852.4663826,N,00217.5638247,E,1,04,1.0,-16.789,M,0.000,M,0.0,*64
$GPGSA,A,3,08,10,16,27,,,,,,,,,6.4,3.3,5.4,1*27
$GPGSV,1,1,04,08,74,298,55,10,55,075,54,16,26,182,51,27,69,121,53,1*68
