$GPRMC,000030.00,A,4852.4662587,N,00217.5805414,E,1.20,0.00,180502,0.0,E,A*31
$GPGGA,000030.00,4852.4662587,N,00217.5805414,E,1,06,1.0,-8.476,M,0.000,M,0.0,*5C
$GPGSA,A,3,01,08,10,16,21,23,,,,,,,2.2,1.3,1.8,1*29
$GPGSV,2,1,06,01,15,255,47,08,73,299,56,10,56,076,54,16,27,182,50,1*66
$GPGSV,2,2,06,21,45,263,53,23,28,048,50,,,,,,,,,1*63
$GPRMC,000031.00,A,4852.4660620,N,00217.5818019,E,0.53,0.00,180502,0.0,E,A*3C
$GPGGA,000031.00,4852.4660620,N,00217.5818019,E,1,06,1.0,-9.754,M,0.000,M,0.0,*56
$GPGSA,A,3,01,08,10,16,21,23,,,,,,,2.2,1.3,1.8,1*29
$GPGSV,2,1,06,01,15,255,47,08,73,299,57,10,56,076,54,16,27,182,50,1*67
$GPGSV,2,2,06,21,45,263,54,23,28,048,50,,,,,,,,,1*64
$GPRMC,000032.00,A,4852.4666240,N,00217.5821050,E,1.28,0.00,180502,0.0,E,A*31
$GPGGA,000032.00,4852.4666240,N,00217.5821050,E,1,06,1.0,-15.250,M,0.000,M,0.0,*6A
$GPGSA,A,3,01,08,10,16,21,23,,,,,,,2.2,1.3,1.8,1*29
$GPGSV,2,1,06,01,15,255,48,08,73,299,57,10,56,076,54,16,27,182,50,1*68
$GPGSV,2,2,06,21,45,263,53,23,28,048,51,,,,,,,,,1*62
$GPRMC,000033.00,A,4852.4665595,N,00217.5806498,E,1.51,0.00,180502,0.0,E,A*37
$GPGGA,000033.00,4852.4665595,N,00217.5806498,E,1,06,1.0,-15.360,M,0.000,M,0.0,*60
$GPGSA,A,3,01,08,10,16,21,23,,,,,,,2.2,1.3,1.8,1*29
$GPGSV,2,1,06,01,15,255,48,08,73,299,56,10,56,076,54,16,27,182,49,1*61
$GPGSV,2,2,06,21,45,263,54,23,28,048,50,,,,,,,,,1*64
$GPRMC,000034.00,A,4852.4668944,N,00217.5813408,E,1.84,0.00,180502,0.0,E,A*38
$GPGGA,000034.00,4852.4668944,N,00217.5813408,E,1,06,1.0,-13.871,M,0.000,M,0.0,*6A
$GPGSA,A,3,01,08,10,16,21,23,,,,,,,2.2,1.3,1.8,1*29
$GPGSV,2,1,06,01,15,255,48,08,73,299,56,10,56,076,54,16,27,182,50,1*69
$GPGSV,2,2,06,21,45,263,52,23,28,048,50,,,,,,,,,1*62
$GPRMC,000035.00,A,4852.4661330,N,00217.5808750,E,0.37,0.00,180502,0.0,E,A*34
$GPGGA,000035.00,4852.4661330,N,00217.5808750,E,1,06,1.0,-7.663,M,0.000,M,0.0,*57
$GPGSA,A,3,01,08,10,16,21,23,,,,,,,2.2,1.3,1.8,1*29
$GPGSV,2,1,06,01,15,255,47,08,73,299,58,10,56,076,57,16,27,182,50,1*6B
$GPGSV,2,2,06,21,45,263,52,23,27,048,51,,,,,,,,,1*6C
$GPRMC,000036.00,A,4852.4672754,N,00217.5796360,E,0.93,0.00,180502,0.0,E,A*32
$GPGGA,000036.00,4852.4672754,N,00217.5796360,E,1,06,1.0,-8.319,M,0.000,M,0.0,*58
$GPGSA,A,3,01,08,10,16,21,23,,,,,,,2.2,1.3,1.8,1*29
$GPGSV,2,1,06,01,15,255,49,08,73,299,57,10,56,076,57,16,27,182,51,1*6B
$GPGSV,2,2,06,21,45,263,54,23,27,048,50,,,,,,,,,1*6B
$GPRMC,000037.00,A,4852.4677461,N,00217.5783590,E,0.60,0.00,180502,0.0,E,A*32
$GPGGA,000037.00,4852.4677461,N,00217.5783590,E,1,06,1.0,-2.616,M,0.000,M,0.0,*54
$GPGSA,A,3,01,08,10,16,21,23,,,,,,,2.2,1.3,1.8,1*29
$GPGSV,2,1,06,01,15,255,47,08,73,299,59,10,56,076,56,16,27,182,49,1*63
$GPGSV,2,2,06,21,45,263,53,23,27,048,50,,,,,,,,,1*6C
$GPRMC,000038.00,A,4852.4664009,N,00217.5801735,E,0.53,0.00,180502,0.0,E,A*3D
$GPGGA,000038.00,4852.4664009,N,00217.5801735,E,1,06,1.0,-2.124,M,0.000,M,0.0,*5D
$GPGSA,A,3,01,08,10,16,21,23,,,,,,,2.2,1.3,1.8,1*29
$GPGSV,2,1,06,01,15,255,48,08,73,299,54,10,56,076,55,16,27,182,50,1*6A
$GPGSV,2,2,06,21,45,263,53,23,27,048,50,,,,,,,,,1*6C
$GPRMC,000039.00,A,4852.4669109,N,00217.5808847,E,0.79,0.00,180502,0.0,E,A*3B
$GPGGA,000039.00,4852.4669109,N,00217.5808847,E,1,06,1.0,-7.814,M,0.000,M,0.0,*5C
$GPGSA,A,3,01,08,10,16,21,23,,,,,,,2.2,1.3,1.8,1*29
$GPGSV,2,1,06,01,15,255,48,08,73,299,56,10,56,076,54,16,27,182,50,1*69
$GPGSV,2,2,06,21,45,263,52,23,27,048,52,,,,,,,,,1*6F
$GPRMC,000040.00,A,4852.4669723,N,00217.5787090,E,1.61,0.00,180502,0.0,E,A*39
$GPGGA,000040.00,4852.4669723,N,00217.5787090,E,1,06,1.0,-7.054,M,0.000,M,0.0,*5A
$GPGSA,A,3,01,08,10,16,21,23,,,,,,,2.2,1.3,1.8,1*29
$GPGSV,2,1,06,01,15,255,48,08,73,299,57,10,56,076,55,16,27,182,50,1*69
$GPGSV,2,2,06,21,45,263,52,23,27,048,50,,,,,,,,,1*6D
$GPRMC,000041.00,A,4852.4665714,N,00217.5803576,E,0.52,0.00,180502,0.0,E,A*3F
$GPGGA,000041.00,4852.4665714,N,00217.5803576,E,1,06,1.0,-10.925,M,0.000,M,0.0,*64
$GPGSA,A,3,01,08,10,16,21,23,,,,,,,2.2,1.3,1.8,1*29
$GPGSV,2,1,06,01,15,255,47,08,73,299,55,10,56,076,54,16,27,182,50,1*65
$GPGSV,2,2,06,21,45,263,54,23,27,048,50,,,,,,,,,1*6B
$GPRMC,000042.00,A,4852.4658140,N,00217.5820723,E,0.84,0.00,180502,0.0,E,A*3D
$GPGGA,000042.00,4852.4658140,N,00217.5820723,E,1,06,1.0,-14.049,M,0.000,M,0.0,*6A
$GPGSA,A,3,01,08,10,16,21,23,,,,,,,2.2,1.3,1.8,1*29
$GPGSV,2,1,06,01,15,255,49,08,73,299,57,10,56,076,54,16,27,182,50,1*69
$GPGSV,2,2,06,21,45,263,53,23,27,048,50,,,,,,,,,1*6C
$GPRMC,000043.00,A,4852.4667794,N,00217.5812481,E,0.95,0.00,180502,0.0,E,A*35
$GPGGA,000043.00,4852.4667794,N,00217.5812481,E,1,06,1.0,-16.836,M,0.000,M,0.0,*60
$GPGSA,A,3,01,08,10,16,21,23,,,,,,,2.2,1.3,1.8,1*29
$GPGSV,2,1,06,01,15,255,47,08,73,299,56,10,56,076,54,16,27,182,48,1*6F
$GPGSV,2,2,06,21,45,263,54,23,27,048,52,,,,,,,,,1*69
$GPRMC,000044.00,A,4852.4663451,N,00217.5806325,E,0.68,0.00,180502,0.0,E,A*32
$GPGGA,000044.00,4852.4663451,N,00217.5806325,E,1,06,1.0,-13.105,M,0.000,M,0.0,*69
$GPGSA,A,3,01,08,10,16,21,23,,,,,,,2.2,1.3,1.8,1*29
$GPGSV,2,1,06,01,15,255,49,08,73,299,58,10,56,076,56,16,27,182,48,1*6D
$GPGSV,2,2,06,21,45,263,52,23,27,048,51,,,,,,,,,1*6C
$GPRMC,000045.00,A,4852.4664017,N,00217.5802173,E,0.41,0.00,180502,0.0,E,A*3C
$GPGGA,000045.00,4852.4664017,N,00217.5802173,E,1,06,1.0,-10.377,M,0.000,M,0.0,*68
$GPGSA,A,3,01,08,10,16,21,23,,,,,,,2.2,1.3,1.8,1*29
$GPGSV,2,1,06,01,15,255,48,08,73,299,57,10,56,076,56,16,27,182,48,1*63
$GPGSV,2,2,06,21,45,263,52,23,27,048,50,,,,,,,,,1*6D
$GPRMC,000046.00,A,4852.4672268,N,00217.5808288,E,0.46,0.00,180502,0.0,E,A*38
$GPGGA,000046.00,4852.4672268,N,00217.5808288,E,1,06,1.0,-11.112,M,0.000,M,0.0,*6B
$GPGSA,A,3,01,08,10,16,21,23,,,,,,,2.2,1.3,1.8,1*29
$GPGSV,2,1,06,01,15,255,49,08,73,299,55,10,56,076,56,16,27,182,48,1*60
$GPGSV,2,2,06,21,45,263,51,23,27,048,50,,,,,,,,,1*6E
$GPRMC,000047.00,A,4852.4662269,N,00217.5796612,E,1.54,0.00,180502,0.0,E,A*34
$GPGGA,000047.00,4852.4662269,N,00217.5796612,E,1,06,1.0,-4.161,M,0.000,M,0.0,*55
$GPGSA,A,3,01,08,10,16,21,23,,,,,,,2.2,1.3,1.8,1*29
$GPGSV,2,1,06,01,15,255,50,08,73,299,57,10,56,076,58,16,27,182,49,1*65
$GPGSV,2,2,06,21,45,263,52,23,27,048,52,,,,,,,,,1*6F
$GPRMC,000048.00,A,4852.4673102,N,00217.5779611,E,1.32,0.00,180502,0.0,E,A*37
$GPGGA,000048.00,4852.4673102,N,00217.5779611,E,1,06,1.0,-2.649,M,0.000,M,0.0,*5D
$GPGSA,A,3,01,08,10,16,21,23,,,,,,,2.2,1.3,1.8,1*29
$GPGSV,2,1,06,01,15,255,50,08,73,299,57,10,56,076,55,16,27,182,50,1*60
$GPGSV,2,2,06,21,45,263,54,23,27,048,49,,,,,,,,,1*63
$GPRMC,000049.00,A,4852.4672474,N,00217.5791384,E,1.43,0.00,180502,0.0,E,A*3A
$GPGGA,000049.00,4852.4672474,N,00217.5791384,E,1,06,1.0,-5.431,M,0.000,M,0.0,*5C
$GPGSA,A,3,01,08,10,16,21,23,,,,,,,2.2,1.3,1.8,1*29
$GPGSV,2,1,06,01,15,255,49,08,73,299,57,10,56,076,54,16,27,182,49,1*61
$GPGSV,2,2,06,21,45,263,51,23,27,048,50,,,,,,,,,1*6E
$GPRMC,000050.00,A,4852.4658159,N,00217.5809994,E,1.13,0.00,180502,0.0,E,A*30
$GPGGA,000050.00,4852.4658159,N,00217.5809994,E,1,06,1.0,-6.850,M,0.000,M,0.0,*5B
$GPGSA,A,3,01,08,10,16,21,23,,,,,,,2.2,1.3,1.8,1*29
$GPGSV,2,1,06,01,15,255,49,08,73,299,56,10,56,076,55,16,27,182,51,1*68
$GPGSV,2,2,06,21,45,263,52,23,27,048,51,,,,,,,,,1*6C
$GPRMC,000051.00,A,4852.4671726,N,00217.5807607,E,1.17,0.00,180502,0.0,E,A*3B
$GPGGA,000051.00,4852.4671726,N,00217.5807607,E,1,06,1.0,-9.595,M,0.000,M,0.0,*5F
$GPGSA,A,3,01,08,10,16,21,23,,,,,,,2.2,1.3,1.8,1*29
$GPGSV,2,1,06,01,15,255,49,08,73,299,57,10,56,076,55,16,27,182,52,1*6A
$GPGSV,2,2,06,21,45,263,54,23,27,048,53,,,,,,,,,1*68
$GPRMC,000052.00,A,4852.4667900,N,00217.5797209,E,1.97,136.99,180502,0.0,E,A*35
$GPGGA,000052.00,4852.4667900,N,00217.5797209,E,1,06,1.0,-10.216,M,0.000,M,0.0,*69
$GPGSA,A,3,01,08,10,16,21,23,,,,,,,2.2,1.3,1.8,1*29
$GPGSV,2,1,06,01,15,255,48,08,73,299,56,10,56,076,56,16,27,182,49,1*63
$GPGSV,2,2,06,21,45,263,54,23,27,048,51,,,,,,,,,1*6A
$GPRMC,000053.00,A,4852.4661978,N,00217.5818598,E,1.41,136.99,180502,0.0,E,A*31
$GPGGA,000053.00,4852.4661978,N,00217.5818598,E,1,06,1.0,-15.893,M,0.000,M,0.0,*64
$GPGSA,A,3,01,08,10,16,21,23,,,,,,,2.2,1.3,1.8,1*29
$GPGSV,2,1,06,01,15,255,48,08,73,299,57,10,56,076,56,16,27,182,49,1*62
$GPGSV,2,2,06,21,45,263,52,23,27,048,49,,,,,,,,,1*65
$GPRMC,000054.00,A,4852.4662685,N,00217.5830319,E,0.42,136.99,180502,0.0,E,A*3F
$GPGGA,000054.00,4852.4662685,N,00217.5830319,E,1,06,1.0,-15.758,M,0.000,M,0.0,*60
$GPGSA,A,3,01,08,10,16,21,23,,,,,,,2.2,1.3,1.8,1*29
$GPGSV,2,1,06,01,15,255,49,08,73,299,57,10,56,076,55,16,27,182,50,1*68
$GPGSV,2,2,06,21,45,263,53,23,27,048,49,,,,,,,,,1*64
$GPRMC,000055.00,A,4852.4663836,N,00217.5810439,E,0.52,136.99,180502,0.0,E,A*3F
$GPGGA,000055.00,4852.4663836,N,00217.5810439,E,1,06,1.0,-12.204,M,0.000,M,0.0,*6A
$GPGSA,A,3,01,08,10,16,21,23,,,,,,,2.2,1.3,1.8,1*29
$GPGSV,2,1,06,01,15,255,49,08,73,299,59,10,56,076,58,16,27,182,51,1*6A
$GPGSV,2,2,06,21,45,263,52,23,27,048,50,,,,,,,,,1*6D
$GPRMC,000056.00,A,4852.4665044,N,00217.5808759,E,1.24,136.99,180502,0.0,E,A*3B
$GPGGA,000056.00,4852.4665044,N,00217.5808759,E,1,06,1.0,-11.083,M,0.000,M,0.0,*60
$GPGSA,A,3,01,08,10,16,21,23,,,,,,,2.2,1.3,1.8,1*29
$GPGSV,2,1,06,01,15,255,48,08,73,299,58,10,56,076,56,16,27,182,48,1*6C
$GPGSV,2,2,06,21,45,263,54,23,27,048,50,,,,,,,,,1*6B
$GPRMC,000057.00,A,4852.4662532,N,00217.5814033,E,1.86,136.99,180502,0.0,E,A*37
$GPGGA,000057.00,4852.4662532,N,00217.5814033,E,1,06,1.0,-6.117,M,0.000,M,0.0,*5E
$GPGSA,A,3,01,08,10,16,21,23,,,,,,,2.2,1.3,1.8,1*29
$GPGSV,2,1,06,01,16,255,50,08,73,299,57,10,56,076,55,16,27,182,50,1*63
$GPGSV,2,2,06,21,45,263,53,23,27,048,50,,,,,,,,,1*6C
$GPRMC,000058.00,A,4852.4667135,N,00217.5816876,E,1.12,136.99,180502,0.0,E,A*38
$GPGGA,000058.00,4852.4667135,N,00217.5816876,E,1,06,1.0,-5.229,M,0.000,M,0.0,*51
$GPGSA,A,3,01,08,10,16,21,23,,,,,,,2.2,1.3,1.8,1*29
$GPGSV,2,1,06,01,16,255,48,08,73,299,57,10,56,076,56,16,27,182,51,1*68
$GPGSV,2,2,06,21,45,263,52,23,27,048,50,,,,,,,,,1*6D
$GPRMC,000059.00,A,4852.4667479,N,00217.5797485,E,0.88,136.99,180502,0.0,E,A*30
$GPGGA,000059.00,4852.4667479,N,00217.5797485,E,1,06,1.0,-0.632,M,0.000,M,0.0,*50
$GPGSA,A,3,01,08,10,16,21,23,,,,,,,2.2,1.3,1.8,1*29
$GPGSV,2,1,06,01,16,255,50,08,73,299,57,10,56,076,57,16,26,182,52,1*62
$GPGSV,2,2,06,21,45,263,53,23,27,048,51,,,,,,,,,1*6D
$GPRMC,000100.00,A,4852.4668185,N,00217.5792587,E,0.66,136.99,180502,0.0,E,A*32
$GPGGA,000100.00,4852.4668185,N,00217.5792587,E,1,06,1.0,0.260,M,0.000,M,0.0,*7C
$GPGSA,A,3,01,08,10,16,21,23,,,,,,,2.2,1.3,1.8,1*29
$GPGSV,2,1,06,01,16,255,49,08,73,299,56,10,56,076,57,16,26,182,50,1*69
$GPGSV,2,2,06,21,45,263,53,23,27,048,50,,,,,,,,,1*6C
$GPRMC,000101.00,A,4852.4665838,N,00217.5816987,E,0.63,136.99,180502,0.0,E,A*3B
$GPGGA,000101.00,4852.4665838,N,00217.5816987,E,1,06,1.0,-4.817,M,0.000,M,0.0,*53
$GPGSA,A,3,01,08,10,16,21,23,,,,,,,2.2,1.3,1.8,1*29
$GPGSV,2,1,06,01,16,255,48,08,73,299,55,10,56,076,55,16,26,182,50,1*69
$GPGSV,2,2,06,21,45,263,52,23,27,048,51,,,,,,,,,1*6C
$GPRMC,000102.00,A,4852.4655902,N,00217.5811172,E,0.55,136.99,180502,0.0,E,A*33
$GPGGA,000102.00,4852.4655902,N,00217.5811172,E,1,06,1.0,-5.519,M,0.000,M,0.0,*5C
$GPGSA,A,3,01,08,10,16,21,23,,,,,,,2.2,1.3,1.8,1*29
$GPGSV,2,1,06,01,16,255,49,08,73,299,56,10,56,076,55,16,26,182,49,1*63
$GPGSV,2,2,06,21,45,263,53,23,27,048,50,,,,,,,,,1*6C
$GPRMC,000103.00,A,4852.4671276,N,00217.5809576,E,1.54,136.99,180502,0.0,E,A*35
$GPGGA,000103.00,4852.4671276,N,00217.5809576,E,1,06,1.0,-8.941,M,0.000,M,0.0,*56
$GPGSA,A,3,01,08,10,16,21,23,,,,,,,2.2,1.3,1.8,1*29
$GPGSV,2,1,06,01,16,255,48,08,73,299,56,10,56,076,56,16,26,182,50,1*69
$GPGSV,2,2,06,21,45,263,53,23,27,048,51,,,,,,,,,1*6D
$GPRMC,000104.00,A,4852.4663789,N,00217.5814510,E,1.60,136.99,180502,0.0,E,A*3F
$GPGGA,000104.00,4852.4663789,N,00217.5814510,E,1,06,1.0,-9.872,M,0.000,M,0.0,*5B
$GPGSA,A,3,01,08,10,16,21,23,,,,,,,2.2,1.3,1.8,1*29
$GPGSV,2,1,06,01,16,255,47,08,73,299,58,10,56,076,56,16,26,182,50,1*68
$GPGSV,2,2,06,21,45,263,54,23,27,048,50,,,,,,,,,1*6B
$GPRMC,000105.00,A,4852.4656524,N,00217.5828996,E,2.01,353.06,180502,0.0,E,A*33
$GPGGA,000105.00,4852.4656524,N,00217.5828996,E,1,06,1.0,-13.280,M,0.000,M,0.0,*68
$GPGSA,A,3,01,08,10,16,21,23,,,,,,,2.2,1.3,1.8,1*29
$GPGSV,2,1,06,01,16,255,48,08,73,299,58,10,56,076,55,16,26,182,50,1*64
$GPGSV,2,2,06,21,45,263,53,23,27,048,50,,,,,,,,,1*6C
$GPRMC,000106.00,A,4852.4668573,N,00217.5825882,E,1.16,353.06,180502,0.0,E,A*33
$GPGGA,000106.00,4852.4668573,N,00217.5825882,E,1,06,1.0,-18.066,M,0.000,M,0.0,*6C
$GPGSA,A,3,01,08,10,16,21,23,,,,,,,2.2,1.3,1.8,1*29
$GPGSV,2,1,06,01,16,255,48,08,73,299,56,10,56,076,55,16,26,182,51,1*6B
$GPGSV,2,2,06,21,45,263,53,23,27,048,50,,,,,,,,,1*6C
$GPRMC,000107.00,A,4852.4662275,N,00217.5809573,E,1.02,353.06,180502,0.0,E,A*31
$GPGGA,000107.00,4852.4662275,N,00217.5809573,E,1,06,1.0,-11.579,M,0.000,M,0.0,*69
$GPGSA,A,3,01,08,10,16,21,23,,,,,,,2.2,1.3,1.8,1*29
$GPGSV,2,1,06,01,16,255,47,08,73,299,56,10,56,076,54,16,26,182,50,1*64
$GPGSV,2,2,06,21,45,263,51,23,27,048,51,,,,,,,,,1*6F
$GPRMC,000108.00,A,4852.4654253,N,00217.5828843,E,10.30,116.77,180502,0.0,E,A*06
$GPGGA,000108.00,4852.4654253,N,00217.5828843,E,1,06,1.0,-10.849,M,0.000,M,0.0,*65
$GPGSA,A,3,01,08,10,16,21,23,,,,,,,2.2,1.3,1.8,1*29
$GPGSV,2,1,06,01,16,255,48,08,73,299,56,10,56,076,55,16,26,182,50,1*6A
$GPGSV,2,2,06,21,45,263,52,23,27,048,51,,,,,,,,,1*6C
$GPRMC,000109.00,A,4852.4650453,N,00217.5881161,E,19.21,115.18,180502,0.0,E,A*0C
$GPGGA,000109.00,4852.4650453,N,00217.5881161,E,1,06,1.0,-11.815,M,0.000,M,0.0,*64
$GPGSA,A,3,01,08,10,16,21,23,,,,,,,2.2,1.3,1.8,1*29
$GPGSV,2,1,06,01,16,255,47,08,73,299,56,10,56,076,54,16,26,182,50,1*64
$GPGSV,2,2,06,21,45,263,54,23,27,048,52,,,,,,,,,1*69
$GPRMC,000110.00,A,4852.4610496,N,00217.5987199,E,29.74,116.14,180502,0.0,E,A*05
$GPGGA,000110.00,4852.4610496,N,00217.5987199,E,1,06,1.0,-7.822,M,0.000,M,0.0,*52
$GPGSA,A,3,01,08,10,16,21,23,,,,,,,2.2,1.3,1.8,1*29
$GPGSV,2,1,06,01,16,255,48,08,73,299,57,10,56,076,55,16,26,182,50,1*6B
$GPGSV,2,2,06,21,45,263,52,23,27,048,50,,,,,,,,,1*6D
$GPRMC,000111.00,A,4852.4572138,N,00217.6094766,E,32.91,116.46,180502,0.0,E,A*0A
$GPGGA,000111.00,4852.4572138,N,00217.6094766,E,1,06,1.0,-5.730,M,0.000,M,0.0,*55
$GPGSA,A,3,01,08,10,16,21,23,,,,,,,2.2,1.3,1.8,1*29
$GPGSV,2,1,06,01,16,255,49,08,73,299,55,10,56,076,57,16,26,182,50,1*6A
$GPGSV,2,2,06,21,45,263,53,23,27,048,51,,,,,,,,,1*6D
$GPRMC,000112.00,A,4852.4546131,N,00217.6202784,E,32.30,115.48,180502,0.0,E,A*00
$GPGGA,000112.00,4852.4546131,N,00217.6202784,E,1,06,1.0,-2.636,M,0.000,M,0.0,*59
$GPGSA,A,3,01,08,10,16,21,23,,,,,,,2.2,1.3,1.8,1*29
$GPGSV,2,1,06,01,16,255,48,08,73,299,56,10,56,076,56,16,26,182,50,1*69
$GPGSV,2,2,06,21,45,263,54,23,27,048,50,,,,,,,,,1*6B
$GPRMC,000113.00,A,4852.4495951,N,00217.6329477,E,30.78,116.42,180502,0.0,E,A*00
$GPGGA,000113.00,4852.4495951,N,00217.6329477,E,1,06,1.0,-2.164,M,0.000,M,0.0,*5E
$GPGSA,A,3,01,08,10,16,21,23,,,,,,,2.2,1.3,1.8,1*29
$GPGSV,2,1,06,01,16,255,49,08,73,299,57,10,56,076,58,16,26,182,49,1*6F
$GPGSV,2,2,06,21,45,263,54,23,27,048,52,,,,,,,,,1*69
$GPRMC,000114.00,A,4852.4456924,N,00217.6433549,E,21.96,121.82,180502,0.0,E,A*02
$GPGGA,000114.00,4852.4456924,N,00217.6433549,E,1,06,1.0,-1.722,M,0.000,M,0.0,*53
$GPGSA,A,3,01,08,10,16,21,23,,,,,,,2.2,1.3,1.8,1*29
$GPGSV,2,1,06,01,16,255,48,08,73,299,57,10,56,076,56,16,26,182,48,1*61
$GPGSV,2,2,06,21,45,263,52,23,27,048,51,,,,,,,,,1*6C
$GPRMC,000115.00,A,4852.4431690,N,00217.6502929,E,12.06,139.30,180502,0.0,E,A*02
$GPGGA,000115.00,4852.4431690,N,00217.6502929,E,1,06,1.0,-4.609,M,0.000,M,0.0,*57
$GPGSA,A,3,01,08,10,16,21,23,,,,,,,2.2,1.3,1.8,1*29
$GPGSV,2,1,06,01,16,255,46,08,73,299,57,10,56,076,55,16,26,182,48,1*6C
$GPGSV,2,2,06,21,45,263,55,23,27,048,52,,,,,,,,,1*68
$GPRMC,000116.00,A,4852.4401371,N,00217.6509619,E,10.19,162.67,180502,0.0,E,A*0F
$GPGGA,000116.00,4852.4401371,N,00217.6509619,E,1,06,1.0,-5.553,M,0.000,M,0.0,*57
$GPGSA,A,3,01,08,10,16,21,23,,,,,,,2.2,1.3,1.8,1*29
$GPGSV,2,1,06,01,16,255,47,08,73,298,58,10,56,076,55,16,26,182,50,1*6A
$GPGSV,2,2,06,21,45,263,54,23,27,048,51,,,,,,,,,1*6A
$GPRMC,000117.00,A,4852.4368171,N,00217.6509527,E,19.50,177.65,180502,0.0,E,A*08
$GPGGA,000117.00,4852.4368171,N,00217.6509527,E,1,06,1.0,-5.949,M,0.000,M,0.0,*55
$GPGSA,A,3,01,08,10,16,21,23,,,,,,,2.2,1.3,1.8,1*29
$GPGSV,2,1,06,01,16,255,49,08,73,298,58,10,56,076,56,16,26,182,50,1*67
$GPGSV,2,2,06,21,45,263,52,23,27,048,50,,,,,,,,,1*6D
$GPRMC,000118.00,A,4852.4300419,N,00217.6535902,E,23.92,179.82,180502,0.0,E,A*06
$GPGGA,000118.00,4852.4300419,N,00217.6535902,E,1,06,1.0,-9.722,M,0.000,M,0.0,*54
$GPGSA,A,3,01,08,10,16,21,23,,,,,,,2.2,1.3,1.8,1*29
$GPGSV,2,1,06,01,16,255,50,08,73,298,56,10,56,076,53,16,26,182,51,1*65
$GPGSV,2,2,06,21,45,263,52,23,27,048,50,,,,,,,,,1*6D
$GPRMC,000119.00,A,4852.4230068,N,00217.6543977,E,23.17,171.81,180502,0.0,E,A*02
$GPGGA,000119.00,4852.4230068,N,00217.6543977,E,1,06,1.0,-10.890,M,0.000,M,0.0,*68
$GPGSA,A,3,01,08,10,16,21,23,,,,,,,2.2,1.3,1.8,1*29
$GPGSV,2,1,06,01,16,255,49,08,74,298,55,10,56,076,52,16,26,182,50,1*69
$GPGSV,2,2,06,21,45,263,54,23,27,048,51,,,,,,,,,1*6A
$GPRMC,000120.00,A,4852.4170810,N,00217.6559502,E,21.23,161.54,180502,0.0,E,A*01
$GPGGA,000120.00,4852.4170810,N,00217.6559502,E,1,06,1.0,-12.194,M,0.000,M,0.0,*68
$GPGSA,A,3,01,08,10,16,21,23,,,,,,,2.2,1.3,1.8,1*29
$GPGSV,2,1,06,01,16,255,50,08,74,298,56,10,56,076,53,16,26,182,50,1*63
$GPGSV,2,2,06,21,45,263,52,23,27,048,49,,,,,,,,,1*65
$GPRMC,000121.00,A,4852.4121772,N,00217.6593557,E,21.08,152.42,180502,0.0,E,A*07
$GPGGA,000121.00,4852.4121772,N,00217.6593557,E,1,06,1.0,-14.531,M,0.000,M,0.0,*6D
$GPGSA,A,3,01,08,10,16,21,23,,,,,,,2.2,1.3,1.8,1*29
$GPGSV,2,1,06,01,16,255,49,08,74,298,56,10,56,076,52,16,26,182,49,1*62
$GPGSV,2,2,06,21,45,263,53,23,27,048,51,,,,,,,,,1*6D
$GPRMC,000122.00,A,4852.4081824,N,00217.6632576,E,17.93,142.17,180502,0.0,E,A*0E
$GPGGA,000122.00,4852.4081824,N,00217.6632576,E,1,06,1.0,-16.204,M,0.000,M,0.0,*61
$GPGSA,A,3,01,08,10,16,21,23,,,,,,,2.2,1.3,1.8,1*29
$GPGSV,2,1,06,01,16,255,48,08,74,298,58,10,56,076,55,16,26,182,49,1*6A
$GPGSV,2,2,06,21,45,263,53,23,27,048,52,,,,,,,,,1*6E
$GPRMC,000123.00,A,4852.4046169,N,00217.6700304,E,17.90,130.99,180502,0.0,E,A*07
$GPGGA,000123.00,4852.4046169,N,00217.6700304,E,1,06,1.0,-16.924,M,0.000,M,0.0,*61
$GPGSA,A,3,01,08,10,16,21,23,,,,,,,2.2,1.3,1.8,1*29
$GPGSV,2,1,06,01,16,255,48,08,74,298,54,10,56,076,54,16,26,182,50,1*6F
$GPGSV,2,2,06,21,45,263,51,23,27,048,52,,,,,,,,,1*6C
$GPRMC,000124.00,A,4852.3997062,N,00217.6773220,E,19.34,121.65,180502,0.0,E,A*08
$GPGGA,000124.00,4852.3997062,N,00217.6773220,E,1,06,1.0,-11.892,M,0.000,M,0.0,*66
$GPGSA,A,3,01,08,10,16,21,23,,,,,,,2.2,1.3,1.8,1*29
$GPGSV,2,1,06,01,16,255,48,08,74,298,54,10,56,076,55,16,26,182,49,1*66
$GPGSV,2,2,06,21,45,263,52,23,27,048,51,,,,,,,,,1*6C
$GPRMC,000125.00,A,4852.3982870,N,00217.6823093,E,19.52,114.15,180502,0.0,E,A*07
$GPGGA,000125.00,4852.3982870,N,00217.6823093,E,1,06,1.0,-11.019,M,0.000,M,0.0,*63
$GPGSA,A,3,01,08,10,16,21,23,,,,,,,2.2,1.3,1.8,1*29
$GPGSV,2,1,06,01,16,255,48,08,74,298,56,10,56,076,56,16,26,182,50,1*6F
$GPGSV,2,2,06,21,45,263,54,23,27,048,50,,,,,,,,,1*6B
$GPRMC,000126.00,A,4852.3963310,N,00217.6912064,E,19.92,105.98,180502,0.0,E,A*04
$GPGGA,000126.00,4852.3963310,N,00217.6912064,E,1,06,1.0,-10.796,M,0.000,M,0.0,*68
$GPGSA,A,3,01,08,10,16,21,23,,,,,,,2.2,1.3,1.8,1*29
$GPGSV,2,1,06,01,16,255,48,08,74,298,56,10,56,076,56,16,26,182,50,1*6F
$GPGSV,2,2,06,21,45,263,54,23,27,048,50,,,,,,,,,1*6B
$GPRMC,000127.00,A,4852.3959676,N,00217.6979699,E,18.36,96.25,180502,0.0,E,A*32
$GPGGA,000127.00,4852.3959676,N,00217.6979699,E,1,06,1.0,-9.465,M,0.000,M,0.0,*5B
$GPGSA,A,3,01,08,10,16,21,23,,,,,,,2.2,1.3,1.8,1*29
$GPGSV,2,1,06,01,16,255,47,08,74,298,56,10,56,076,56,16,26,182,52,1*62
$GPGSV,2,2,06,21,45,263,53,23,27,048,51,,,,,,,,,1*6D
$GPRMC,000128.00,A,4852.3960491,N,00217.7064753,E,20.25,87.31,180502,0.0,E,A*33
$GPGGA,000128.00,4852.3960491,N,00217.7064753,E,1,06,1.0,-8.270,M,0.000,M,0.0,*55
$GPGSA,A,3,01,08,10,16,21,23,,,,,,,2.2,1.3,1.8,1*29
$GPGSV,2,1,06,01,16,255,48,08,74,298,56,10,56,076,58,16,26,182,50,1*61
$GPGSV,2,2,06,21,45,263,53,23,27,048,50,,,,,,,,,1*6C
$GPRMC,000129.00,A,4852.3967605,N,00217.7134606,E,20.92,78.75,180502,0.0,E,A*33
$GPGGA,000129.00,4852.3967605,N,00217.7134606,E,1,06,1.0,-2.502,M,0.000,M,0.0,*51
$GPGSA,A,3,01,08,10,16,21,23,,,,,,,2.2,1.3,1.8,1*29
$GPGSV,2,1,06,01,16,255,47,08,74,298,56,10,56,076,57,16,26,182,51,1*60
$GPGSV,2,2,06,21,45,263,54,23,27,048,52,,,,,,,,,1*69
$GPRMC,000130.00,A,4852.3988255,N,00217.7207716,E,22.17,69.03,180502,0.0,E,A*36
$GPGGA,000130.00,4852.3988255,N,00217.7207716,E,1,06,1.0,-1.932,M,0.000,M,0.0,*56
$GPGSA,A,3,01,08,10,16,21,23,,,,,,,2.2,1.3,1.8,1*29
$GPGSV,2,1,06,01,16,255,48,08,74,298,55,10,56,076,52,16,26,182,52,1*6A
$GPGSV,2,2,06,21,45,263,53,23,27,048,51,,,,,,,,,1*6D
$GPRMC,000131.00,A,4852.4017754,N,00217.7287544,E,23.06,59.11,180502,0.0,E,A*37
$GPGGA,000131.00,4852.4017754,N,00217.7287544,E,1,06,1.0,0.375,M,0.000,M,0.0,*73
$GPGSA,A,3,01,08,10,16,21,23,,,,,,,2.2,1.3,1.8,1*29
$GPGSV,2,1,06,01,16,255,49,08,74,298,57,10,56,076,54,16,26,182,50,1*6D
$GPGSV,2,2,06,21,45,263,53,23,27,048,48,,,,,,,,,1*65
$GPRMC,000132.00,A,4852.4039598,N,00217.7389837,E,22.24,58.27,180502,0.0,E,A*39
$GPGGA,000132.00,4852.4039598,N,00217.7389837,E,1,06,1.0,-0.498,M,0.000,M,0.0,*51
$GPGSA,A,3,01,08,10,16,21,23,,,,,,,2.2,1.3,1.8,1*29
$GPGSV,2,1,06,01,16,255,49,08,74,298,56,10,56,076,53,16,26,182,51,1*6A
$GPGSV,2,2,06,21,45,263,54,23,27,048,49,,,,,,,,,1*63
$GPRMC,000133.00,A,4852.4067385,N,00217.7472171,E,16.99,63.02,180502,0.0,E,A*3F
$GPGGA,000133.00,4852.4067385,N,00217.7472171,E,1,06,1.0,-2.305,M,0.000,M,0.0,*58
$GPGSA,A,3,01,08,10,16,21,23,,,,,,,2.2,1.3,1.8,1*29
$GPGSV,2,1,06,01,16,255,48,08,74,298,54,10,56,076,54,16,26,182,50,1*6F
$GPGSV,2,2,06,21,45,263,52,23,27,048,51,,,,,,,,,1*6C
$GPRMC,000134.00,A,4852.4084043,N,00217.7504915,E,9.31,78.23,180502,0.0,E,A*03
$GPGGA,000134.00,4852.4084043,N,00217.7504915,E,1,06,1.0,-1.698,M,0.000,M,0.0,*53
$GPGSA,A,3,01,08,10,16,21,23,,,,,,,2.2,1.3,1.8,1*29
$GPGSV,2,1,06,01,16,255,47,08,74,298,55,10,56,076,55,16,26,182,50,1*60
$GPGSV,2,2,06,21,45,263,52,23,27,048,52,,,,,,,,,1*6F
$GPRMC,000135.00,A,4852.4086265,N,00217.7563425,E,17.24,101.18,180502,0.0,E,A*05
$GPGGA,000135.00,4852.4086265,N,00217.7563425,E,1,06,1.0,-3.563,M,0.000,M,0.0,*5C
$GPGSA,A,3,01,08,10,16,21,23,,,,,,,2.2,1.3,1.8,1*29
$GPGSV,2,1,06,01,16,255,49,08,74,298,54,10,56,076,55,16,26,182,48,1*66
$GPGSV,2,2,06,21,45,263,54,23,27,048,50,,,,,,,,,1*6B
$GPRMC,000136.00,A,4852.4065510,N,00217.7641829,E,27.22,110.30,180502,0.0,E,A*02
$GPGGA,000136.00,4852.4065510,N,00217.7641829,E,1,06,1.0,-4.000,M,0.000,M,0.0,*53
$GPGSA,A,3,01,08,10,16,21,23,,,,,,,2.2,1.3,1.8,1*29
$GPGSV,2,1,06,01,16,255,48,08,74,298,55,10,56,076,56,16,26,182,49,1*64
$GPGSV,2,2,06,21,45,263,52,23,27,048,50,,,,,,,,,1*6D
$GPRMC,000137.00,A,4852.4043765,N,00217.7780317,E,32.15,112.40,180502,0.0,E,A*08
$GPGGA,000137.00,4852.4043765,N,00217.7780317,E,1,06,1.0,-8.255,M,0.000,M,0.0,*52
$GPGSA,A,3,01,08,10,16,21,23,,,,,,,2.2,1.3,1.8,1*29
$GPGSV,2,1,06,01,16,255,47,08,74,298,57,10,56,076,56,16,26,182,49,1*69
$GPGSV,2,2,06,21,45,263,53,23,27,048,52,,,,,,,,,1*6E
$GPRMC,000138.00,A,4852.3989636,N,00217.7911454,E,33.25,113.82,180502,0.0,E,A*03
$GPGGA,000138.00,4852.3989636,N,00217.7911454,E,1,06,1.0,-6.135,M,0.000,M,0.0,*5F
$GPGSA,A,3,01,08,10,16,21,23,,,,,,,2.2,1.3,1.8,1*29
$GPGSV,2,1,06,01,16,255,48,08,74,298,54,10,56,076,54,16,26,182,50,1*6F
$GPGSV,2,2,06,21,45,263,50,23,27,048,50,,,,,,,,,1*6F
$GPRMC,000139.00,A,4852.3963786,N,00217.8034045,E,31.75,114.01,180502,0.0,E,A*02
$GPGGA,000139.00,4852.3963786,N,00217.8034045,E,1,06,1.0,-7.937,M,0.000,M,0.0,*5E
$GPGSA,A,3,01,08,10,16,21,23,,,,,,,2.2,1.3,1.8,1*29
$GPGSV,2,1,06,01,16,255,48,08,74,298,54,10,56,076,54,16,26,182,49,1*67
$GPGSV,2,2,06,21,45,263,53,23,27,048,51,,,,,,,,,1*6D
$GPRMC,000140.00,A,4852.3935933,N,00217.8121113,E,23.43,116.79,180502,0.0,E,A*03
$GPGGA,000140.00,4852.3935933,N,00217.8121113,E,1,06,1.0,-8.448,M,0.000,M,0.0,*5E
$GPGSA,A,3,01,08,10,16,21,23,,,,,,,2.2,1.3,1.8,1*29
$GPGSV,2,1,06,01,16,255,48,08,74,298,56,10,56,076,55,16,26,182,50,1*6C
$GPGSV,2,2,06,21,45,263,55,23,27,048,52,,,,,,,,,1*68
$GPRMC,000141.00,A,4852.3900004,N,00217.8184944,E,14.47,129.73,180502,0.0,E,A*0A
$GPGGA,000141.00,4852.3900004,N,00217.8184944,E,1,06,1.0,-9.704,M,0.000,M,0.0,*5B
$GPGSA,A,3,01,08,10,16,21,23,,,,,,,2.2,1.3,1.8,1*29
$GPGSV,2,1,06,01,16,255,48,08,74,298,57,10,56,076,56,16,26,182,53,1*6D
$GPGSV,2,2,06,21,45,263,54,23,27,048,51,,,,,,,,,1*6A
$GPRMC,000142.00,A,4852.3883592,N,00217.8231589,E,7.05,160.53,180502,0.0,E,A*32
$GPGGA,000142.00,4852.3883592,N,00217.8231589,E,1,06,1.0,-13.920,M,0.000,M,0.0,*6B
$GPGSA,A,3,01,08,10,16,21,23,,,,,,,2.2,1.3,1.8,1*29
$GPGSV,2,1,06,01,16,255,48,08,74,298,56,10,56,076,56,16,26,182,51,1*6E
$GPGSV,2,2,06,21,45,263,53,23,27,048,50,,,,,,,,,1*6C
$GPRMC,000143.00,A,4852.3853852,N,00217.8232187,E,13.04,190.07,180502,0.0,E,A*0C
$GPGGA,000143.00,4852.3853852,N,00217.8232187,E,1,06,1.0,-14.697,M,0.000,M,0.0,*6B
$GPGSA,A,3,01,08,10,16,21,23,,,,,,,2.2,1.3,1.8,1*29
$GPGSV,2,1,06,01,16,255,48,08,74,298,56,10,56,076,56,16,26,182,49,1*67
$GPGSV,2,2,06,21,45,263,51,23,27,048,50,,,,,,,,,1*6E
$GPRMC,000144.00,A,4852.3809933,N,00217.8191879,E,22.12,207.93,180502,0.0,E,A*05
$GPGGA,000144.00,4852.3809933,N,00217.8191879,E,1,06,1.0,-15.952,M,0.000,M,0.0,*60
$GPGSA,A,3,01,08,10,16,21,23,,,,,,,2.2,1.3,1.8,1*29
$GPGSV,2,1,06,01,16,255,49,08,74,298,56,10,56,076,56,16,26,182,50,1*6E
$GPGSV,2,2,06,21,45,263,52,23,27,048,52,,,,,,,,,1*6F
$GPRMC,000145.00,A,4852.3749843,N,00217.8130932,E,31.45,212.86,180502,0.0,E,A*0C
$GPGGA,000145.00,4852.3749843,N,00217.8130932,E,1,06,1.0,-14.150,M,0.000,M,0.0,*62
$GPGSA,A,3,01,08,10,16,21,23,,,,,,,2.2,1.3,1.8,1*29
$GPGSV,2,1,06,01,16,255,48,08,74,298,57,10,56,076,54,16,26,182,49,1*64
$GPGSV,2,2,06,21,45,263,53,23,27,048,50,,,,,,,,,1*6C
$GPRMC,000146.00,A,4852.3671591,N,00217.8056996,E,32.29,217.53,180502,0.0,E,A*0C
$GPGGA,000146.00,4852.3671591,N,00217.8056996,E,1,06,1.0,-13.199,M,0.000,M,0.0,*64
$GPGSA,A,3,01,08,10,16,21,23,,,,,,,2.2,1.3,1.8,1*29
$GPGSV,2,1,06,01,16,255,48,08,74,298,58,10,56,076,57,16,26,182,49,1*68
$GPGSV,2,2,06,21,45,263,54,23,27,048,50,,,,,,,,,1*6B
$GPRMC,000147.00,A,4852.3609444,N,00217.7970946,E,26.65,225.20,180502,0.0,E,A*0C
$GPGGA,000147.00,4852.3609444,N,00217.7970946,E,1,06,1.0,-9.347,M,0.000,M,0.0,*56
$GPGSA,A,3,01,08,10,16,21,23,,,,,,,2.2,1.3,1.8,1*29
$GPGSV,2,1,06,01,16,255,48,08,74,298,57,10,56,076,54,16,26,182,50,1*6C
$GPGSV,2,2,06,21,45,263,54,23,27,048,51,,,,,,,,,1*6A
$GPRMC,000148.00,A,4852.3571981,N,00217.7888037,E,24.49,232.50,180502,0.0,E,A*0F
$GPGGA,000148.00,4852.3571981,N,00217.7888037,E,1,06,1.0,-7.388,M,0.000,M,0.0,*55
$GPGSA,A,3,01,08,10,16,21,23,,,,,,,2.2,1.3,1.8,1*29
$GPGSV,2,1,06,01,16,255,48,08,74,298,54,10,55,076,51,16,26,182,50,1*69
$GPGSV,2,2,06,21,45,263,53,23,27,048,49,,,,,,,,,1*64
$GPRMC,000149.00,A,4852.3519041,N,00217.7792977,E,32.79,236.58,180502,0.0,E,A*04
$GPGGA,000149.00,4852.3519041,N,00217.7792977,E,1,06,1.0,-5.664,M,0.000,M,0.0,*53
$GPGSA,A,3,01,08,10,16,21,23,,,,,,,2.2,1.3,1.8,1*29
$GPGSV,2,1,06,01,16,255,49,08,74,298,57,10,55,076,55,16,26,182,50,1*6F
$GPGSV,2,2,06,21,45,263,55,23,27,048,48,,,,,,,,,1*63
$GPRMC,000150.00,A,4852.3477167,N,00217.7675661,E,33.09,242.89,180502,0.0,E,A*09
$GPGGA,000150.00,4852.3477167,N,00217.7675661,E,1,06,1.0,-0.887,M,0.000,M,0.0,*51
$GPGSA,A,3,01,08,10,16,21,23,,,,,,,2.2,1.3,1.8,1*29
$GPGSV,2,1,06,01,16,255,50,08,74,298,58,10,55,076,56,16,26,182,50,1*6B
$GPGSV,2,2,06,21,45,263,53,23,27,048,49,,,,,,,,,1*64
$GPRMC,000151.00,A,4852.3445440,N,00217.7527442,E,32.70,250.06,180502,0.0,E,A*05
$GPGGA,000151.00,4852.3445440,N,00217.7527442,E,1,06,1.0,-1.978,M,0.000,M,0.0,*56
$GPGSA,A,3,01,08,10,16,21,23,,,,,,,2.2,1.3,1.8,1*29
$GPGSV,2,1,06,01,16,255,48,08,74,298,57,10,55,075,54,16,26,182,51,1*6D
$GPGSV,2,2,06,21,45,263,52,23,27,048,49,,,,,,,,,1*65
$GPRMC,000152.00,A,4852.3426931,N,00217.7397223,E,32.50,258.49,180502,0.0,E,A*05
$GPGGA,000152.00,4852.3426931,N,00217.7397223,E,1,06,1.0,-5.458,M,0.000,M,0.0,*5C
$GPGSA,A,3,01,08,10,16,21,23,,,,,,,2.2,1.3,1.8,1*29
$GPGSV,2,1,06,01,16,255,48,08,74,298,57,10,55,075,55,16,26,182,50,1*6D
$GPGSV,2,2,06,21,45,263,52,23,27,048,50,,,,,,,,,1*6D
$GPRMC,000153.00,A,4852.3406033,N,00217.7281222,E,32.13,260.91,180502,0.0,E,A*03
$GPGGA,000153.00,4852.3406033,N,00217.7281222,E,1,06,1.0,-5.712,M,0.000,M,0.0,*5E
$GPGSA,A,3,01,08,10,16,21,23,,,,,,,2.2,1.3,1.8,1*29
$GPGSV,2,1,06,01,16,255,48,08,74,298,56,10,55,075,55,16,26,182,51,1*6D
$GPGSV,2,2,06,21,45,263,54,23,27,048,50,,,,,,,,,1*6B
$GPRMC,000154.00,A,4852.3398841,N,00217.7136117,E,32.43,263.91,180502,0.0,E,A*05
$GPGGA,000154.00,4852.3398841,N,00217.7136117,E,1,06,1.0,-9.705,M,0.000,M,0.0,*54
$GPGSA,A,3,01,08,10,16,21,23,,,,,,,2.2,1.3,1.8,1*29
$GPGSV,2,1,06,01,16,255,49,08,74,298,58,10,55,075,56,16,26,182,50,1*60
$GPGSV,2,2,06,21,45,263,56,23,27,048,49,,,,,,,,,1*61
$GPRMC,000155.00,A,4852.3385553,N,00217.7007117,E,32.69,270.94,180502,0.0,E,A*0A
$GPGGA,000155.00,4852.3385553,N,00217.7007117,E,1,06,1.0,-7.185,M,0.000,M,0.0,*54
$GPGSA,A,3,01,08,10,16,21,23,,,,,,,2.2,1.3,1.8,1*29
$GPGSV,2,1,06,01,16,255,48,08,74,298,55,10,55,075,55,16,26,182,50,1*6F
$GPGSV,2,2,06,21,45,263,54,23,27,048,50,,,,,,,,,1*6B
$GPRMC,000156.00,A,4852.3393715,N,00217.6890957,E,32.46,276.76,180502,0.0,E,A*02
$GPGGA,000156.00,4852.3393715,N,00217.6890957,E,1,06,1.0,-12.033,M,0.000,M,0.0,*63
$GPGSA,A,3,01,08,10,16,21,23,,,,,,,2.2,1.3,1.8,1*29
$GPGSV,2,1,06,01,16,255,48,08,74,298,57,10,55,075,55,16,26,182,49,1*65
$GPGSV,2,2,06,21,45,263,54,23,27,048,50,,,,,,,,,1*6B
$GPRMC,000157.00,A,4852.3399123,N,00217.6753815,E,32.31,280.56,180502,0.0,E,A*06
$GPGGA,000157.00,4852.3399123,N,00217.6753815,E,1,06,1.0,-12.031,M,0.000,M,0.0,*6E
$GPGSA,A,3,01,08,10,16,21,23,,,,,,,2.2,1.3,1.8,1*29
$GPGSV,2,1,06,01,16,255,49,08,74,298,58,10,55,075,56,16,26,182,49,1*68
$GPGSV,2,2,06,21,45,263,54,23,27,048,49,,,,,,,,,1*63
$GPRMC,000158.00,A,4852.3443285,N,00217.6609312,E,33.04,286.77,180502,0.0,E,A*06
$GPGGA,000158.00,4852.3443285,N,00217.6609312,E,1,06,1.0,-19.516,M,0.000,M,0.0,*67
$GPGSA,A,3,01,08,10,16,21,23,,,,,,,2.2,1.3,1.8,1*29
$GPGSV,2,1,06,01,16,255,49,08,74,298,56,10,55,075,54,16,26,182,48,1*65
$GPGSV,2,2,06,21,45,263,54,23,27,048,50,,,,,,,,,1*6B
$GPRMC,000159.00,A,4852.3460485,N,00217.6473739,E,31.74,289.53,180502,0.0,E,A*0E
$GPGGA,000159.00,4852.3460485,N,00217.6473739,E,1,06,1.0,-14.016,M,0.000,M,0.0,*6B
$GPGSA,A,3,01,08,10,16,21,23,,,,,,,2.2,1.3,1.8,1*29
$GPGSV,2,1,06,01,16,255,48,08,74,298,56,10,55,075,55,16,26,182,49,1*64
$GPGSV,2,2,06,21,45,263,53,23,27,048,51,,,,,,,,,1*6D
$GPRMC,000200.00,A,4852.3487396,N,00217.6347306,E,30.35,296.38,180502,0.0,E,A*02
$GPGGA,000200.00,4852.3487396,N,00217.6347306,E,1,06,1.0,-9.044,M,0.000,M,0.0,*5B
$GPGSA,A,3,01,08,10,16,21,23,,,,,,,2.2,1.3,1.8,1*29
$GPGSV,2,1,06,01,16,255,48,08,74,298,54,10,55,075,54,16,26,182,50,1*6F
$GPGSV,2,2,06,21,45,263,53,23,27,048,50,,,,,,,,,1*6C
$GPRMC,000201.00,A,4852.3531181,N,00217.6250826,E,23.55,302.38,180502,0.0,E,A*0D
$GPGGA,000201.00,4852.3531181,N,00217.6250826,E,1,06,1.0,-8.679,M,0.000,M,0.0,*55
$GPGSA,A,3,01,08,10,16,21,23,,,,,,,2.2,1.3,1.8,1*29
$GPGSV,2,1,06,01,16,255,49,08,74,298,56,10,55,075,56,16,26,182,48,1*67
$GPGSV,2,2,06,21,45,263,52,23,27,048,50,,,,,,,,,1*6D
$GPRMC,000202.00,A,4852.3568464,N,00217.6168865,E,23.93,308.33,180502,0.0,E,A*08
$GPGGA,000202.00,4852.3568464,N,00217.6168865,E,1,06,1.0,-6.168,M,0.000,M,0.0,*52
$GPGSA,A,3,01,08,10,16,21,23,,,,,,,2.2,1.3,1.8,1*29
$GPGSV,2,1,06,01,16,255,49,08,74,298,56,10,55,075,55,16,26,182,50,1*6D
$GPGSV,2,2,06,21,45,263,51,23,27,048,49,,,,,,,,,1*66
$GPRMC,000203.00,A,4852.3616414,N,00217.6109998,E,24.51,310.05,180502,0.0,E,A*05
$GPGGA,000203.00,4852.3616414,N,00217.6109998,E,1,06,1.0,-4.209,M,0.000,M,0.0,*5C
$GPGSA,A,3,01,08,10,16,21,23,,,,,,,2.2,1.3,1.8,1*29
$GPGSV,2,1,06,01,16,255,46,08,74,298,57,10,55,075,54,16,26,182,50,1*62
$GPGSV,2,2,06,21,45,263,52,23,27,048,50,,,,,,,,,1*6D
$GPRMC,000204.00,A,4852.3656837,N,00217.6019318,E,22.17,315.20,180502,0.0,E,A*0F
$GPGGA,000204.00,4852.3656837,N,00217.6019318,E,1,06,1.0,-1.229,M,0.000,M,0.0,*57
$GPGSA,A,3,01,08,10,16,21,23,,,,,,,2.2,1.3,1.8,1*29
$GPGSV,2,1,06,01,16,255,47,08,74,298,56,10,55,075,57,16,26,182,50,1*61
$GPGSV,2,2,06,21,45,263,52,23,27,048,52,,,,,,,,,1*6F
$GPRMC,000205.00,A,4852.3700077,N,00217.5950963,E,28.51,322.81,180502,0.0,E,A*06
$GPGGA,000205.00,4852.3700077,N,00217.5950963,E,1,06,1.0,1.292,M,0.000,M,0.0,*74
$GPGSA,A,3,01,08,10,16,21,23,,,,,,,2.2,1.3,1.8,1*29
$GPGSV,2,1,06,01,16,255,47,08,74,298,56,10,55,075,58,16,26,182,50,1*6E
$GPGSV,2,2,06,21,45,263,52,23,27,047,52,,,,,,,,,1*60
$GPRMC,000206.00,A,4852.3781685,N,00217.5886825,E,33.51,329.63,180502,0.0,E,A*03
$GPGGA,000206.00,4852.3781685,N,00217.5886825,E,1,06,1.0,-4.112,M,0.000,M,0.0,*5F
$GPGSA,A,3,01,08,10,16,21,23,,,,,,,2.2,1.3,1.8,1*29
$GPGSV,2,1,06,01,16,255,48,08,74,298,59,10,55,075,57,16,26,182,50,1*61
$GPGSV,2,2,06,21,45,263,53,23,27,047,51,,,,,,,,,1*62
$GPRMC,000207.00,A,4852.3858359,N,00217.5827900,E,31.73,333.59,180502,0.0,E,A*00
$GPGGA,000207.00,4852.3858359,N,00217.5827900,E,1,06,1.0,-7.118,M,0.000,M,0.0,*55
$GPGSA,A,3,01,08,10,16,21,23,,,,,,,2.2,1.3,1.8,1*29
$GPGSV,2,1,06,01,16,255,48,08,74,298,57,10,55,075,55,16,26,182,50,1*6D
$GPGSV,2,2,06,21,45,263,54,23,27,047,49,,,,,,,,,1*6C
$GPRMC,000208.00,A,4852.3939890,N,00217.5754467,E,32.25,338.03,180502,0.0,E,A*04
$GPGGA,000208.00,4852.3939890,N,00217.5754467,E,1,06,1.0,-8.485,M,0.000,M,0.0,*5B
$GPGSA,A,3,01,08,10,16,21,23,,,,,,,2.2,1.3,1.8,1*29
$GPGSV,2,1,06,01,16,255,48,08,74,298,55,10,55,075,54,16,26,182,50,1*6E
$GPGSV,2,2,06,21,45,263,54,23,27,047,51,,,,,,,,,1*65
$GPRMC,000209.00,A,4852.4028294,N,00217.5712452,E,32.51,343.42,180502,0.0,E,A*0B
$GPGGA,000209.00,4852.4028294,N,00217.5712452,E,1,06,1.0,-11.261,M,0.000,M,0.0,*6A
$GPGSA,A,3,01,08,10,16,21,23,,,,,,,2.2,1.3,1.8,1*29
$GPGSV,2,1,06,01,16,255,49,08,74,298,57,10,55,075,55,16,26,182,50,1*6C
$GPGSV,2,2,06,21,45,263,52,23,27,047,52,,,,,,,,,1*60
$GPRMC,000210.00,A,4852.4108063,N,00217.5694728,E,32.02,348.31,180502,0.0,E,A*02
$GPGGA,000210.00,4852.4108063,N,00217.5694728,E,1,06,1.0,-12.463,M,0.000,M,0.0,*6D
$GPGSA,A,3,01,08,10,16,21,23,,,,,,,2.2,1.3,1.8,1*29
$GPGSV,2,1,06,01,16,255,48,08,74,298,56,10,55,075,53,16,26,182,50,1*6A
$GPGSV,2,2,06,21,45,263,54,23,27,047,52,,,,,,,,,1*66
$GPRMC,000211.00,A,4852.4203283,N,00217.5672452,E,31.14,351.33,180502,0.0,E,A*0F
$GPGGA,000211.00,4852.4203283,N,00217.5672452,E,1,06,1.0,-16.062,M,0.000,M,0.0,*6F
$GPGSA,A,3,01,08,10,16,21,23,,,,,,,2.2,1.3,1.8,1*29
$GPGSV,2,1,06,01,16,255,47,08,74,298,55,10,55,075,53,16,26,182,48,1*6F
$GPGSV,2,2,06,21,45,263,54,23,27,047,50,,,,,,,,,1*64
$GPRMC,000212.00,A,4852.4290946,N,00217.5649645,E,33.37,355.78,180502,0.0,E,A*00
$GPGGA,000212.00,4852.4290946,N,00217.5649645,E,1,06,1.0,-16.182,M,0.000,M,0.0,*67
$GPGSA,A,3,01,08,10,16,21,23,,,,,,,2.2,1.3,1.8,1*29
$GPGSV,2,1,06,01,16,255,49,08,74,298,56,10,55,075,56,16,26,182,49,1*66
$GPGSV,2,2,06,21,45,263,53,23,27,047,48,,,,,,,,,1*6A
$GPRMC,000213.00,A,4852.4372799,N,00217.5648196,E,31.62,2.85,180502,0.0,E,A*09
$GPGGA,000213.00,4852.4372799,N,00217.5648196,E,1,06,1.0,-12.396,M,0.000,M,0.0,*6C
$GPGSA,A,3,01,08,10,16,21,23,,,,,,,2.2,1.3,1.8,1*29
$GPGSV,2,1,06,01,16,255,46,08,74,298,54,10,55,075,54,16,26,182,50,1*61
$GPGSV,2,2,06,21,45,263,54,23,27,047,50,,,,,,,,,1*64
$GPRMC,000214.00,A,4852.4468693,N,00217.5670740,E,32.70,8.54,180502,0.0,E,A*09
$GPGGA,000214.00,4852.4468693,N,00217.5670740,E,1,06,1.0,-11.811,M,0.000,M,0.0,*6D
$GPGSA,A,3,01,08,10,16,21,23,,,,,,,2.2,1.3,1.8,1*29
$GPGSV,2,1,06,01,16,255,48,08,74,298,56,10,55,075,54,16,26,182,50,1*6D
$GPGSV,2,2,06,21,45,263,53,23,27,047,49,,,,,,,,,1*6B
$GPRMC,000215.00,A,4852.4542087,N,00217.5697556,E,23.02,14.60,180502,0.0,E,A*31
$GPGGA,000215.00,4852.4542087,N,00217.5697556,E,1,06,1.0,-10.662,M,0.000,M,0.0,*61
$GPGSA,A,3,01,08,10,16,21,23,,,,,,,2.2,1.3,1.8,1*29
$GPGSV,2,1,06,01,16,255,48,08,74,298,56,10,55,075,54,16,26,182,50,1*6D
$GPGSV,2,2,06,21,45,263,54,23,27,047,50,,,,,,,,,1*64
$GPRMC,000216.00,A,4852.4593793,N,00217.5719130,E,14.64,17.68,180502,0.0,E,A*30
$GPGGA,000216.00,4852.4593793,N,00217.5719130,E,1,06,1.0,-11.203,M,0.000,M,0.0,*6D
$GPGSA,A,3,01,08,10,16,21,23,,,,,,,2.2,1.3,1.8,1*29
$GPGSV,2,1,06,01,16,255,48,08,74,298,56,10,55,075,54,16,26,182,50,1*6D
$GPGSV,2,2,06,21,45,263,53,23,27,047,50,,,,,,,,,1*63
$GPRMC,000217.00,A,4852.4611872,N,00217.5720359,E,4.39,20.81,180502,0.0,E,A*05
$GPGGA,000217.00,4852.4611872,N,00217.5720359,E,1,06,1.0,-6.725,M,0.000,M,0.0,*55
$GPGSA,A,3,01,08,10,16,21,23,,,,,,,2.2,1.3,1.8,1*29
$GPGSV,2,1,06,01,16,255,48,08,74,298,56,10,55,075,55,16,26,182,49,1*64
$GPGSV,2,2,06,21,45,263,52,23,27,047,50,,,,,,,,,1*62
$GPRMC,000218.00,A,4852.4620238,N,00217.5720912,E,1.04,20.81,180502,0.0,E,A*02
$GPGGA,000218.00,4852.4620238,N,00217.5720912,E,1,06,1.0,-5.420,M,0.000,M,0.0,*5C
$GPGSA,A,3,01,08,10,16,21,23,,,,,,,2.2,1.3,1.8,1*29
$GPGSV,2,1,06,01,16,255,50,08,74,298,56,10,55,075,57,16,26,182,50,1*67
$GPGSV,2,2,06,21,45,263,52,23,27,047,50,,,,,,,,,1*62
$GPRMC,000219.00,A,4852.4613383,N,00217.5715524,E,0.80,20.81,180502,0.0,E,A*00
$GPGGA,000219.00,4852.4613383,N,00217.5715524,E,1,06,1.0,-6.057,M,0.000,M,0.0,*54
$GPGSA,A,3,01,08,10,16,21,23,,,,,,,2.2,1.3,1.8,1*29
$GPGSV,2,1,06,01,16,255,48,08,74,298,56,10,55,075,55,16,26,182,52,1*6E
$GPGSV,2,2,06,21,45,263,51,23,27,047,50,,,,,,,,,1*61
$GPRMC,000220.00,A,4852.4610441,N,00217.5719715,E,1.20,20.81,180502,0.0,E,A*07
$GPGGA,000220.00,4852.4610441,N,00217.5719715,E,1,06,1.0,-5.482,M,0.000,M,0.0,*57
$GPGSA,A,3,01,08,10,16,21,23,,,,,,,2.2,1.3,1.8,1*29
$GPGSV,2,1,06,01,16,255,50,08,74,298,55,10,55,075,54,16,26,182,51,1*66
$GPGSV,2,2,06,21,45,263,52,23,27,047,50,,,,,,,,,1*62
$GPRMC,000221.00,A,4852.4626935,N,00217.5708574,E,1.88,20.81,180502,0.0,E,A*0A
$GPGGA,000221.00,4852.4626935,N,00217.5708574,E,1,06,1.0,-3.813,M,0.000,M,0.0,*5A
$GPGSA,A,3,01,08,10,16,21,23,,,,,,,2.2,1.3,1.8,1*29
$GPGSV,2,1,06,01,16,255,49,08,74,298,56,10,55,075,55,16,26,182,50,1*6D
$GPGSV,2,2,06,21,45,263,54,23,27,047,50,,,,,,,,,1*64
$GPRMC,000222.00,A,4852.4625620,N,00217.5691439,E,0.78,20.81,180502,0.0,E,A*06
$GPGGA,000222.00,4852.4625620,N,00217.5691439,E,1,06,1.0,-2.089,M,0.000,M,0.0,*52
$GPGSA,A,3,01,08,10,16,21,23,,,,,,,2.2,1.3,1.8,1*29
$GPGSV,2,1,06,01,16,255,48,08,74,298,55,10,55,075,54,16,26,182,50,1*6E
$GPGSV,2,2,06,21,45,263,54,23,27,047,50,,,,,,,,,1*64
