     2.11           OBSERVATION DATA    G                   RINEX VERSION / TYPE
BLANK OR G = GPS,  R = GLONASS,  E = GALILEO,  M = MIXED    COMMENT             
GNSS-SDR            joel                 5-MAY-25 09:44     PGM / RUN BY / DATE 
GPS OBSERVATION DATA FILE GENERATED BY GNSS-SDR             COMMENT             
GNSS-SDR VERSION 0.0.16                                     COMMENT             
See https://gnss-sdr.org                                    COMMENT             
DEFAULT MARKER NAME                                         MARKER NAME         
joel                CTTC                                    OBSERVER / AGENCY   
GNSS-SDR            Software Receiver   0.0.16              REC # / TYPE / VERS 
Antenna number      Antenna type                            ANT # / TYPE        
        0.0000        0.0000        0.0000                  APPROX POSITION XYZ 
        0.0000        0.0000        0.0000                  ANTENNA: DELTA H/E/N
     1     1                                                WAVELENGTH FACT L1/2
     4    C1    L1    D1    S1                              # / TYPES OF OBSERV 
  2002    05    18    00    00   42.1200000     GPS         TIME OF FIRST OBS   
    18                                                      LEAP SECONDS        
                                                            END OF HEADER       
 02  5 18 00 00 43.0000000  0  7G01G16G23G10G21G07G08                           
  23763590.575 7 124878514.381 7      3399.658 7        46.684                  
  23471245.336 8 123342230.695 8     -3662.955 8        49.408                  
  23001127.120 8 120871743.352 8     -2818.427 8        49.973                  
  21313658.628 9 112004039.667 9      -798.323 9        54.379                  
  21783585.556 8 114473515.344 8      1786.659 8        53.263                  
  24961618.683 7 131174189.514 7     -1906.861 7        45.651                  
  20445704.806 9 107442908.360 9       868.245 9        55.799                  
 02  5 18 00 00 44.0000000  0  7G01G16G23G10G21G07G08                           
  23762945.664 7 124875117.259 7      3394.709 7        46.768                  
  23471943.979 8 123345894.470 8     -3663.464 8        50.497                  
  23001664.781 8 120874562.620 8     -2818.299 8        50.208                  
  21313811.158 8 112004838.024 8      -799.547 8        53.922                  
  21783249.386 9 114471728.133 9      1786.420 9        54.226                  
  24961982.050 7 131176094.041 7     -1909.754 7        46.115                  
  20445541.823 9 107442040.516 9       867.788 9        56.824                  
 02  5 18 00 00 45.0000000  0  7G01G16G23G10G21G07G08                           
  23762299.037 7 124871720.310 7      3394.048 7        47.508                  
  23472640.942 8 123349558.442 8     -3662.052 8        50.285                  
  23002198.922 8 120877382.250 8     -2818.291 8        51.046                  
  21313963.009 9 112005637.022 9      -798.024 9        54.602                  
  21782906.747 8 114469941.232 8      1786.936 8        53.222                  
  24962342.700 7 131177998.923 7     -1904.919 7        46.798                  
  20445380.215 9 107441173.149 9       867.241 9        57.367                  
 02  5 18 00 00 46.0000000  0  7G01G16G23G10G21G07G08                           
  23761651.250 8 124868323.515 8      3395.414 8        48.423                  
  23473337.638 8 123353222.599 8     -3665.622 8        49.298                  
  23002736.494 8 120880202.292 8     -2822.657 8        50.582                  
  21314115.217 9 112006436.619 9      -799.386 9        54.140                  
  21782563.591 8 114468154.641 8      1786.862 8        53.642                  
  24962709.087 7 131179904.164 7     -1905.525 7        45.000                  
  20445215.677 9 107440306.259 9       866.657 9        56.301                  
 02  5 18 00 00 47.0000000  0  7G01G16G23G10G21G07G08                           
  23761005.749 7 124864926.872 7      3392.826 7        47.630                  
  23474035.762 8 123356886.951 8     -3665.607 8        50.498                  
  23003272.493 8 120883022.723 8     -2822.778 8        49.774                  
  21314268.426 8 112007236.812 8      -801.053 8        53.807                  
  21782227.313 8 114466368.352 8      1785.595 8        52.254                  
  24963068.451 7 131181809.745 7     -1907.403 7        45.937                  
  20445048.388 9 107439439.823 9       865.997 9        55.628                  
 02  5 18 00 00 48.0000000  0  7G01G16G23G10G21G07G08                           
  23760360.123 7 124861530.391 7      3396.569 7        47.363                  
  23474732.958 8 123360551.505 8     -3664.554 8        50.448                  
  23003811.887 8 120885843.546 8     -2822.547 8        50.783                  
  21314420.188 9 112008037.612 9      -801.064 9        56.893                  
  21781887.784 8 114464582.358 8      1785.174 8        52.287                  
  24963433.193 7 131183715.684 7     -1905.930 7        46.249                  
  20444880.991 9 107438573.862 9       864.960 9        57.933                  
 02  5 18 00 00 49.0000000  0  7G01G16G23G10G21G07G08                           
  23759712.157 8 124858134.070 8      3396.769 8        49.099                  
  23475429.636 8 123364216.251 8     -3667.130 8        50.706                  
  23004345.813 8 120888664.780 8     -2821.048 8        49.419                  
  21314573.522 9 112008839.055 9      -802.222 9        57.285                  
  21781545.610 8 114462796.662 8      1785.497 8        53.600                  
  24963795.166 7 131185621.983 7     -1907.279 7        46.823                  
  20444713.254 9 107437708.377 9       865.601 9        57.248                  
 02  5 18 00 00 50.0000000  0  7G01G16G23G10G21G07G08                           
  23759066.335 7 124854737.906 7      3396.929 7        47.096                  
  23476128.422 8 123367881.173 8     -3665.716 8        48.823                  
  23004883.778 8 120891486.407 8     -2822.125 8        49.606                  
  21314726.070 9 112009641.095 9      -801.916 9        56.273                  
  21781204.973 8 114461011.265 8      1787.108 8        53.317                  
  24964157.050 7 131187528.626 7     -1905.264 7        47.790                  
  20444545.267 9 107436843.361 9       864.889 9        58.655                  
 02  5 18 00 00 51.0000000  0  7G01G16G23G10G21G07G08                           
  23758421.620 7 124851341.914 7      3393.945 7        47.526                  
  23476824.831 8 123371546.307 8     -3665.742 8        50.493                  
  23005422.226 8 120894308.419 8     -2821.817 8        49.866                  
  21314878.957 9 112010443.732 9      -802.751 9        54.766                  
  21780869.375 8 114459226.167 8      1783.618 8        53.155                  
  24964522.936 7 131189435.629 7     -1906.480 7        47.336                  
  20444381.391 9 107435978.807 9       863.699 9        54.643                  
 02  5 18 00 00 52.0000000  0  7G01G16G23G10G21G07G08                           
  23757774.351 8 124847946.068 8      3397.270 8        48.302                  
  23477522.152 8 123375211.640 8     -3666.270 8        49.678                  
  23005957.170 8 120897130.815 8     -2822.212 8        51.387                  
  21315031.934 9 112011246.989 9      -804.177 9        54.030                  
  21780530.257 8 114457441.363 8      1784.993 8        51.516                  
  24964882.460 7 131191342.991 7     -1911.226 7        46.034                  
  20444219.229 9 107435114.730 9       864.514 9        56.364                  
 02  5 18 00 00 53.0000000  0  7G01G16G23G10G21G07G08                           
  23757127.170 7 124844550.395 7      3392.972 7        47.984                  
  23478221.009 8 123378877.143 8     -3662.336 8        49.511                  
  23006496.904 8 120899953.603 8     -2823.639 8        49.665                  
  21315184.839 9 112012050.876 9      -805.068 9        55.027                  
  21780186.189 8 114455656.858 8      1784.912 8        51.855                  
  24965249.365 7 131193250.699 7     -1908.667 7        46.800                  
  20444056.979 9 107434251.131 9       863.388 9        57.118                  
 02  5 18 00 00 54.0000000  0  7G01G16G23G10G21G07G08                           
  23756482.563 7 124841154.880 7      3394.634 7        46.982                  
  23478916.865 8 123382542.856 8     -3665.988 8        50.116                  
  23007032.135 8 120902776.776 8     -2824.037 8        50.434                  
  21315338.173 9 112012855.360 9      -805.134 9        54.012                  
  21779846.999 8 114453872.667 8      1784.015 8        53.871                  
  24965609.122 7 131195158.759 7     -1906.410 7        46.839                  
  20443895.228 9 107433388.008 9       863.163 9        54.952                  
 02  5 18 00 00 55.0000000  0  7G01G16G23G10G21G07G08                           
  23755836.777 8 124837759.515 8      3394.895 8        48.817                  
  23479614.686 8 123386208.755 8     -3667.143 8        49.607                  
  23007570.690 8 120905600.340 8     -2822.342 8        49.874                  
  21315491.185 9 112013660.441 9      -805.410 9        54.167                  
  21779511.633 8 114452088.796 8      1782.392 8        53.361                  
  24965973.632 7 131197067.174 7     -1908.903 7        47.056                  
  20443734.175 9 107432525.338 9       862.139 9        56.856                  
 02  5 18 00 00 56.0000000  0  7G01G16G23G10G21G07G08                           
  23755189.382 7 124834364.319 7      3392.527 7        46.765                  
  23480314.133 7 123389874.845 7     -3668.111 7        47.430                  
  23008107.868 8 120908424.322 8     -2824.752 8        51.900                  
  21315644.788 9 112014466.138 9      -806.159 9        54.596                  
  21779171.585 9 114450305.209 9      1782.477 9        54.236                  
  24966337.535 7 131198975.942 7     -1904.872 7        46.366                  
  20443571.674 9 107431663.145 9       861.547 9        56.024                  
 02  5 18 00 00 57.0000000  0  7G01G16G23G10G21G07G08                           
  23754544.721 8 124830969.285 8      3395.859 8        48.678                  
  23481009.560 7 123393541.124 7     -3663.699 7        47.425                  
  23008644.332 8 120911248.685 8     -2824.429 8        50.931                  
  21315798.318 9 112015272.470 9      -806.512 9        55.391                  
  21778828.107 8 114448521.933 8      1784.756 8        51.747                  
  24966698.364 7 131200885.067 7     -1912.578 7        45.971                  
  20443405.295 9 107430801.429 9       861.561 9        58.269                  
 02  5 18 00 00 58.0000000  0  7G01G16G23G10G21G07G08                           
  23753898.238 8 124827574.403 8      3397.161 8        48.508                  
  23481707.810 7 123397207.601 7     -3665.658 7        47.745                  
  23009182.815 8 120914073.446 8     -2825.114 8        50.081                  
  21315952.063 9 112016079.397 9      -806.613 9        55.505                  
  21778490.347 8 114446738.946 8      1783.065 8        51.998                  
  24967065.072 7 131202794.535 7     -1911.452 7        45.927                  
  20443239.113 9 107429940.189 9       861.866 9        57.003                  
 02  5 18 00 00 59.0000000  0  7G01G16G23G10G21G07G08                           
  23753251.129 8 124824179.693 8      3395.393 8        49.065                  
  23482406.435 8 123400874.282 8     -3666.673 8        48.536                  
  23009718.689 8 120916898.586 8     -2824.305 8        49.974                  
  21316105.933 9 112016886.921 9      -807.613 9        56.595                  
  21778155.017 8 114444956.266 8      1782.958 8        50.761                  
  24967425.383 7 131204704.368 7     -1910.959 7        44.705                  
  20443072.681 9 107429079.403 9       860.788 9        55.327                  
 02  5 18 00 01  0.0000000  0  7G01G16G23G10G21G07G08                           
  23752605.932 8 124820785.135 8      3397.684 8        49.809                  
  23483102.791 8 123404541.138 8     -3670.335 8        48.678                  
  23010258.655 8 120919724.103 8     -2826.642 8        51.600                  
  21316259.607 9 112017695.078 9      -807.983 9        57.450                  
  21777813.540 8 114443173.873 8      1780.451 8        52.413                  
  24967791.180 7 131206614.536 7     -1908.943 7        46.992                  
  20442905.695 9 107428219.093 9       859.880 9        57.005                  
 02  5 18 00 01  1.0000000  0  7G01G16G23G10G21G07G08                           
  23751959.931 8 124817390.734 8      3396.039 8        50.110                  
  23483801.255 8 123408208.194 8     -3665.180 8        49.371                  
  23010795.048 8 120922550.020 8     -2823.872 8        49.265                  
  21316414.085 9 112018503.852 9      -808.682 9        55.348                  
  21777470.312 8 114441391.790 8      1782.226 8        53.962                  
  24968153.278 7 131208525.075 7     -1912.364 7        47.395                  
  20442740.407 9 107427359.259 9       859.802 9        56.638                  
 02  5 18 00 01  2.0000000  0  7G01G16G23G10G21G07G08                           
  23751313.252 8 124813996.503 8      3395.668 8        49.061                  
  23484499.898 8 123411875.441 8     -3666.626 8        49.138                  
  23011333.155 8 120925376.329 8     -2824.962 8        50.189                  
  21316567.383 9 112019313.225 9      -810.821 9        54.344                  
  21777134.713 8 114439609.991 8      1782.117 8        50.755                  
  24968517.824 7 131210435.945 7     -1912.136 7        45.646                  
  20442578.603 9 107426499.904 9       858.941 9        57.194                  
 02  5 18 00 01  3.0000000  0  7G01G16G23G10G21G07G08                           
  23750668.001 8 124810602.425 8      3396.409 8        48.965                  
  23485196.111 8 123415542.864 8     -3666.804 8        51.018                  
  23011872.049 8 120928203.043 8     -2826.678 8        50.902                  
  21316721.003 9 112020123.192 9      -810.318 9        55.030                  
  21776798.669 8 114437828.515 8      1781.647 8        51.978                  
  24968882.048 7 131212347.184 7     -1910.571 7        44.746                  
  20442416.924 9 107425641.000 9       858.084 9        55.571                  
 02  5 18 00 01  4.0000000  0  7G01G16G23G10G21G07G08                           
  23750023.180 8 124807208.501 8      3390.054 8        49.245                  
  23485895.415 8 123419210.508 8     -3667.959 8        52.153                  
  23012407.513 8 120931030.149 8     -2826.555 8        53.057                  
  21316875.052 9 112020933.780 9      -810.893 9        54.687                  
  21776456.405 9 114436047.350 9      1780.653 9        54.059                  
  24969242.877 7 131214258.774 7     -1910.250 7        45.157                  
  20442255.888 9 107424782.575 9       858.138 9        56.761                  
 02  5 18 00 01  5.0000000  0  7G01G16G23G10G21G07G08                           
  23749375.928 8 124803814.759 8      3389.173 8        48.128                  
  23486593.504 8 123422878.323 8     -3665.981 8        49.198                  
  23012947.729 8 120933857.640 8     -2827.674 8        51.165                  
  21317028.779 9 112021744.999 9      -811.983 9        56.109                  
  21776115.482 8 114434266.482 8      1779.853 8        53.735                  
  24969609.978 7 131216170.713 7     -1912.812 7        45.790                  
  20442094.638 9 107423924.625 9       858.141 9        56.311                  
 02  5 18 00 01  6.0000000  0  7G01G16G23G10G21G07G08                           
  23748729.552 8 124800421.163 8      3391.874 8        48.452                  
  23487290.628 8 123426546.336 8     -3664.360 8        48.782                  
  23013484.997 8 120936685.498 8     -2827.079 8        48.886                  
  21317182.685 9 112022556.814 9      -812.119 9        56.330                  
  21775779.956 8 114432485.913 8      1779.910 8        52.021                  
  24969970.915 7 131218082.992 7     -1910.561 7        46.438                  
  20441934.710 9 107423067.154 9       857.047 9        57.041                  
 02  5 18 00 01  7.0000000  0  7G01G16G23G10G21G07G08                           
  23748085.498 8 124797027.716 8      3392.542 8        49.216                  
  23487989.665 8 123430214.549 8     -3668.239 8        50.144                  
  23014023.122 8 120939513.762 8     -2827.327 8        48.925                  
  21317336.645 9 112023369.226 9      -813.297 9        54.966                  
  21775443.071 8 114430705.640 8      1779.795 8        52.926                  
  24970337.480 7 131219995.640 7     -1914.441 7        46.130                  
  20441772.817 9 107422210.146 9       856.592 9        57.079                  
 02  5 18 00 01  8.0000000  0  7G01G16G23G10G21G07G08                           
  23747438.693 8 124793634.460 8      3393.825 8        48.854                  
  23488687.414 8 123433882.940 8     -3666.762 8        50.791                  
  23014562.338 8 120942342.417 8     -2828.535 8        49.937                  
  21317491.390 9 112024182.271 9      -813.301 9        57.857                  
  21775100.933 8 114428925.669 8      1778.951 8        52.592                  
  24970700.025 8 131221908.639 8     -1914.161 8        48.175                  
  20441607.314 9 107421353.601 9       857.243 9        58.686                  
 02  5 18 00 01  9.0000000  0  7G01G16G23G10G21G07G08                           
  23746792.550 8 124790241.346 8      3391.566 8        48.037                  
  23489384.413 8 123437551.535 8     -3667.072 8        48.443                  
  23015099.284 8 120945171.476 8     -2829.935 8        50.437                  
  21317645.457 9 112024995.930 9      -813.801 9        55.609                  
  21774760.510 8 114427145.990 8      1780.310 8        53.921                  
  24971064.571 8 131223821.982 8     -1912.750 8        48.038                  
  20441442.580 9 107420497.537 9       855.912 9        57.483                  
 02  5 18 00 01 10.0000000  0  7G01G16G23G10G21G07G08                           
  23746148.764 8 124786848.386 8      3397.284 8        49.633                  
  23490083.896 8 123441220.319 8     -3669.534 8        49.550                  
  23015639.358 8 120948000.930 8     -2828.597 8        50.125                  
  21317800.542 9 112025810.190 9      -814.374 9        54.991                  
  21774425.180 8 114425366.613 8      1779.838 8        53.374                  
  24971429.813 8 131225735.682 8     -1914.136 8        48.428                  
  20441277.524 9 107419641.949 9       855.831 9        56.890                  
 02  5 18 00 01 11.0000000  0  7G01G16G23G10G21G07G08                           
  23745502.335 7 124783455.607 7      3393.357 7        47.509                  
  23490781.950 8 123444889.285 8     -3669.779 8        50.925                  
  23016176.465 8 120950830.753 8     -2827.733 8        50.592                  
  21317955.306 9 112026625.045 9      -815.046 9        56.142                  
  21774088.474 8 114423587.533 8      1779.039 8        51.796                  
  24971791.876 8 131227649.729 8     -1913.684 8        48.152                  
  20441111.842 9 107418786.837 9       854.971 9        57.308                  
 02  5 18 00 01 12.0000000  0  7G01G16G23G10G21G07G08                           
  23744856.012 8 124780062.970 8      3389.702 8        50.025                  
  23491479.556 8 123448558.453 8     -3669.290 8        51.393                  
  23016715.680 8 120953660.963 8     -2829.886 8        50.659                  
  21318109.712 9 112027440.512 9      -816.643 9        57.086                  
  21773745.246 8 114421808.764 8      1779.370 8        53.131                  
  24972158.798 7 131229564.130 7     -1918.428 7        47.877                  
  20440946.553 9 107417932.178 9       854.466 9        57.353                  
 02  5 18 00 01 13.0000000  0  7G01G16G23G10G21G07G08                           
  23744211.280 8 124776670.499 8      3391.687 8        48.961                  
  23492178.539 8 123452227.799 8     -3669.364 8        50.380                  
  23017255.182 8 120956491.562 8     -2828.596 8        50.192                  
  21318266.030 9 112028256.622 9      -816.416 9        56.969                  
  21773406.431 8 114420030.306 8      1778.207 8        52.767                  
  24972519.073 7 131231478.871 7     -1913.255 7        46.499                  
  20440784.410 9 107417077.995 9       854.141 9        56.038                  
 02  5 18 00 01 14.0000000  0  7G01G16G23G10G21G07G08                           
  23743565.886 8 124773278.195 8      3392.242 8        48.580                  
  23492876.324 8 123455897.345 8     -3670.739 8        49.964                  
  23017792.325 8 120959322.566 8     -2830.558 8        50.849                  
  21318421.116 9 112029073.323 9      -816.895 9        54.918                  
  21773072.727 8 114418252.155 8      1778.647 8        51.981                  
  24972887.461 7 131233393.973 7     -1916.048 7        46.564                  
  20440624.053 9 107416224.288 9       854.212 9        54.648                  
 02  5 18 00 01 15.0000000  0  7G01G16G23G10G21G07G08                           
  23742918.921 8 124769886.048 8      3390.707 8        48.727                  
  23493574.020 8 123459567.087 8     -3670.025 8        49.050                  
  23018333.792 8 120962153.968 8     -2830.889 8        50.294                  
  21318576.272 9 112029890.623 9      -817.237 9        55.317                  
  21772733.502 8 114416474.292 8      1778.176 8        52.862                  
  24973249.648 7 131235309.428 7     -1916.196 7        46.913                  
  20440463.804 9 107415371.060 9       853.170 9        55.706                  
 02  5 18 00 01 16.0000000  0  7G01G16G23G10G21G07G08                           
  23742273.760 8 124766494.054 8      3395.011 8        48.227                  
  23494274.039 8 123463237.002 8     -3672.115 8        49.587                  
  23018869.898 8 120964985.752 8     -2831.757 8        50.713                  
  21318731.340 9 112030708.530 9      -818.497 9        55.983                  
  21772392.328 8 114414696.739 8      1778.235 8        52.845                  
  24973615.838 7 131237225.229 7     -1915.954 7        46.180                  
  20440303.823 9 107414518.308 9       853.057 9        56.602                  
 02  5 18 00 01 17.0000000  0  7G01G16G23G10G21G07G08                           
  23741629.724 7 124763102.242 7      3388.854 7        46.906                  
  23494971.271 8 123466907.122 8     -3670.723 8        50.232                  
  23019409.221 8 120967817.905 8     -2834.134 8        50.226                  
  21318887.962 9 112031527.079 9      -819.287 9        56.138                  
  21772053.835 9 114412919.472 9      1777.480 9        54.426                  
  24973980.724 8 131239141.390 8     -1916.997 8        48.105                  
  20440143.234 9 107413666.011 9       852.036 9        57.652                  
 02  5 18 00 01 18.0000000  0  7G01G16G23G10G21G07G08                           
  23740983.991 7 124759710.572 7      3392.884 7        47.710                  
  23495669.556 8 123470577.423 8     -3672.591 8        49.383                  
  23019949.062 8 120970650.452 8     -2830.504 8        49.602                  
  21319043.744 9 112032346.227 9      -820.207 9        55.379                  
  21771719.327 8 114411142.520 8      1775.600 8        53.201                  
  24974342.553 7 131241057.889 7     -1914.806 7        47.698                  
  20439983.771 9 107412814.189 9       851.011 9        57.420                  
 02  5 18 00 01 19.0000000  0  7G01G16G23G10G21G07G08                           
  23740337.061 7 124756319.069 7      3392.523 7        47.756                  
  23496368.521 8 123474247.919 8     -3669.740 8        50.732                  
  23020485.812 8 120973483.406 8     -2832.143 8        50.271                  
  21319200.920 9 112033165.969 9      -819.821 9        54.671                  
  21771381.496 8 114409365.842 8      1774.925 8        52.682                  
  24974711.156 8 131242974.739 8     -1916.122 8        48.138                  
  20439822.199 9 107411962.844 9       850.782 9        56.586                  
 02  5 18 00 01 20.0000000  0  7G01G16G23G10G21G07G08                           
  23739693.794 7 124752928.029 7      3388.212 7        47.299                  
  23497066.807 8 123477918.463 8     -3671.803 8        50.066                  
  23021027.261 8 120976316.609 8     -2832.034 8        50.797                  
  21319357.953 8 112033986.130 8      -819.449 8        53.406                  
  21771039.590 8 114407589.732 8      1774.823 8        50.977                  
  24975072.449 7 131244892.340 7     -1919.221 7        47.154                  
  20439658.572 9 107411112.088 9       849.282 9        56.547                  
 02  5 18 00 01 21.0000000  0  7G01G16G23G10G21G07G08                           
  23739049.795 7 124749549.123 7      3369.881 7        46.677                  
  23497763.663 8 123481583.798 8     -3660.542 8        53.410                  
  23021565.172 7 120979144.380 7     -2823.298 7        47.150                  
  21319513.556 8 112034799.620 8      -809.354 8        49.992                  
  21770703.581 8 114405823.785 8      1758.607 8        48.735                  
  24975443.160 7 131246825.825 7     -1944.297 7        47.057                  
  20439495.839 9 107410266.290 9       840.639 9        57.827                  
 02  5 18 00 01 22.0000000  0  7G01G16G23G10G21G07G08                           
  23738407.189 7 124746189.690 7      3349.278 7        46.476                  
  23498460.430 8 123485240.536 8     -3652.998 8        51.577                  
  23022101.868 8 120981963.679 8     -2816.691 8        50.443                  
  21319665.782 8 112035602.487 8      -794.005 8        52.391                  
  21770374.630 8 114404073.627 8      1742.781 8        51.965                  
  24975811.137 7 131248784.702 7     -1967.989 7        45.496                  
  20439334.410 8 107409428.639 8       834.000 8        49.190                  
 02  5 18 00 01 23.0000000  0  7G01G16G23G10G21G07G08                           
  23737775.162 7 124742849.187 7      3329.377 7        46.508                  
  23499154.248 7 123488889.193 7     -3658.448 7        46.303                  
  23022636.134 7 120984774.089 7     -2804.431 7        45.429                  
  21319817.008 8 112036394.445 8      -787.290 8        50.307                  
  21770045.393 8 114402339.297 8      1726.704 8        51.421                  
  24976193.445 7 131250768.592 7     -1993.054 7        44.811                  
  20439174.876 9 107408598.482 9       826.891 9        54.803                  
 02  5 18 00 01 24.0000000  0  7G01G16G23G10G21G07G08                           
  23737142.705 7 124739522.805 7      3327.168 7        47.396                  
  23499850.568 7 123492531.946 7     -3648.419 7        46.616                  
  23023170.204 7 120987578.388 7     -2804.998 7        47.407                  
  21319966.143 8 112037178.863 8      -784.847 8        51.032                  
  21769714.584 8 114400616.572 8      1720.359 8        51.121                  
  24976569.338 7 131252770.680 7     -2004.333 7        43.168                  
  20439016.324 9 107407774.023 9       824.605 9        56.674                  
 02  5 18 00 01 25.0000000  0  7G01G16G23G10G21G07G08                           
  23736509.034 7 124736196.529 7      3329.023 7        42.479                  
  23500541.242 7 123496176.398 7     -3644.822 7        44.899                  
  23023698.895 7 120990382.105 7     -2806.047 7        45.994                  
  21320116.100 8 112037964.157 8      -786.953 8        52.812                  
  21769384.525 8 114398893.978 8      1732.013 8        52.920                  
  24976955.702 7 131254772.184 7     -1993.829 7        45.010                  
  20438858.219 9 107406949.507 9       823.555 9        54.076                  
 02  5 18 00 01 26.0000000  0  7G01G16G23G10G21G07G08                           
  23735875.774 6 124732856.789 6      3346.696 6        40.282                  
  23501236.329 6 123499828.186 6     -3650.854 6        39.125                  
  23024237.342 8 120993190.976 8     -2817.525 8        48.365                  
  21320267.700 7 112038757.951 7      -793.397 7        46.001                  
  21769054.967 7 114397160.123 7      1740.525 7        43.016                  
  24977328.700 6 131256756.769 6     -1966.846 6        37.342                  
  20438698.595 7 107406119.478 7       839.371 7        46.320                  
 02  5 18 00 01 27.0000000  0  7G01G16G23G10G21G07G08                           
  23735237.867 7 124729510.964 7      3349.126 7        43.309                  
  23501932.399 6 123503491.423 6     -3677.235 6        36.582                  
  23024772.054 7 120995999.861 7     -2803.349 7        42.794                  
  21320418.694 8 112039556.526 8      -793.792 8        51.393                  
  21768728.964 7 114395420.326 7      1739.414 7        47.686                  
  24977707.648 6 131258727.253 6     -1967.546 6        39.776                  
  20438540.918 7 107405285.933 7       833.531 7        47.665                  
 02  5 18 00 01 28.0000000  0  7G01G16G23G10G21G07G08                           
  23734601.051 6 124726167.454 6      3323.246 6        37.182                  
  23502633.579 6 123507163.210 6     -3668.135 6        36.171                  
  23025303.926 6 120998804.437 6     -2804.320 6        36.737                  
  21320570.956 7 112040354.136 7      -798.190 7        42.130                  
  21768397.708 6 114393681.989 6      1731.318 6        41.147                  
  24978079.109 6 131260696.152 6     -1966.356 6        40.084                  
  20438381.491 8 107404451.866 8       834.766 8        53.240                  
 02  5 18 00 01 29.0000000  0  7G01G16G23G10G21G07G08                           
  23733962.180 5 124722803.349 5      3377.412 5        34.852                  
  23503330.793 5 123510842.751 5     -3671.941 5        35.838                  
  23025842.605 5 121001608.180 5     -2818.955 5        35.115                  
  21320722.002 6 112041154.661 6      -802.818 6        38.241                  
  21768063.325 6 114391940.257 6      1755.190 6        37.163                  
  24978461.542 6 131262659.367 6     -1954.644 6        36.476                  
  20438223.457 8 107403615.567 8       839.956 8        49.672                  
 02  5 18 00 01 30.0000000  0  7G01G16G23G10G21G07G08                           
  23733322.505 5 124719435.726 5      3358.405 5        35.480                  
  23504035.440 5 123514527.053 5     -3687.604 5        35.055                  
  23026378.462 5 121004423.512 5     -2812.647 5        34.889                  
  21320877.356 6 112041967.324 6      -820.474 6        39.355                  
  21767726.208 6 114390183.575 6      1756.934 6        39.087                  
  24978821.603 6 131264599.563 6     -1946.923 6        41.936                  
  20438066.174 8 107402773.196 8       849.614 8        49.400                  
 02  5 18 00 01 31.0000000  0  7G01G16G23G10G21G07G08                           
  23732680.739 5 124716072.669 5      3370.656 5        34.862                  
  23504736.334 5 123518226.921 5     -3700.676 5        35.154                  
  23026911.245 5 121007230.015 5     -2805.547 5        34.930                  
  21321032.780 6 112042779.084 6      -812.731 6        37.064                  
  21767396.114 6 114388427.480 6      1746.045 6        37.257                  
  24979190.723 6 131266535.958 6     -1933.946 6        41.909                  
  20437906.675 7 107401928.407 7       847.300 7        45.145                  
 02  5 18 00 01 32.0000000  0  7G01G16G23G10G21G07G08                           
  23732044.816 5 124712713.129 5      3347.582 5        34.935                  
  23505442.125 5 123521947.239 5     -3723.919 5        35.562                  
  23027443.259 5 121010025.041 5     -2800.507 5        35.286                  
  21321186.168 6 112043589.750 6      -819.549 6        37.387                  
  21767064.411 6 114386671.783 6      1762.770 6        38.975                  
  24979557.074 6 131268465.885 6     -1926.447 6        39.421                  
  20437748.391 6 107401080.688 6       853.762 6        41.577                  
 02  5 18 00 02  1.0000000  0  5G16G10G21G07G08                                 
  23526042.517 8 123630186.018 8     -3732.952 8        48.436                  
  21325810.225 6 112066932.502 6      -798.844 6        36.002                  
  21757256.766 6 114332192.207 6      1718.192 6        38.626                  
  24990025.444 7 131321044.044 7     -1984.776 7        44.802                  
  20433049.446 7 107376387.996 7       824.387 7        44.460                  
 02  5 18 00 02  2.0000000  0  5G16G10G21G07G08                                 
  23526752.597 8 123633918.898 8     -3737.260 8        48.577                  
  21325965.256 5 112067733.903 5      -800.715 5        35.674                  
  21756929.334 6 114330479.378 6      1714.435 6        37.831                  
  24990404.589 7 131323030.931 7     -1983.014 7        44.083                  
  20432892.252 7 107375565.699 7       822.441 7        43.164                  
 02  5 18 00 02  3.0000000  0  5G16G10G21G07G08                                 
  23527462.729 8 123637656.119 8     -3741.364 8        49.298                  
  21326119.966 5 112068537.786 5      -796.919 5        35.328                  
  21756606.405 6 114328764.015 6      1720.645 6        37.131                  
  24990778.802 7 131325012.856 7     -1978.818 7        45.239                  
  20432731.520 7 107374742.131 7       824.918 7        42.533                  
 02  5 18 00 02  4.0000000  0  5G16G10G21G07G08                                 
  23528175.185 8 123641396.631 8     -3742.125 8        48.467                  
  21326272.943 5 112069343.821 5      -807.853 5        34.998                  
  21756280.634 6 114327046.527 6      1722.725 6        36.643                  
  24991156.607 7 131326990.720 7     -1983.326 7        44.713                  
  20432575.560 6 107373917.538 6       826.215 6        41.938                  
 02  5 18 00 02  5.0000000  0  5G16G10G21G07G08                                 
  23528888.695 8 123645135.817 8     -3737.646 8        48.567                  
  21326426.509 5 112070149.656 5      -791.014 5        34.754                  
  21755955.150 5 114325330.548 5      1722.719 5        35.964                  
  24991533.840 7 131328971.193 7     -1987.918 7        44.686                  
  20432416.507 6 107373094.187 6       821.046 6        40.719                  
 02  5 18 00 02 25.0000000  0  5G32G16G27G10G08                                 
  24810907.323 7 130382215.988 7      2979.132 7        44.149                  
  23543138.777 8 123720037.003 8     -3760.369 8        49.382                  
  20506587.891 7 107762838.167 7     -1423.672 7        44.267                  
  21329576.943 7 112084840.094 7      -832.051 7        45.853                  
  20429277.331 7 107356564.501 7       822.531 7        44.708                  
 02  5 18 00 02 26.0000000  0  5G32G16G27G10G08                                 
  24810339.249 7 130379235.589 7      2980.541 7        42.961                  
  23543855.700 8 123723796.360 8     -3761.801 8        49.004                  
  20506870.794 7 107764267.156 7     -1430.096 7        45.649                  
  21329735.763 7 112085673.870 7      -836.988 7        47.863                  
  20429104.949 7 107355740.581 7       820.424 7        45.877                  
 02  5 18 00 02 27.0000000  0  5G32G16G27G10G08                                 
  24809773.462 7 130376255.758 7      2985.116 7        42.943                  
  23544572.444 7 123727556.012 7     -3758.136 7        47.936                  
  20507134.540 8 107765696.968 8     -1431.769 8        48.253                  
  21329900.372 8 112086508.541 8      -837.064 8        49.679                  
  20428975.023 8 107354916.717 8       823.967 8        49.533                  
 02  5 18 00 02 28.0000000  0  5G32G16G27G10G08                                 
  24809195.614 7 130373275.617 7      2987.271 7        44.528                  
  23545285.222 8 123731315.771 8     -3759.531 8        49.277                  
  20507455.843 8 107767127.164 8     -1431.955 8        52.883                  
  21330058.674 8 112087343.554 8      -836.724 8        50.993                  
  20428769.976 8 107354093.620 8       821.810 8        50.632                  
 02  5 18 00 02 29.0000000  0  5G32G16G27G10G08                                 
  24808644.390 7 130370292.417 7      2987.940 7        44.645                  
  23546000.947 7 123735071.495 7     -3746.980 7        47.617                  
  20507661.194 8 107768556.640 8     -1426.875 8        52.228                  
  21330208.274 8 112088179.498 8      -838.532 8        49.104                  
  20428597.629 8 107353271.762 8       821.530 8        53.312                  
 02  5 18 00 02 30.0000000  0  5G32G16G27G10G08                                 
  24808072.903 7 130367301.240 7      2997.237 7        45.465                  
  23546712.813 7 123738807.073 7     -3724.414 7        47.861                  
  20507982.747 8 107769984.365 8     -1427.432 8        51.458                  
  21330376.099 8 112089022.375 8      -845.992 8        49.031                  
  20428438.881 8 107352451.993 8       818.826 8        52.692                  
 02  5 18 00 02 34.0000000  0  6G32G16G27G10G21G08                              
  24805779.628 7 130355288.439 7      3015.041 7        44.416                  
  23549534.672 8 123753638.427 8     -3703.424 8        48.207                  
  20509045.936 8 107775684.334 8     -1423.148 8        52.431                  
  21331021.243 8 112092431.763 8      -851.338 8        48.095                  
  21746378.801 7 114277974.546 7      1737.634 7        45.687                  
  20427884.834 8 107349187.513 8       812.542 8        53.298                  
 02  5 18 00 02 35.0000000  0  6G32G16G27G10G21G08                              
  24805212.001 7 130352273.695 7      3013.333 7        44.869                  
  23550234.047 8 123757330.659 8     -3682.610 8        48.839                  
  20509285.292 8 107777106.723 8     -1423.753 8        51.496                  
  21331171.325 8 112093287.020 8      -858.219 8        49.908                  
  21746042.274 8 114276232.603 8      1746.002 8        48.537                  
  20427695.779 8 107348375.636 8       810.263 8        50.284                  
 02  5 18 00 02 36.0000000  0  6G32G16G27G10G21G08                              
  24804631.258 7 130349246.420 7      3039.285 7        45.269                  
  23550936.693 8 123761008.376 8     -3672.541 8        48.116                  
  20509579.612 7 107778525.115 7     -1412.286 7        46.111                  
  21331351.891 8 112094143.036 8      -854.493 8        50.029                  
  21745713.448 7 114274492.562 7      1735.206 7        47.367                  
  20427565.353 7 107347567.185 7       806.064 7        47.180                  
 02  5 18 00 02 37.0000000  0  7G32G16G27G10G21G23G08                           
  24804050.622 7 130346194.396 7      3064.550 7        45.884                  
  23551634.318 8 123764664.226 8     -3644.861 8        49.464                  
  20509847.666 8 107779935.431 8     -1407.472 8        52.525                  
  21331508.727 8 112094995.918 8      -851.780 8        53.019                  
  21745382.371 8 114272760.154 8      1730.256 8        53.097                  
  23062184.303 8 121192597.817 8     -2865.227 8        50.646                  
  20427411.519 9 107346765.710 9       799.614 9        55.220                  
 02  5 18 00 02 38.0000000  0  7G32G16G27G10G21G23G08                           
  24803467.591 8 130343119.202 8      3085.943 8        48.881                  
  23552323.651 8 123768299.906 8     -3630.005 8        50.184                  
  20510113.878 9 107781338.096 9     -1399.449 9        55.549                  
  21331671.568 8 112095845.810 8      -848.316 8        53.698                  
  21745058.137 8 114271035.053 8      1720.441 8        52.497                  
  23062730.988 8 121195464.610 8     -2867.693 8        50.989                  
  20427259.829 9 107345970.833 9       792.723 9        55.801                  
 02  5 18 00 02 39.0000000  0  7G32G16G27G10G21G23G08                           
  24802880.772 7 130340031.507 7      3086.703 7        46.284                  
  23553014.450 8 123771926.583 8     -3624.151 8        51.667                  
  20510374.855 9 107782736.783 9     -1399.522 9        57.882                  
  21331831.996 8 112096693.297 8      -847.455 8        53.931                  
  21744733.136 8 114269315.204 8      1719.816 8        52.835                  
  23063277.798 8 121198332.717 8     -2866.480 8        49.343                  
  20427109.586 9 107345179.807 9       791.453 9        55.137                  
 02  5 18 00 02 40.0000000  0  7G32G16G27G10G21G23G08                           
  24802293.436 7 130336944.484 7      3088.123 7        47.401                  
  23553702.979 8 123775551.825 8     -3624.439 8        48.996                  
  20510640.032 9 107784136.181 9     -1400.538 9        56.757                  
  21331995.355 8 112097542.698 8      -850.918 8        52.349                  
  21744404.757 8 114267594.164 8      1723.749 8        52.668                  
  23063820.909 8 121201203.504 8     -2874.381 8        49.769                  
  20426959.075 9 107344388.961 9       790.983 9        54.574                  
 02  5 18 00 02 41.0000000  0  7G32G16G27G10G21G23G08                           
  24801708.457 7 130333859.671 7      3078.871 7        44.595                  
  23554394.206 8 123779173.771 8     -3621.615 8        50.183                  
  20510911.891 9 107785536.902 9     -1401.129 9        55.543                  
  21332156.980 8 112098396.066 8      -853.654 8        51.635                  
  21744074.323 8 114265869.593 8      1724.992 8        52.312                  
  23064370.328 8 121204080.219 8     -2878.995 8        50.053                  
  20426808.600 8 107343597.816 8       790.033 8        53.099                  
 02  5 18 00 02 42.0000000  0  7G32G16G27G10G21G23G08                           
  24801119.995 7 130330774.090 7      3086.093 7        47.322                  
  23555083.629 8 123782797.271 8     -3626.177 8        49.886                  
  20511180.838 9 107786937.705 9     -1400.330 9        56.838                  
  21332317.944 8 112099248.698 8      -850.621 8        52.805                  
  21743743.728 8 114264146.888 8      1719.050 8        53.730                  
  23064917.906 8 121206955.069 8     -2871.393 8        48.889                  
  20426658.304 9 107342807.461 9       789.147 9        54.946                  
 02  5 18 00 02 43.0000000  0  7G32G16G27G10G21G23G08                           
  24800531.264 7 130327686.858 7      3088.168 7        47.072                  
  23555773.194 8 123786424.059 8     -3625.834 8        50.444                  
  20511443.101 9 107788338.225 9     -1401.182 9        57.150                  
  21332478.426 8 112100099.032 8      -849.557 8        53.695                  
  21743417.976 8 114262427.839 8      1719.373 8        50.902                  
  23065462.661 8 121209825.426 8     -2869.127 8        50.770                  
  20426508.026 9 107342018.198 9       789.077 9        55.300                  
 02  5 18 00 02 44.0000000  0  7G32G16G27G10G21G23G08                           
  24799944.213 7 130324599.539 7      3086.122 7        47.382                  
  23556463.725 8 123790051.427 8     -3628.210 8        51.431                  
  20511706.419 9 107789739.124 9     -1401.165 9        56.255                  
  21332639.783 9 112100949.626 9      -850.672 9        54.211                  
  21743094.493 8 114260709.534 8      1717.999 8        51.318                  
  23066008.971 8 121212695.547 8     -2872.157 8        50.925                  
  20426358.212 9 107341229.462 9       789.465 9        56.877                  
 02  5 18 00 02 45.0000000  0  7G32G16G27G10G21G23G08                           
  24799354.893 7 130321512.301 7      3085.410 7        47.764                  
  23557152.647 8 123793679.054 8     -3627.613 8        50.193                  
  20511975.902 9 107791140.477 9     -1401.396 9        56.995                  
  21332801.337 8 112101800.753 8      -850.395 8        53.646                  
  21742768.383 8 114258991.599 8      1715.702 8        51.902                  
  23066556.263 8 121215565.966 8     -2870.206 8        50.116                  
  20426208.165 9 107340441.215 9       787.765 9        58.907                  
 02  5 18 00 02 46.0000000  0  7G32G16G27G10G21G23G08                           
  24798766.841 7 130318424.415 7      3087.928 7        46.819                  
  23557845.626 8 123797308.648 8     -3626.742 8        48.759                  
  20512246.475 9 107792541.935 9     -1400.345 9        55.762                  
  21332962.801 9 112102651.004 9      -849.635 9        54.673                  
  21742439.343 8 114257275.676 8      1714.469 8        50.929                  
  23067102.322 8 121218434.124 8     -2866.512 8        50.124                  
  20426058.316 9 107339653.709 9       786.689 9        55.007                  
 02  5 18 00 02 47.0000000  0  7G32G16G27G10G21G23G08                           
  24798177.932 7 130315336.345 7      3087.374 7        45.635                  
  23558535.853 8 123800939.184 8     -3629.950 8        49.707                  
  20512512.848 9 107793943.731 9     -1403.546 9        54.615                  
  21333124.319 8 112103501.278 8      -852.586 8        53.257                  
  21742110.410 8 114255560.775 8      1715.609 8        52.900                  
  23067648.972 8 121221301.587 8     -2868.497 8        50.173                  
  20425908.448 9 107338866.759 9       786.569 9        54.620                  
 02  5 18 00 02 48.0000000  0  7G32G16G27G10G21G23G08                           
  24797590.684 7 130312248.856 7      3087.129 7        46.559                  
  23559225.507 8 123804568.713 8     -3629.610 8        50.971                  
  20512774.683 8 107795346.194 8     -1402.957 8        52.661                  
  21333287.964 8 112104353.109 8      -850.641 8        51.611                  
  21741783.460 8 114253845.078 8      1715.689 8        51.770                  
  23068192.244 8 121224171.118 8     -2871.722 8        50.138                  
  20425758.742 9 107338080.097 9       785.894 9        55.766                  
 02  5 18 00 02 49.0000000  0  7G32G16G27G10G21G23G08                           
  24797003.097 7 130309161.122 7      3090.598 7        47.108                  
  23559917.503 8 123808199.282 8     -3633.885 8        51.003                  
  20513040.092 9 107796748.928 9     -1402.541 9        54.650                  
  21333451.340 8 112105204.859 8      -852.349 8        53.166                  
  21741459.888 8 114252130.519 8      1712.724 8        53.132                  
  23068737.910 8 121227039.829 8     -2865.294 8        51.088                  
  20425609.035 9 107337294.031 9       784.919 9        55.248                  
 02  5 18 00 02 50.0000000  0  7G32G16G27G10G21G23G08                           
  24796418.137 8 130306077.260 8      3074.870 8        48.327                  
  23560608.159 8 123811835.936 8     -3645.508 8        48.624                  
  20513312.487 9 107798153.374 9     -1408.070 9        55.998                  
  21333613.949 8 112106056.305 8      -852.667 8        53.055                  
  21741136.423 9 114250416.700 9      1716.123 9        54.044                  
  23069284.809 8 121229904.986 8     -2866.457 8        50.413                  
  20425459.400 9 107336507.531 9       789.674 9        55.786                  
 02  5 18 00 02 51.0000000  0  7G32G16G27G10G21G23G08                           
  24795836.786 7 130303015.376 7      3050.928 7        47.597                  
  23561304.104 8 123815491.257 8     -3662.873 8        49.686                  
  20513583.828 9 107799565.944 9     -1416.377 9        56.442                  
  21333775.842 9 112106912.156 9      -858.202 9        54.410                  
  21740808.634 9 114248696.152 9      1724.001 9        54.146                  
  23069827.170 8 121232766.022 8     -2861.538 8        49.572                  
  20425308.371 9 107335715.779 9       795.523 9        56.349                  
 02  5 18 00 02 52.0000000  0  7G32G16G27G10G21G23G08                           
  24795261.028 7 130299979.363 7      3021.391 7        47.263                  
  23562005.248 8 123819167.957 8     -3686.680 8        49.476                  
  20513851.542 9 107800988.027 9     -1426.900 9        56.025                  
  21333941.523 9 112107773.346 9      -865.482 9        55.330                  
  21740476.466 8 114246967.307 8      1732.344 8        52.822                  
  23070372.497 8 121235622.814 8     -2856.551 8        50.092                  
  20425156.681 9 107334917.697 9       801.024 9        57.358                  
 02  5 18 00 02 53.0000000  0  7G32G16G27G10G21G23G08                           
  24794684.127 7 130296958.671 7      3021.770 7        47.238                  
  23562705.839 8 123822858.789 8     -3698.299 8        51.407                  
  20514119.416 9 107802415.886 9     -1427.770 9        58.051                  
  21334105.740 9 112108637.148 9      -858.844 9        55.900                  
  21740144.371 8 114245234.520 8      1726.898 8        52.819                  
  23070915.304 8 121238475.589 8     -2842.929 8        49.875                  
  20425004.901 9 107334116.150 9       800.336 9        57.630                  
 02  5 18 00 02 54.0000000  0  7G32G16G27G10G21G23G08                           
  24794106.904 7 130293935.568 7      3020.884 7        47.571                  
  23563411.523 8 123826567.663 8     -3716.960 8        51.842                  
  20514390.186 9 107803842.859 9     -1427.922 9        56.465                  
  21334266.829 8 112109489.759 8      -845.774 8        52.282                  
  21739819.262 8 114243514.922 8      1712.009 8        53.007                  
  23071452.947 8 121241306.455 8     -2820.107 8        50.715                  
  20424853.676 8 107333316.529 8       797.599 8        53.806                  
 02  5 18 00 02 55.0000000  0  7G32G16G27G10G21G23G08                           
  24793530.628 8 130290910.919 8      3027.402 8        48.008                  
  23564122.245 8 123830296.636 8     -3734.359 8        50.333                  
  20514665.780 9 107805269.197 9     -1425.377 9        57.192                  
  21334425.488 8 112110330.530 8      -833.631 8        52.936                  
  21739498.477 8 114241809.073 8      1698.934 8        52.776                  
  23071988.089 8 121244113.633 8     -2796.143 8        49.818                  
  20424702.093 9 107332518.685 9       795.965 9        54.560                  
 02  5 18 00 02 56.0000000  0  7G32G16G27G10G21G23G08                           
  24792954.548 8 130287883.196 8      3028.743 8        48.727                  
  23564833.968 8 123834036.811 8     -3739.871 8        50.818                  
  20514939.837 9 107806694.584 9     -1426.170 9        57.548                  
  21334583.593 8 112111163.551 8      -834.498 8        51.511                  
  21739176.138 8 114240112.816 8      1696.203 8        53.701                  
  23072518.531 8 121246906.191 8     -2791.203 8        49.068                  
  20424551.207 9 107331722.713 9       796.473 9        56.047                  
 02  5 18 00 02 57.0000000  0  7G32G16G27G10G21G23G08                           
  24792380.327 8 130284854.766 8      3029.422 8        48.147                  
  23565544.923 8 123837777.111 8     -3743.196 8        48.564                  
  20515210.392 9 107808120.172 9     -1425.239 9        54.145                  
  21334741.734 8 112111996.703 8      -832.801 8        52.548                  
  21738852.226 9 114238417.456 9      1694.687 9        54.965                  
  23073052.350 8 121249698.586 8     -2791.988 8        50.144                  
  20424400.124 9 107330927.430 9       795.491 9        56.556                  
 02  5 18 00 02 58.0000000  0  7G32G16G27G10G21G23G08                           
  24791805.213 8 130281825.693 8      3027.435 8        48.993                  
  23566256.754 8 123841517.075 8     -3742.258 8        49.295                  
  20515477.176 8 107809545.964 8     -1427.160 8        53.292                  
  21334900.393 9 112112830.285 9      -833.702 9        54.367                  
  21738526.813 9 114236722.680 9      1695.587 9        54.268                  
  23073581.577 8 121252491.406 8     -2791.828 8        49.281                  
  20424249.220 9 107330132.830 9       794.486 9        56.169                  
 02  5 18 00 02 59.0000000  0  7G32G16G27G10G21G23G08                           
  24791229.222 7 130278796.774 7      3029.886 7        46.756                  
  23566969.442 8 123845257.253 8     -3741.668 8        48.090                  
  20515746.712 8 107810972.243 8     -1427.676 8        51.349                  
  21335058.856 9 112113664.454 9      -834.487 9        54.056                  
  21738202.544 8 114235028.169 8      1694.064 8        51.327                  
  23074114.252 8 121255284.603 8     -2795.447 8        50.046                  
  20424098.334 9 107329338.694 9       794.595 9        57.531                  
 02  5 18 00 03  0.0000000  0  7G32G16G27G10G21G23G08                           
  24790651.338 7 130275768.064 7      3028.466 7        46.732                  
  23567680.986 8 123848997.719 8     -3743.573 8        49.988                  
  20516021.574 8 107812399.046 8     -1427.387 8        52.856                  
  21335217.318 9 112114499.229 9      -835.866 9        54.164                  
  21737880.901 8 114233333.892 8      1694.720 8        51.861                  
  23074645.284 8 121258078.153 8     -2795.680 8        51.409                  
  20423947.466 9 107328544.973 9       792.606 9        55.083                  
 02  5 18 00 03  1.0000000  0  7G32G16G27G10G21G23G08                           
  24790072.507 7 130272739.480 7      3030.781 7        46.572                  
  23568391.798 8 123852738.400 8     -3740.676 8        50.959                  
  20516296.346 9 107813826.351 9     -1427.888 9        55.957                  
  21335376.370 9 112115334.599 9      -835.230 9        54.718                  
  21737561.546 8 114231639.869 8      1694.563 8        53.359                  
  23075177.673 8 121260872.088 8     -2794.179 8        51.537                  
  20423796.920 9 107327751.720 9       792.215 9        56.960                  
 02  5 18 00 03  2.0000000  0  7G32G16G27G10G21G23G08                           
  24789495.909 7 130269711.076 7      3027.480 7        46.351                  
  23569103.968 8 123856479.332 8     -3743.542 8        49.675                  
  20516568.920 9 107815254.133 9     -1428.042 9        57.679                  
  21335536.423 9 112116170.591 9      -836.790 9        54.419                  
  21737241.065 8 114229946.108 8      1693.268 8        53.857                  
  23075709.152 8 121263666.373 8     -2795.216 8        50.314                  
  20423646.159 9 107326958.942 9       792.207 9        57.802                  
 02  5 18 00 03  3.0000000  0  7G32G16G27G10G21G23G08                           
  24788921.134 8 130266683.220 8      3025.615 8        48.708                  
  23569816.906 8 123860220.785 8     -3742.473 8        50.389                  
  20516836.258 9 107816682.582 9     -1429.140 9        57.196                  
  21335696.851 9 112117007.270 9      -835.795 9        56.027                  
  21736918.923 9 114228252.429 9      1694.746 9        54.801                  
  23076239.969 8 121266460.995 8     -2793.364 8        48.558                  
  20423495.398 9 107326166.486 9       792.607 9        58.352                  
 02  5 18 00 03  4.0000000  0  7G32G16G27G10G21G23G08                           
  24788348.128 8 130263659.502 8      3017.592 8        48.891                  
  23570527.807 8 123863960.256 8     -3736.162 8        51.564                  
  20517105.884 9 107818113.060 9     -1433.053 9        57.161                  
  21335857.905 9 112117848.445 9      -848.126 9        56.496                  
  21736593.885 8 114226554.371 8      1703.997 8        53.428                  
  23076774.396 8 121269261.555 8     -2811.264 8        48.251                  
  20423344.655 9 107325373.231 9       794.838 9        57.567                  
 02  5 18 00 03  5.0000000  0  7G32G16G27G10G21G23G08                           
  24787775.712 7 130260648.280 7      3005.746 7        47.128                  
  23571236.332 8 123867689.100 8     -3722.091 8        50.672                  
  20517379.959 9 107819548.877 9     -1438.400 9        58.356                  
  21336021.013 9 112118704.415 9      -863.859 9        55.965                  
  21736264.237 8 114224839.780 8      1724.521 8        51.674                  
  23077309.698 8 121272084.262 8     -2833.099 8        49.290                  
  20423193.518 9 107324576.363 9       798.639 9        56.096                  
 02  5 18 00 03  6.0000000  0  7G32G16G27G10G21G23G08                           
  24787203.171 8 130257649.323 8      2993.839 8        48.748                  
  23571945.053 8 123871405.799 8     -3714.320 8        49.358                  
  20517658.394 9 107820989.997 9     -1443.184 9        56.922                  
