$GPRMC,000030.00,A,4852.4663313,N,00217.5805418,E,1.19,0.00,180502,0.0,E,A*3D
$GPGGA,000030.00,4852.4663313,N,00217.5805418,E,1,06,1.0,-8.465,M,0.000,M,0.0,*58
$GPGSA,A,3,01,08,10,16,21,23,,,,,,,2.2,1.3,1.8,1*29
$GPGSV,2,1,06,01,15,255,47,08,73,299,56,10,56,076,54,16,27,182,50,1*66
$GPGSV,2,2,06,21,45,263,53,23,28,048,50,,,,,,,,,1*63
$GPRMC,000031.00,A,4852.4661154,N,00217.5818177,E,0.51,0.00,180502,0.0,E,A*32
$GPGGA,000031.00,4852.4661154,N,00217.5818177,E,1,06,1.0,-9.667,M,0.000,M,0.0,*5B
$GPGSA,A,3,01,08,10,16,21,23,,,,,,,2.2,1.3,1.8,1*29
$GPGSV,2,1,06,01,15,255,47,08,73,299,57,10,56,076,54,16,27,182,50,1*67
$GPGSV,2,2,06,21,45,263,54,23,28,048,50,,,,,,,,,1*64
$GPRMC,000032.00,A,4852.4667161,N,00217.5821047,E,1.28,0.00,180502,0.0,E,A*36
$GPGGA,000032.00,4852.4667161,N,00217.5821047,E,1,06,1.0,-15.249,M,0.000,M,0.0,*65
$GPGSA,A,3,01,08,10,16,21,23,,,,,,,2.2,1.3,1.8,1*29
$GPGSV,2,1,06,01,15,255,48,08,73,299,57,10,56,076,54,16,27,182,50,1*68
$GPGSV,2,2,06,21,45,263,53,23,28,048,51,,,,,,,,,1*62
$GPRMC,000033.00,A,4852.4665493,N,00217.5807033,E,1.53,0.00,180502,0.0,E,A*36
$GPGGA,000033.00,4852.4665493,N,00217.5807033,E,1,06,1.0,-15.275,M,0.000,M,0.0,*66
$GPGSA,A,3,01,08,10,16,21,23,,,,,,,2.2,1.3,1.8,1*29
$GPGSV,2,1,06,01,15,255,48,08,73,299,56,10,56,076,54,16,27,182,49,1*61
$GPGSV,2,2,06,21,45,263,54,23,28,048,50,,,,,,,,,1*64
$GPRMC,000034.00,A,4852.4669741,N,00217.5813555,E,1.86,0.00,180502,0.0,E,A*39
$GPGGA,000034.00,4852.4669741,N,00217.5813555,E,1,06,1.0,-13.892,M,0.000,M,0.0,*64
$GPGSA,A,3,01,08,10,16,21,23,,,,,,,2.2,1.3,1.8,1*29
$GPGSV,2,1,06,01,15,255,48,08,73,299,56,10,56,076,54,16,27,182,50,1*69
$GPGSV,2,2,06,21,45,263,52,23,28,048,50,,,,,,,,,1*62
$GPRMC,000035.00,A,4852.4661339,N,00217.5809296,E,0.37,0.00,180502,0.0,E,A*33
$GPGGA,000035.00,4852.4661339,N,00217.5809296,E,1,06,1.0,-7.628,M,0.000,M,0.0,*5F
$GPGSA,A,3,01,08,10,16,21,23,,,,,,,2.2,1.3,1.8,1*29
$GPGSV,2,1,06,01,15,255,47,08,73,299,58,10,56,076,57,16,27,182,50,1*6B
$GPGSV,2,2,06,21,45,263,52,23,27,048,51,,,,,,,,,1*6C
$GPRMC,000036.00,A,4852.4672647,N,00217.5796871,E,0.97,0.00,180502,0.0,E,A*3E
$GPGGA,000036.00,4852.4672647,N,00217.5796871,E,1,06,1.0,-8.324,M,0.000,M,0.0,*5E
$GPGSA,A,3,01,08,10,16,21,23,,,,,,,2.2,1.3,1.8,1*29
$GPGSV,2,1,06,01,15,255,49,08,73,299,57,10,56,076,57,16,27,182,51,1*6B
$GPGSV,2,2,06,21,45,263,54,23,27,048,50,,,,,,,,,1*6B
$GPRMC,000037.00,A,4852.4677725,N,00217.5784022,E,0.60,0.00,180502,0.0,E,A*3A
$GPGGA,000037.00,4852.4677725,N,00217.5784022,E,1,06,1.0,-2.643,M,0.000,M,0.0,*5C
$GPGSA,A,3,01,08,10,16,21,23,,,,,,,2.2,1.3,1.8,1*29
$GPGSV,2,1,06,01,15,255,47,08,73,299,59,10,56,076,56,16,27,182,49,1*63
$GPGSV,2,2,06,21,45,263,53,23,27,048,50,,,,,,,,,1*6C
$GPRMC,000038.00,A,4852.4663927,N,00217.5802158,E,0.52,0.00,180502,0.0,E,A*30
$GPGGA,000038.00,4852.4663927,N,00217.5802158,E,1,06,1.0,-2.079,M,0.000,M,0.0,*58
$GPGSA,A,3,01,08,10,16,21,23,,,,,,,2.2,1.3,1.8,1*29
$GPGSV,2,1,06,01,15,255,48,08,73,299,55,10,56,076,55,16,27,182,50,1*6B
$GPGSV,2,2,06,21,45,263,53,23,27,048,50,,,,,,,,,1*6C
$GPRMC,000039.00,A,4852.4669101,N,00217.5809104,E,0.81,0.00,180502,0.0,E,A*3B
$GPGGA,000039.00,4852.4669101,N,00217.5809104,E,1,06,1.0,-7.816,M,0.000,M,0.0,*59
$GPGSA,A,3,01,08,10,16,21,23,,,,,,,2.2,1.3,1.8,1*29
$GPGSV,2,1,06,01,15,255,48,08,73,299,56,10,56,076,54,16,27,182,50,1*69
$GPGSV,2,2,06,21,45,263,52,23,27,048,52,,,,,,,,,1*6F
$GPRMC,000040.00,A,4852.4670744,N,00217.5786803,E,1.66,0.00,180502,0.0,E,A*34
$GPGGA,000040.00,4852.4670744,N,00217.5786803,E,1,06,1.0,-7.089,M,0.000,M,0.0,*50
$GPGSA,A,3,01,08,10,16,21,23,,,,,,,2.2,1.3,1.8,1*29
$GPGSV,2,1,06,01,15,255,48,08,73,299,57,10,56,076,55,16,27,182,50,1*69
$GPGSV,2,2,06,21,45,263,52,23,27,048,50,,,,,,,,,1*6D
$GPRMC,000041.00,A,4852.4665896,N,00217.5803987,E,0.56,0.00,180502,0.0,E,A*3C
$GPGGA,000041.00,4852.4665896,N,00217.5803987,E,1,06,1.0,-10.989,M,0.000,M,0.0,*65
$GPGSA,A,3,01,08,10,16,21,23,,,,,,,2.2,1.3,1.8,1*29
$GPGSV,2,1,06,01,15,255,47,08,73,299,55,10,56,076,54,16,27,182,50,1*65
$GPGSV,2,2,06,21,45,263,54,23,27,048,50,,,,,,,,,1*6B
$GPRMC,000042.00,A,4852.4658065,N,00217.5821156,E,0.85,0.00,180502,0.0,E,A*3F
$GPGGA,000042.00,4852.4658065,N,00217.5821156,E,1,06,1.0,-14.025,M,0.000,M,0.0,*63
$GPGSA,A,3,01,08,10,16,21,23,,,,,,,2.2,1.3,1.8,1*29
$GPGSV,2,1,06,01,15,255,49,08,73,299,57,10,56,076,54,16,27,182,50,1*69
$GPGSV,2,2,06,21,45,263,53,23,27,048,50,,,,,,,,,1*6C
$GPRMC,000043.00,A,4852.4668102,N,00217.5812888,E,0.92,0.00,180502,0.0,E,A*31
$GPGGA,000043.00,4852.4668102,N,00217.5812888,E,1,06,1.0,-16.799,M,0.000,M,0.0,*69
$GPGSA,A,3,01,08,10,16,21,23,,,,,,,2.2,1.3,1.8,1*29
$GPGSV,2,1,06,01,15,255,47,08,73,299,56,10,56,076,54,16,27,182,48,1*6F
$GPGSV,2,2,06,21,45,263,54,23,27,048,52,,,,,,,,,1*69
$GPRMC,000044.00,A,4852.4663797,N,00217.5806634,E,0.70,0.00,180502,0.0,E,A*37
$GPGGA,000044.00,4852.4663797,N,00217.5806634,E,1,06,1.0,-13.098,M,0.000,M,0.0,*60
$GPGSA,A,3,01,08,10,16,21,23,,,,,,,2.2,1.3,1.8,1*29
$GPGSV,2,1,06,01,15,255,49,08,73,299,58,10,56,076,56,16,27,182,48,1*6D
$GPGSV,2,2,06,21,45,263,52,23,27,048,51,,,,,,,,,1*6C
$GPRMC,000045.00,A,4852.4664186,N,00217.5802643,E,0.42,0.00,180502,0.0,E,A*32
$GPGGA,000045.00,4852.4664186,N,00217.5802643,E,1,06,1.0,-10.446,M,0.000,M,0.0,*60
$GPGSA,A,3,01,08,10,16,21,23,,,,,,,2.2,1.3,1.8,1*29
$GPGSV,2,1,06,01,15,255,48,08,73,299,57,10,56,076,56,16,27,182,48,1*63
$GPGSV,2,2,06,21,45,263,52,23,27,048,50,,,,,,,,,1*6D
$GPRMC,000046.00,A,4852.4673126,N,00217.5808439,E,0.48,0.00,180502,0.0,E,A*32
$GPGGA,000046.00,4852.4673126,N,00217.5808439,E,1,06,1.0,-11.130,M,0.000,M,0.0,*6F
$GPGSA,A,3,01,08,10,16,21,23,,,,,,,2.2,1.3,1.8,1*29
$GPGSV,2,1,06,01,15,255,49,08,73,299,55,10,56,076,56,16,27,182,48,1*60
$GPGSV,2,2,06,21,45,263,51,23,27,048,50,,,,,,,,,1*6E
$GPRMC,000047.00,A,4852.4662501,N,00217.5797072,E,1.51,0.00,180502,0.0,E,A*39
$GPGGA,000047.00,4852.4662501,N,00217.5797072,E,1,06,1.0,-4.132,M,0.000,M,0.0,*5B
$GPGSA,A,3,01,08,10,16,21,23,,,,,,,2.2,1.3,1.8,1*29
$GPGSV,2,1,06,01,15,255,50,08,73,299,57,10,56,076,58,16,27,182,49,1*65
$GPGSV,2,2,06,21,45,263,52,23,27,048,52,,,,,,,,,1*6F
$GPRMC,000048.00,A,4852.4673834,N,00217.5779784,E,1.27,0.00,180502,0.0,E,A*32
$GPGGA,000048.00,4852.4673834,N,00217.5779784,E,1,06,1.0,-2.673,M,0.000,M,0.0,*55
$GPGSA,A,3,01,08,10,16,21,23,,,,,,,2.2,1.3,1.8,1*29
$GPGSV,2,1,06,01,15,255,50,08,73,299,57,10,56,076,55,16,27,182,49,1*68
$GPGSV,2,2,06,21,45,263,54,23,27,048,49,,,,,,,,,1*63
$GPRMC,000049.00,A,4852.4673379,N,00217.5791564,E,1.34,0.00,180502,0.0,E,A*39
$GPGGA,000049.00,4852.4673379,N,00217.5791564,E,1,06,1.0,-5.460,M,0.000,M,0.0,*5B
$GPGSA,A,3,01,08,10,16,21,23,,,,,,,2.2,1.3,1.8,1*29
$GPGSV,2,1,06,01,15,255,49,08,73,299,57,10,56,076,54,16,27,182,49,1*61
$GPGSV,2,2,06,21,45,263,51,23,27,048,50,,,,,,,,,1*6E
$GPRMC,000050.00,A,4852.4658736,N,00217.5810022,E,1.15,0.00,180502,0.0,E,A*35
$GPGGA,000050.00,4852.4658736,N,00217.5810022,E,1,06,1.0,-6.783,M,0.000,M,0.0,*59
$GPGSA,A,3,01,08,10,16,21,23,,,,,,,2.2,1.3,1.8,1*29
$GPGSV,2,1,06,01,15,255,49,08,73,299,56,10,56,076,55,16,27,182,51,1*68
$GPGSV,2,2,06,21,45,263,52,23,27,048,51,,,,,,,,,1*6C
$GPRMC,000051.00,A,4852.4672268,N,00217.5807764,E,1.18,0.00,180502,0.0,E,A*3C
$GPGGA,000051.00,4852.4672268,N,00217.5807764,E,1,06,1.0,-9.653,M,0.000,M,0.0,*5E
$GPGSA,A,3,01,08,10,16,21,23,,,,,,,2.2,1.3,1.8,1*29
$GPGSV,2,1,06,01,15,255,49,08,73,299,57,10,56,076,55,16,27,182,52,1*6A
$GPGSV,2,2,06,21,45,263,54,23,27,048,53,,,,,,,,,1*68
$GPRMC,000052.00,A,4852.4667991,N,00217.5797936,E,1.93,0.00,180502,0.0,E,A*3A
$GPGGA,000052.00,4852.4667991,N,00217.5797936,E,1,06,1.0,-10.159,M,0.000,M,0.0,*6E
$GPGSA,A,3,01,08,10,16,21,23,,,,,,,2.2,1.3,1.8,1*29
$GPGSV,2,1,06,01,15,255,48,08,73,299,56,10,56,076,56,16,27,182,49,1*63
$GPGSV,2,2,06,21,45,263,54,23,27,048,51,,,,,,,,,1*6A
$GPRMC,000053.00,A,4852.4662646,N,00217.5818371,E,1.45,0.00,180502,0.0,E,A*31
$GPGGA,000053.00,4852.4662646,N,00217.5818371,E,1,06,1.0,-15.882,M,0.000,M,0.0,*64
$GPGSA,A,3,01,08,10,16,21,23,,,,,,,2.2,1.3,1.8,1*29
$GPGSV,2,1,06,01,15,255,48,08,73,299,57,10,56,076,56,16,27,182,49,1*62
$GPGSV,2,2,06,21,45,263,52,23,27,048,49,,,,,,,,,1*65
$GPRMC,000054.00,A,4852.4663005,N,00217.5830727,E,0.43,0.00,180502,0.0,E,A*3C
$GPGGA,000054.00,4852.4663005,N,00217.5830727,E,1,06,1.0,-15.856,M,0.000,M,0.0,*67
$GPGSA,A,3,01,08,10,16,21,23,,,,,,,2.2,1.3,1.8,1*29
$GPGSV,2,1,06,01,15,255,49,08,73,299,57,10,56,076,55,16,27,182,50,1*68
$GPGSV,2,2,06,21,45,263,53,23,27,048,49,,,,,,,,,1*64
$GPRMC,000055.00,A,4852.4663828,N,00217.5811233,E,0.51,0.00,180502,0.0,E,A*3A
$GPGGA,000055.00,4852.4663828,N,00217.5811233,E,1,06,1.0,-12.175,M,0.000,M,0.0,*6D
$GPGSA,A,3,01,08,10,16,21,23,,,,,,,2.2,1.3,1.8,1*29
$GPGSV,2,1,06,01,15,255,49,08,73,299,59,10,56,076,58,16,27,182,51,1*6A
$GPGSV,2,2,06,21,45,263,52,23,27,048,50,,,,,,,,,1*6D
$GPRMC,000056.00,A,4852.4665103,N,00217.5809184,E,1.13,0.00,180502,0.0,E,A*3E
$GPGGA,000056.00,4852.4665103,N,00217.5809184,E,1,06,1.0,-11.088,M,0.000,M,0.0,*6E
$GPGSA,A,3,01,08,10,16,21,23,,,,,,,2.2,1.3,1.8,1*29
$GPGSV,2,1,06,01,15,255,48,08,73,299,58,10,56,076,56,16,27,182,48,1*6C
$GPGSV,2,2,06,21,45,263,54,23,27,048,50,,,,,,,,,1*6B
$GPRMC,000057.00,A,4852.4663085,N,00217.5814163,E,1.85,0.00,180502,0.0,E,A*3C
$GPGGA,000057.00,4852.4663085,N,00217.5814163,E,1,06,1.0,-6.170,M,0.000,M,0.0,*53
$GPGSA,A,3,01,08,10,16,21,23,,,,,,,2.2,1.3,1.8,1*29
$GPGSV,2,1,06,01,16,255,50,08,73,299,57,10,56,076,55,16,27,182,50,1*63
$GPGSV,2,2,06,21,45,263,53,23,27,048,50,,,,,,,,,1*6C
$GPRMC,000058.00,A,4852.4667395,N,00217.5817066,E,1.14,0.00,180502,0.0,E,A*3A
$GPGGA,000058.00,4852.4667395,N,00217.5817066,E,1,06,1.0,-5.203,M,0.000,M,0.0,*59
$GPGSA,A,3,01,08,10,16,21,23,,,,,,,2.2,1.3,1.8,1*29
$GPGSV,2,1,06,01,16,255,48,08,73,299,57,10,56,076,56,16,27,182,51,1*68
$GPGSV,2,2,06,21,45,263,52,23,27,048,50,,,,,,,,,1*6D
$GPRMC,000059.00,A,4852.4667799,N,00217.5797866,E,0.81,0.00,180502,0.0,E,A*31
$GPGGA,000059.00,4852.4667799,N,00217.5797866,E,1,06,1.0,-0.565,M,0.000,M,0.0,*5D
$GPGSA,A,3,01,08,10,16,21,23,,,,,,,2.2,1.3,1.8,1*29
$GPGSV,2,1,06,01,16,255,50,08,73,299,57,10,56,076,57,16,26,182,52,1*62
$GPGSV,2,2,06,21,45,263,53,23,27,048,51,,,,,,,,,1*6D
$GPRMC,000100.00,A,4852.4668522,N,00217.5792818,E,0.66,0.00,180502,0.0,E,A*34
$GPGGA,000100.00,4852.4668522,N,00217.5792818,E,1,06,1.0,0.163,M,0.000,M,0.0,*7E
$GPGSA,A,3,01,08,10,16,21,23,,,,,,,2.2,1.3,1.8,1*29
$GPGSV,2,1,06,01,16,255,49,08,73,299,56,10,56,076,57,16,26,182,50,1*69
$GPGSV,2,2,06,21,45,263,53,23,27,048,50,,,,,,,,,1*6C
$GPRMC,000101.00,A,4852.4665942,N,00217.5817467,E,0.61,0.00,180502,0.0,E,A*33
$GPGGA,000101.00,4852.4665942,N,00217.5817467,E,1,06,1.0,-4.779,M,0.000,M,0.0,*5A
$GPGSA,A,3,01,08,10,16,21,23,,,,,,,2.2,1.3,1.8,1*29
$GPGSV,2,1,06,01,16,255,48,08,73,299,55,10,56,076,55,16,26,182,50,1*69
$GPGSV,2,2,06,21,45,263,52,23,27,048,51,,,,,,,,,1*6C
$GPRMC,000102.00,A,4852.4656154,N,00217.5811587,E,0.51,0.00,180502,0.0,E,A*35
$GPGGA,000102.00,4852.4656154,N,00217.5811587,E,1,06,1.0,-5.520,M,0.000,M,0.0,*50
$GPGSA,A,3,01,08,10,16,21,23,,,,,,,2.2,1.3,1.8,1*29
$GPGSV,2,1,06,01,16,255,49,08,73,299,56,10,56,076,55,16,26,182,49,1*63
$GPGSV,2,2,06,21,45,263,53,23,27,048,50,,,,,,,,,1*6C
$GPRMC,000103.00,A,4852.4671891,N,00217.5809529,E,1.54,0.00,180502,0.0,E,A*38
$GPGGA,000103.00,4852.4671891,N,00217.5809529,E,1,06,1.0,-9.055,M,0.000,M,0.0,*52
$GPGSA,A,3,01,08,10,16,21,23,,,,,,,2.2,1.3,1.8,1*29
$GPGSV,2,1,06,01,16,255,48,08,73,299,56,10,56,076,56,16,26,182,50,1*69
$GPGSV,2,2,06,21,45,263,53,23,27,048,51,,,,,,,,,1*6D
$GPRMC,000104.00,A,4852.4664063,N,00217.5814755,E,1.63,0.00,180502,0.0,E,A*3F
$GPGGA,000104.00,4852.4664063,N,00217.5814755,E,1,06,1.0,-9.877,M,0.000,M,0.0,*59
$GPGSA,A,3,01,08,10,16,21,23,,,,,,,2.2,1.3,1.8,1*29
$GPGSV,2,1,06,01,16,255,47,08,73,299,58,10,56,076,56,16,26,182,50,1*68
$GPGSV,2,2,06,21,45,263,54,23,27,048,50,,,,,,,,,1*6B
$GPRMC,000105.00,A,4852.4657227,N,00217.5829250,E,2.03,353.61,180502,0.0,E,A*35
$GPGGA,000105.00,4852.4657227,N,00217.5829250,E,1,06,1.0,-13.324,M,0.000,M,0.0,*62
$GPGSA,A,3,01,08,10,16,21,23,,,,,,,2.2,1.3,1.8,1*29
$GPGSV,2,1,06,01,16,255,48,08,73,299,58,10,56,076,56,16,26,182,50,1*67
$GPGSV,2,2,06,21,45,263,53,23,27,048,50,,,,,,,,,1*6C
$GPRMC,000106.00,A,4852.4668528,N,00217.5826110,E,1.12,353.61,180502,0.0,E,A*39
$GPGGA,000106.00,4852.4668528,N,00217.5826110,E,1,06,1.0,-17.997,M,0.000,M,0.0,*6B
$GPGSA,A,3,01,08,10,16,21,23,,,,,,,2.2,1.3,1.8,1*29
$GPGSV,2,1,06,01,16,255,48,08,73,299,56,10,56,076,55,16,26,182,51,1*6B
$GPGSV,2,2,06,21,45,263,53,23,27,048,50,,,,,,,,,1*6C
$GPRMC,000107.00,A,4852.4662996,N,00217.5809576,E,0.90,353.61,180502,0.0,E,A*39
$GPGGA,000107.00,4852.4662996,N,00217.5809576,E,1,06,1.0,-11.591,M,0.000,M,0.0,*6C
$GPGSA,A,3,01,08,10,16,21,23,,,,,,,2.2,1.3,1.8,1*29
$GPGSV,2,1,06,01,16,255,47,08,73,299,56,10,56,076,54,16,26,182,50,1*64
$GPGSV,2,2,06,21,45,263,51,23,27,048,51,,,,,,,,,1*6F
$GPRMC,000108.00,A,4852.4656383,N,00217.5827138,E,10.84,114.76,180502,0.0,E,A*0E
$GPGGA,000108.00,4852.4656383,N,00217.5827138,E,1,06,1.0,-11.176,M,0.000,M,0.0,*65
$GPGSA,A,3,01,08,10,16,21,23,,,,,,,2.2,1.3,1.8,1*29
$GPGSV,2,1,06,01,16,255,47,08,73,299,58,10,56,076,50,16,26,182,54,1*6A
$GPGSV,2,2,06,21,45,263,49,23,27,048,47,,,,,,,,,1*61
$GPRMC,000109.00,A,4852.4642978,N,00217.5887173,E,20.83,115.17,180502,0.0,E,A*03
$GPGGA,000109.00,4852.4642978,N,00217.5887173,E,1,06,1.0,-12.230,M,0.000,M,0.0,*68
$GPGSA,A,3,01,08,10,16,21,23,,,,,,,2.2,1.3,1.8,1*29
$GPGSV,2,1,06,01,16,255,46,08,73,299,49,10,56,076,52,16,26,182,52,1*6F
$GPGSV,2,2,06,21,45,263,52,23,27,048,50,,,,,,,,,1*6D
$GPRMC,000110.00,A,4852.4610424,N,00217.5994424,E,26.75,106.47,180502,0.0,E,A*04
$GPGGA,000110.00,4852.4610424,N,00217.5994424,E,1,06,1.0,-8.474,M,0.000,M,0.0,*5A
$GPGSA,A,3,01,08,10,16,21,23,,,,,,,2.2,1.3,1.8,1*29
$GPGSV,2,1,06,01,16,255,46,08,73,299,55,10,56,076,50,16,26,182,46,1*65
$GPGSV,2,2,06,21,45,263,52,23,27,048,46,,,,,,,,,1*6A
$GPRMC,000111.00,A,4852.4589282,N,00217.6097464,E,30.73,111.84,180502,0.0,E,A*09
$GPGGA,000111.00,4852.4589282,N,00217.6097464,E,1,06,1.0,-4.299,M,0.000,M,0.0,*56
$GPGSA,A,3,01,08,10,16,21,23,,,,,,,2.2,1.3,1.8,1*29
$GPGSV,2,1,06,01,16,255,48,08,73,299,57,10,56,076,51,16,26,182,46,1*68
$GPGSV,2,2,06,21,45,263,51,23,27,048,48,,,,,,,,,1*67
$GPRMC,000112.00,A,4852.4559836,N,00217.6223279,E,29.49,114.02,180502,0.0,E,A*0F
$GPGGA,000112.00,4852.4559836,N,00217.6223279,E,1,06,1.0,-8.261,M,0.000,M,0.0,*51
$GPGSA,A,3,01,08,10,16,21,23,,,,,,,2.2,1.3,1.8,1*29
$GPGSV,2,1,06,01,16,255,42,08,73,299,54,10,56,076,53,16,26,182,45,1*60
$GPGSV,2,2,06,21,45,263,53,23,27,048,46,,,,,,,,,1*6B
$GPRMC,000113.00,A,4852.4522890,N,00217.6313880,E,22.39,116.43,180502,0.0,E,A*0B
$GPGGA,000113.00,4852.4522890,N,00217.6313880,E,1,06,1.0,-1.185,M,0.000,M,0.0,*5E
$GPGSA,A,3,01,08,10,16,21,23,,,,,,,2.2,1.3,1.8,1*29
$GPGSV,2,1,06,01,16,255,40,08,73,299,46,10,56,076,46,16,26,182,39,1*6E
$GPGSV,2,2,06,21,45,263,43,23,27,048,48,,,,,,,,,1*64
$GPRMC,000114.00,A,4852.4502428,N,00217.6413234,E,17.86,85.72,180502,0.0,E,A*38
$GPGGA,000114.00,4852.4502428,N,00217.6413234,E,1,06,1.0,-4.219,M,0.000,M,0.0,*55
$GPGSA,A,3,01,08,10,16,21,23,,,,,,,2.2,1.3,1.8,1*29
$GPGSV,2,1,06,01,16,255,43,08,73,299,48,10,56,076,52,16,26,182,36,1*69
$GPGSV,2,2,06,21,45,263,48,23,27,048,43,,,,,,,,,1*64
$GPRMC,000115.00,A,4852.4517895,N,00217.6483787,E,24.11,99.77,180502,0.0,E,A*35
$GPGGA,000115.00,4852.4517895,N,00217.6483787,E,1,06,1.0,-5.365,M,0.000,M,0.0,*55
$GPGSA,A,3,01,08,10,16,21,23,,,,,,,2.2,1.3,1.8,1*29
$GPGSV,2,1,06,01,16,255,37,08,73,299,53,10,56,076,42,16,26,182,36,1*61
$GPGSV,2,2,06,21,45,263,41,23,27,048,37,,,,,,,,,1*6E
$GPRMC,000116.00,A,4852.4498595,N,00217.6541879,E,9.66,87.91,180502,0.0,E,A*04
$GPGGA,000116.00,4852.4498595,N,00217.6541879,E,1,06,1.0,-2.409,M,0.000,M,0.0,*56
$GPGSA,A,3,01,08,10,16,21,23,,,,,,,2.2,1.3,1.8,1*29
$GPGSV,2,1,06,01,16,255,35,08,73,298,50,10,56,076,38,16,26,182,36,1*6C
$GPGSV,2,2,06,21,45,263,37,23,27,048,35,,,,,,,,,1*6D
$GPRMC,000117.00,A,4852.4526940,N,00217.6562656,E,10.33,52.02,180502,0.0,E,A*3D
$GPGGA,000117.00,4852.4526940,N,00217.6562656,E,1,06,1.0,-3.984,M,0.000,M,0.0,*5C
$GPGSA,A,3,01,08,10,16,21,23,,,,,,,2.2,1.3,1.8,1*29
$GPGSV,2,1,06,01,16,255,36,08,73,298,50,10,56,076,39,16,26,182,35,1*6D
$GPGSV,2,2,06,21,45,263,39,23,27,048,35,,,,,,,,,1*63
$GPRMC,000118.00,A,4852.4545776,N,00217.6612832,E,14.30,32.87,180502,0.0,E,A*38
$GPGGA,000118.00,4852.4545776,N,00217.6612832,E,1,06,1.0,-10.286,M,0.000,M,0.0,*6E
$GPGSA,A,3,01,08,10,16,21,23,,,,,,,2.2,1.3,1.8,1*29
$GPGSV,2,1,06,01,16,255,35,08,73,298,45,10,56,076,37,16,26,182,35,1*64
$GPGSV,2,2,06,21,45,263,37,23,27,048,35,,,,,,,,,1*6D
$GPRMC,000119.00,A,4852.4581523,N,00217.6671066,E,21.36,14.41,180502,0.0,E,A*31
$GPGGA,000119.00,4852.4581523,N,00217.6671066,E,1,06,1.0,-11.255,M,0.000,M,0.0,*66
$GPGSA,A,3,01,08,10,16,21,23,,,,,,,2.2,1.3,1.8,1*29
$GPGSV,2,1,06,01,16,255,35,08,74,298,42,10,56,076,38,16,26,182,36,1*68
$GPGSV,2,2,06,21,45,263,39,23,27,048,35,,,,,,,,,1*63
$GPRMC,000148.00,A,4852.6549649,N,00217.5792771,E,34.98,42.89,180502,0.0,E,A*35
$GPGGA,000148.00,4852.6549649,N,00217.5792771,E,1,04,1.0,-27.185,M,0.000,M,0.0,*6C
$GPGSA,A,3,08,10,16,21,,,,,,,,,8.9,3.8,8.1,1*21
$GPGSV,1,1,04,08,74,298,44,10,55,076,36,16,26,182,48,21,45,263,39,1*66
$GPRMC,000149.00,A,4852.6594046,N,00217.5869199,E,34.92,43.49,180502,0.0,E,A*31
$GPGGA,000149.00,4852.6594046,N,00217.5869199,E,1,04,1.0,-22.132,M,0.000,M,0.0,*66
$GPGSA,A,3,08,10,16,21,,,,,,,,,8.9,3.8,8.1,1*21
$GPGSV,1,1,04,08,74,298,43,10,55,076,36,16,26,182,48,21,45,263,38,1*60
$GPRMC,000150.00,A,4852.6550532,N,00217.5970996,E,41.78,35.39,180502,0.0,E,A*39
$GPGGA,000150.00,4852.6550532,N,00217.5970996,E,1,04,1.0,23.478,M,0.000,M,0.0,*49
$GPGSA,A,3,08,10,16,21,,,,,,,,,8.9,3.8,8.1,1*21
$GPGSV,1,1,04,08,74,298,42,10,55,076,35,16,26,182,49,21,45,263,37,1*6C
$GPRMC,000151.00,A,4852.6626342,N,00217.6070044,E,33.16,35.27,180502,0.0,E,A*35
$GPGGA,000151.00,4852.6626342,N,00217.6070044,E,1,04,1.0,20.502,M,0.000,M,0.0,*48
$GPGSA,A,3,08,10,16,21,,,,,,,,,8.9,3.8,8.1,1*21
$GPGSV,1,1,04,08,74,298,42,10,55,076,35,16,26,182,48,21,45,263,37,1*6D
$GPRMC,000152.00,A,4852.6665814,N,00217.6161542,E,54.84,32.61,180502,0.0,E,A*34
$GPGGA,000152.00,4852.6665814,N,00217.6161542,E,1,04,1.0,38.575,M,0.000,M,0.0,*4F
$GPGSA,A,3,08,10,16,21,,,,,,,,,8.9,3.8,8.1,1*21
$GPGSV,1,1,04,08,74,298,41,10,55,075,35,16,26,182,48,21,45,263,36,1*6C
$GPRMC,000212.00,A,4852.8126696,N,00217.7098321,E,31.04,24.65,180502,0.0,E,A*34
$GPGGA,000212.00,4852.8126696,N,00217.7098321,E,1,04,1.0,12.208,M,0.000,M,0.0,*42
$GPGSA,A,3,08,10,16,27,,,,,,,,,6.4,3.3,5.5,1*26
$GPGSV,1,1,04,08,74,298,45,10,55,075,46,16,26,182,50,27,69,121,44,1*6D
$GPRMC,000213.00,A,4852.8414309,N,00217.6896497,E,31.03,19.68,180502,0.0,E,A*3B
$GPGGA,000213.00,4852.8414309,N,00217.6896497,E,1,04,1.0,-40.392,M,0.000,M,0.0,*61
$GPGSA,A,3,08,10,16,27,,,,,,,,,6.4,3.3,5.5,1*26
$GPGSV,1,1,04,08,74,298,46,10,55,075,48,16,26,182,49,27,69,121,46,1*6A
$GPRMC,000214.00,A,4852.8230201,N,00217.7252515,E,32.20,14.15,180502,0.0,E,A*38
$GPGGA,000214.00,4852.8230201,N,00217.7252515,E,1,04,1.0,24.727,M,0.000,M,0.0,*42
$GPGSA,A,3,08,10,16,27,,,,,,,,,6.4,3.3,5.5,1*26
$GPGSV,1,1,04,08,74,298,50,10,55,075,50,16,26,182,48,27,69,121,48,1*6B
$GPRMC,000215.00,A,4852.9114857,N,00217.6433052,E,32.29,16.29,180502,0.0,E,A*36
$GPGGA,000215.00,4852.9114857,N,00217.6433052,E,1,04,1.0,-214.814,M,0.000,M,0.0,*5B
$GPGSA,A,3,08,10,16,27,,,,,,,,,6.4,3.3,5.5,1*26
$GPGSV,1,1,04,08,74,298,51,10,55,075,51,16,26,182,49,27,69,121,53,1*60
$GPRMC,000216.00,A,4852.8586524,N,00217.6804111,E,26.39,20.63,180502,0.0,E,A*33
$GPGGA,000216.00,4852.8586524,N,00217.6804111,E,1,04,1.0,49.799,M,0.000,M,0.0,*4C
$GPGSA,A,3,08,10,16,27,,,,,,,,,6.4,3.3,5.5,1*26
$GPGSV,1,1,04,08,74,298,53,10,55,075,49,16,26,182,48,27,69,121,52,1*6B
$GPRMC,000217.00,A,4852.9171363,N,00217.6429961,E,18.62,19.97,180502,0.0,E,A*34
$GPGGA,000217.00,4852.9171363,N,00217.6429961,E,1,04,1.0,-148.701,M,0.000,M,0.0,*55
$GPGSA,A,3,08,10,16,27,,,,,,,,,6.4,3.3,5.4,1*27
$GPGSV,1,1,04,08,74,298,53,10,55,075,49,16,26,182,48,27,69,121,52,1*6B
$GPRMC,000221.00,A,4852.8770902,N,00217.7370681,E,10.43,47.61,180502,0.0,E,A*38
$GPGGA,000221.00,4852.8770902,N,00217.7370681,E,1,05,1.0,-55.152,M,0.000,M,0.0,*6C
$GPGSA,A,3,08,10,16,21,27,,,,,,,,5.3,2.5,4.7,1*25
$GPGSV,2,1,05,08,74,298,53,10,55,075,48,16,26,182,48,21,45,263,46,1*60
$GPGSV,2,2,05,27,69,121,52,,,,,,,,,,,,,1*5E
$GPRMC,000222.00,A,4852.8623928,N,00217.7384584,E,6.58,81.90,180502,0.0,E,A*00
$GPGGA,000222.00,4852.8623928,N,00217.7384584,E,1,05,1.0,54.695,M,0.000,M,0.0,*4D
$GPGSA,A,3,08,10,16,21,27,,,,,,,,5.3,2.5,4.7,1*25
$GPGSV,2,1,05,08,74,298,50,10,55,075,50,16,26,182,49,21,45,263,48,1*65
$GPGSV,2,2,05,27,69,121,52,,,,,,,,,,,,,1*5E
$GPRMC,000223.00,A,4852.8674755,N,00217.7357753,E,13.91,128.14,180502,0.0,E,A*0E
$GPGGA,000223.00,4852.8674755,N,00217.7357753,E,1,05,1.0,-6.217,M,0.000,M,0.0,*58
$GPGSA,A,3,08,10,16,21,27,,,,,,,,5.3,2.5,4.7,1*25
$GPGSV,2,1,05,08,74,298,47,10,55,075,50,16,26,182,48,21,45,263,47,1*6D
$GPGSV,2,2,05,27,69,121,46,,,,,,,,,,,,,1*5B
$GPRMC,000224.00,A,4852.8676775,N,00217.7426924,E,22.15,140.07,180502,0.0,E,A*04
$GPGGA,000224.00,4852.8676775,N,00217.7426924,E,1,06,1.0,-11.896,M,0.000,M,0.0,*66
$GPGSA,A,3,08,10,16,21,23,27,,,,,,,2.5,1.4,2.0,1*26
$GPGSV,2,1,06,08,74,298,55,10,55,075,53,16,26,182,50,21,45,263,53,1*62
$GPGSV,2,2,06,23,27,047,51,27,69,121,52,,,,,,,,,1*6E
$GPRMC,000225.00,A,4852.8598549,N,00217.7522146,E,30.97,140.41,180502,0.0,E,A*09
$GPGGA,000225.00,4852.8598549,N,00217.7522146,E,1,06,1.0,-10.100,M,0.000,M,0.0,*67
$GPGSA,A,3,08,10,16,21,23,27,,,,,,,2.5,1.4,2.0,1*26
$GPGSV,2,1,06,08,74,298,56,10,55,075,54,16,26,182,50,21,45,263,52,1*67
$GPGSV,2,2,06,23,27,047,51,27,69,121,56,,,,,,,,,1*6A
$GPRMC,000226.00,A,4852.8513260,N,00217.7639841,E,32.51,140.87,180502,0.0,E,A*00
$GPGGA,000226.00,4852.8513260,N,00217.7639841,E,1,06,1.0,-1.527,M,0.000,M,0.0,*5D
$GPGSA,A,3,08,10,16,21,23,27,,,,,,,2.5,1.4,2.0,1*26
$GPGSV,2,1,06,08,74,298,55,10,55,075,54,16,26,182,52,21,45,263,53,1*67
$GPGSV,2,2,06,23,27,047,49,27,69,121,58,,,,,,,,,1*6D
$GPRMC,000227.00,A,4852.8446162,N,00217.7719493,E,31.99,144.75,180502,0.0,E,A*0F
$GPGGA,000227.00,4852.8446162,N,00217.7719493,E,1,06,1.0,-6.166,M,0.000,M,0.0,*5A
$GPGSA,A,3,08,10,16,21,23,27,,,,,,,2.5,1.4,2.0,1*26
$GPGSV,2,1,06,08,74,298,54,10,55,075,52,16,26,182,49,21,45,263,53,1*6A
$GPGSV,2,2,06,23,27,047,50,27,69,121,57,,,,,,,,,1*6A
$GPRMC,000228.00,A,4852.8386669,N,00217.7763781,E,32.73,147.34,180502,0.0,E,A*0B
$GPGGA,000228.00,4852.8386669,N,00217.7763781,E,1,06,1.0,-8.886,M,0.000,M,0.0,*56
$GPGSA,A,3,08,10,16,21,23,27,,,,,,,2.5,1.4,2.0,1*26
$GPGSV,2,1,06,08,74,298,53,10,55,075,52,16,26,182,50,21,45,263,52,1*64
$GPGSV,2,2,06,23,27,047,50,27,69,121,56,,,,,,,,,1*6B
$GPRMC,000229.00,A,4852.8320257,N,00217.7822397,E,32.68,141.85,180502,0.0,E,A*00
$GPGGA,000229.00,4852.8320257,N,00217.7822397,E,1,06,1.0,-11.697,M,0.000,M,0.0,*6D
$GPGSA,A,3,08,10,16,21,23,27,,,,,,,2.5,1.4,2.0,1*26
$GPGSV,2,1,06,08,74,298,55,10,55,075,53,16,26,182,50,21,45,263,54,1*65
$GPGSV,2,2,06,23,27,047,49,27,69,121,57,,,,,,,,,1*62
$GPRMC,000230.00,A,4852.8241165,N,00217.7935313,E,32.35,141.06,180502,0.0,E,A*04
$GPGGA,000230.00,4852.8241165,N,00217.7935313,E,1,06,1.0,-7.830,M,0.000,M,0.0,*5E
$GPGSA,A,3,08,10,16,21,23,27,,,,,,,2.5,1.4,2.0,1*26
$GPGSV,2,1,06,08,74,298,55,10,55,075,54,16,26,182,50,21,45,263,51,1*67
$GPGSV,2,2,06,23,27,047,51,27,69,121,57,,,,,,,,,1*6B
$GPRMC,000231.00,A,4852.8159117,N,00217.8054436,E,32.45,141.21,180502,0.0,E,A*09
$GPGGA,000231.00,4852.8159117,N,00217.8054436,E,1,06,1.0,-2.289,M,0.000,M,0.0,*5C
$GPGSA,A,3,08,10,16,21,23,27,,,,,,,2.5,1.4,2.0,1*26
$GPGSV,2,1,06,08,74,298,57,10,55,075,54,16,26,182,52,21,45,263,51,1*67
$GPGSV,2,2,06,23,27,047,51,27,69,121,56,,,,,,,,,1*6A
$GPRMC,000232.00,A,4852.8085986,N,00217.8137927,E,33.10,139.96,180502,0.0,E,A*01
$GPGGA,000232.00,4852.8085986,N,00217.8137927,E,1,06,1.0,-4.607,M,0.000,M,0.0,*52
$GPGSA,A,3,08,10,16,21,23,27,,,,,,,2.5,1.4,2.0,1*26
$GPGSV,2,1,06,08,74,298,59,10,55,075,54,16,26,182,50,21,45,263,52,1*68
$GPGSV,2,2,06,23,27,047,50,27,69,121,57,,,,,,,,,1*6A
$GPRMC,000233.00,A,4852.8037667,N,00217.8199671,E,33.56,138.45,180502,0.0,E,A*0C
$GPGGA,000233.00,4852.8037667,N,00217.8199671,E,1,06,1.0,-7.783,M,0.000,M,0.0,*5C
$GPGSA,A,3,08,10,16,21,23,27,,,,,,,2.5,1.4,2.0,1*26
$GPGSV,2,1,06,08,74,298,55,10,55,075,55,16,26,182,49,21,45,263,51,1*6E
$GPGSV,2,2,06,23,27,047,50,27,69,121,56,,,,,,,,,1*6B
$GPRMC,000234.00,A,4852.7968949,N,00217.8276755,E,31.92,139.07,180502,0.0,E,A*0C
$GPGGA,000234.00,4852.7968949,N,00217.8276755,E,1,06,1.0,-7.669,M,0.000,M,0.0,*54
$GPGSA,A,3,08,10,16,21,23,27,,,,,,,2.5,1.4,2.0,1*26
$GPGSV,2,1,06,08,74,298,54,10,55,075,53,16,26,182,50,21,45,263,53,1*63
$GPGSV,2,2,06,23,27,047,50,27,69,121,54,,,,,,,,,1*69
$GPRMC,000235.00,A,4852.7895918,N,00217.8377043,E,32.80,139.63,180502,0.0,E,A*08
$GPGGA,000235.00,4852.7895918,N,00217.8377043,E,1,06,1.0,-7.068,M,0.000,M,0.0,*55
$GPGSA,A,3,08,10,16,21,23,27,,,,,,,2.5,1.4,2.0,1*26
$GPGSV,2,1,06,08,74,298,56,10,55,075,52,16,26,182,51,21,45,263,52,1*60
$GPGSV,2,2,06,23,27,047,50,27,69,121,53,,,,,,,,,1*6E
$GPRMC,000236.00,A,4852.7826214,N,00217.8483098,E,31.91,136.06,180502,0.0,E,A*01
$GPGGA,000236.00,4852.7826214,N,00217.8483098,E,1,06,1.0,-4.130,M,0.000,M,0.0,*5C
$GPGSA,A,3,08,10,16,21,23,27,,,,,,,2.5,1.4,2.0,1*26
$GPGSV,2,1,06,08,74,298,55,10,55,075,53,16,26,182,51,21,45,263,53,1*63
$GPGSV,2,2,06,23,27,047,51,27,69,122,55,,,,,,,,,1*6A
$GPRMC,000237.00,A,4852.7762568,N,00217.8570688,E,27.19,134.09,180502,0.0,E,A*03
$GPGGA,000237.00,4852.7762568,N,00217.8570688,E,1,06,1.0,-7.986,M,0.000,M,0.0,*52
$GPGSA,A,3,08,10,16,21,23,27,,,,,,,2.5,1.4,2.0,1*26
$GPGSV,2,1,06,08,74,298,56,10,55,075,53,16,26,182,48,21,45,263,54,1*6F
$GPGSV,2,2,06,23,27,047,50,27,69,122,56,,,,,,,,,1*68
$GPRMC,000238.00,A,4852.7737521,N,00217.8635662,E,18.13,127.48,180502,0.0,E,A*06
$GPGGA,000238.00,4852.7737521,N,00217.8635662,E,1,06,1.0,-12.278,M,0.000,M,0.0,*68
$GPGSA,A,3,08,10,16,21,23,27,,,,,,,2.5,1.4,2.0,1*26
$GPGSV,2,1,06,08,74,298,56,10,55,075,54,16,26,182,50,21,45,263,54,1*61
$GPGSV,2,2,06,23,27,047,50,27,69,122,56,,,,,,,,,1*68
$GPRMC,000239.00,A,4852.7722532,N,00217.8664698,E,8.44,98.29,180502,0.0,E,A*01
$GPGGA,000239.00,4852.7722532,N,00217.8664698,E,1,06,1.0,-8.481,M,0.000,M,0.0,*55
$GPGSA,A,3,08,10,16,21,23,27,,,,,,,2.5,1.4,2.0,1*26
$GPGSV,2,1,06,08,74,298,57,10,55,075,55,16,26,182,50,21,45,263,53,1*66
$GPGSV,2,2,06,23,27,047,50,27,69,122,56,,,,,,,,,1*68
$GPRMC,000240.00,A,4852.7713395,N,00217.8701629,E,11.70,70.79,180502,0.0,E,A*32
$GPGGA,000240.00,4852.7713395,N,00217.8701629,E,1,06,1.0,-7.252,M,0.000,M,0.0,*5D
$GPGSA,A,3,08,10,16,21,23,27,,,,,,,2.5,1.4,2.0,1*26
$GPGSV,2,1,06,08,74,298,58,10,55,075,56,16,26,182,52,21,45,263,53,1*68
$GPGSV,2,2,06,23,27,047,50,27,69,122,58,,,,,,,,,1*66
$GPRMC,000241.00,A,4852.7731864,N,00217.8784460,E,20.98,57.94,180502,0.0,E,A*36
$GPGGA,000241.00,4852.7731864,N,00217.8784460,E,1,06,1.0,-6.886,M,0.000,M,0.0,*59
$GPGSA,A,3,08,10,16,21,23,27,,,,,,,2.5,1.4,2.0,1*26
$GPGSV,2,1,06,08,74,298,54,10,55,075,52,16,26,182,52,21,45,263,53,1*60
$GPGSV,2,2,06,23,27,047,51,27,69,122,56,,,,,,,,,1*69
$GPRMC,000242.00,A,4852.7779192,N,00217.8884108,E,30.38,52.95,180502,0.0,E,A*32
$GPGGA,000242.00,4852.7779192,N,00217.8884108,E,1,06,1.0,-7.318,M,0.000,M,0.0,*5F
$GPGSA,A,3,08,10,16,21,23,27,,,,,,,2.5,1.4,2.0,1*26
$GPGSV,2,1,06,08,74,298,54,10,55,075,53,16,26,182,50,21,45,263,53,1*63
$GPGSV,2,2,06,23,27,047,50,27,69,122,57,,,,,,,,,1*69
$GPRMC,000243.00,A,4852.7842579,N,00217.8987059,E,32.21,50.30,180502,0.0,E,A*35
$GPGGA,000243.00,4852.7842579,N,00217.8987059,E,1,06,1.0,-11.544,M,0.000,M,0.0,*67
$GPGSA,A,3,08,10,16,21,23,27,,,,,,,2.5,1.4,2.0,1*26
$GPGSV,2,1,06,08,74,298,56,10,55,075,52,16,26,182,51,21,45,263,54,1*66
$GPGSV,2,2,06,23,27,047,49,27,69,122,58,,,,,,,,,1*6E
$GPRMC,000244.00,A,4852.7888448,N,00217.9088539,E,33.00,50.81,180502,0.0,E,A*3B
$GPGGA,000244.00,4852.7888448,N,00217.9088539,E,1,06,1.0,-9.165,M,0.000,M,0.0,*5F
$GPGSA,A,3,08,10,16,21,23,27,,,,,,,2.5,1.4,2.0,1*26
$GPGSV,2,1,06,08,74,298,56,10,55,075,52,16,26,182,48,21,45,263,55,1*6F
$GPGSV,2,2,06,23,27,047,50,27,69,122,54,,,,,,,,,1*6A
$GPRMC,000245.00,A,4852.7945558,N,00217.9195769,E,32.72,50.13,180502,0.0,E,A*3F
$GPGGA,000245.00,4852.7945558,N,00217.9195769,E,1,06,1.0,-8.212,M,0.000,M,0.0,*56
$GPGSA,A,3,08,10,16,21,23,27,,,,,,,2.5,1.4,2.0,1*26
$GPGSV,2,1,06,08,74,298,56,10,55,075,54,16,26,182,49,21,45,263,54,1*69
$GPGSV,2,2,06,23,27,047,49,27,69,122,53,,,,,,,,,1*65
$GPRMC,000246.00,A,4852.7999341,N,00217.9297981,E,32.22,51.60,180502,0.0,E,A*3A
$GPGGA,000246.00,4852.7999341,N,00217.9297981,E,1,06,1.0,-4.995,M,0.000,M,0.0,*5B
$GPGSA,A,3,08,10,16,21,23,27,,,,,,,2.5,1.4,2.0,1*26
$GPGSV,2,1,06,08,74,298,58,10,55,075,54,16,26,182,48,21,45,263,51,1*63
$GPGSV,2,2,06,23,27,047,50,27,69,122,51,,,,,,,,,1*6F
$GPRMC,000247.00,A,4852.8061257,N,00217.9401826,E,32.31,50.89,180502,0.0,E,A*3D
$GPGGA,000247.00,4852.8061257,N,00217.9401826,E,1,06,1.0,-9.069,M,0.000,M,0.0,*5F
$GPGSA,A,3,08,10,16,21,23,27,,,,,,,2.5,1.4,2.0,1*26
$GPGSV,2,1,06,08,74,298,55,10,55,075,54,16,26,182,50,21,45,263,52,1*64
$GPGSV,2,2,06,23,27,047,52,27,69,122,53,,,,,,,,,1*6F
$GPRMC,000248.00,A,4852.8112477,N,00217.9517753,E,32.34,51.77,180502,0.0,E,A*3D
$GPGGA,000248.00,4852.8112477,N,00217.9517753,E,1,06,1.0,-11.477,M,0.000,M,0.0,*68
$GPGSA,A,3,08,10,16,21,23,27,,,,,,,2.5,1.4,2.0,1*26
$GPGSV,2,1,06,08,74,298,57,10,55,075,55,16,26,182,51,21,45,263,53,1*67
$GPGSV,2,2,06,23,27,047,52,27,69,122,56,,,,,,,,,1*6A
$GPRMC,000249.00,A,4852.8168808,N,00217.9630079,E,32.60,51.20,180502,0.0,E,A*3F
$GPGGA,000249.00,4852.8168808,N,00217.9630079,E,1,06,1.0,-12.227,M,0.000,M,0.0,*69
$GPGSA,A,3,08,10,16,21,23,27,,,,,,,2.5,1.4,2.0,1*26
$GPGSV,2,1,06,08,74,298,58,10,55,075,54,16,26,182,50,21,45,263,54,1*6F
$GPGSV,2,2,06,23,27,047,50,27,69,122,58,,,,,,,,,1*66
$GPRMC,000250.00,A,4852.8221465,N,00217.9748066,E,32.68,50.26,180502,0.0,E,A*31
$GPGGA,000250.00,4852.8221465,N,00217.9748066,E,1,06,1.0,-8.277,M,0.000,M,0.0,*56
$GPGSA,A,3,08,10,16,21,23,27,,,,,,,2.5,1.4,2.0,1*26
$GPGSV,2,1,06,08,74,298,58,10,55,075,56,16,26,182,50,21,45,263,55,1*6C
$GPGSV,2,2,06,23,27,047,48,27,69,122,57,,,,,,,,,1*60
$GPRMC,000251.00,A,4852.8265640,N,00217.9837715,E,26.20,47.86,180502,0.0,E,A*34
$GPGGA,000251.00,4852.8265640,N,00217.9837715,E,1,06,1.0,-5.778,M,0.000,M,0.0,*51
$GPGSA,A,3,08,10,16,21,23,27,,,,,,,2.5,1.4,2.0,1*26
$GPGSV,2,1,06,08,74,298,58,10,55,075,56,16,26,182,52,21,46,264,54,1*6B
$GPGSV,2,2,06,23,27,047,48,27,69,122,57,,,,,,,,,1*60
$GPRMC,000252.00,A,4852.8316385,N,00217.9879070,E,16.47,36.74,180502,0.0,E,A*39
$GPGGA,000252.00,4852.8316385,N,00217.9879070,E,1,06,1.0,-11.590,M,0.000,M,0.0,*64
$GPGSA,A,3,08,10,16,21,23,27,,,,,,,2.5,1.4,2.0,1*26
$GPGSV,2,1,06,08,74,298,56,10,55,075,56,16,26,182,51,21,46,264,52,1*60
$GPGSV,2,2,06,23,27,047,49,27,69,122,58,,,,,,,,,1*6E
$GPRMC,000253.00,A,4852.8349166,N,00217.9884310,E,9.90,13.15,180502,0.0,E,A*0E
$GPGGA,000253.00,4852.8349166,N,00217.9884310,E,1,06,1.0,-11.432,M,0.000,M,0.0,*6E
$GPGSA,A,3,08,10,16,21,23,27,,,,,,,2.5,1.4,2.0,1*26
$GPGSV,2,1,06,08,74,298,58,10,55,075,55,16,26,182,49,21,46,264,53,1*65
$GPGSV,2,2,06,23,27,047,49,27,69,122,57,,,,,,,,,1*61
$GPRMC,000254.00,A,4852.8390699,N,00217.9905674,E,17.31,357.47,180502,0.0,E,A*05
$GPGGA,000254.00,4852.8390699,N,00217.9905674,E,1,06,1.0,-14.880,M,0.000,M,0.0,*65
$GPGSA,A,3,08,10,16,21,23,27,,,,,,,2.5,1.4,2.0,1*26
$GPGSV,2,1,06,08,74,298,57,10,55,075,55,16,26,182,52,21,46,264,55,1*66
$GPGSV,2,2,06,23,27,047,50,27,69,122,58,,,,,,,,,1*66
$GPRMC,000255.00,A,4852.8440427,N,00217.9919715,E,25.63,347.68,180502,0.0,E,A*08
$GPGGA,000255.00,4852.8440427,N,00217.9919715,E,1,06,1.0,-11.797,M,0.000,M,0.0,*6E
$GPGSA,A,3,08,10,16,21,23,27,,,,,,,2.5,1.4,2.0,1*26
$GPGSV,2,1,06,08,74,298,56,10,55,075,56,16,26,182,48,21,46,264,54,1*6E
$GPGSV,2,2,06,23,27,047,50,27,69,122,55,,,,,,,,,1*6B
$GPRMC,000256.00,A,4852.8521817,N,00217.9874534,E,33.07,344.00,180502,0.0,E,A*01
$GPGGA,000256.00,4852.8521817,N,00217.9874534,E,1,06,1.0,-8.772,M,0.000,M,0.0,*5C
$GPGSA,A,3,08,10,16,21,23,27,,,,,,,2.5,1.4,2.0,1*26
$GPGSV,2,1,06,08,74,298,56,10,55,075,55,16,26,182,49,21,46,264,54,1*6C
$GPGSV,2,2,06,23,27,047,51,27,69,122,56,,,,,,,,,1*69
$GPRMC,000257.00,A,4852.8613279,N,00217.9835459,E,32.64,344.32,180502,0.0,E,A*0A
$GPGGA,000257.00,4852.8613279,N,00217.9835459,E,1,06,1.0,-8.478,M,0.000,M,0.0,*5B
$GPGSA,A,3,08,10,16,21,23,27,,,,,,,2.5,1.4,2.0,1*26
$GPGSV,2,1,06,08,74,298,55,10,55,075,55,16,26,182,51,21,46,264,53,1*61
$GPGSV,2,2,06,23,27,047,52,27,69,122,58,,,,,,,,,1*64
$GPRMC,000258.00,A,4852.8696253,N,00217.9811573,E,32.83,343.82,180502,0.0,E,A*0A
$GPGGA,000258.00,4852.8696253,N,00217.9811573,E,1,06,1.0,-3.581,M,0.000,M,0.0,*52
$GPGSA,A,3,08,10,16,21,23,27,,,,,,,2.5,1.4,2.0,1*26
$GPGSV,2,1,06,08,74,298,56,10,55,075,56,16,26,182,49,21,46,264,51,1*6A
$GPGSV,2,2,06,23,27,047,50,27,69,122,56,,,,,,,,,1*68
$GPRMC,000259.00,A,4852.8785714,N,00217.9776691,E,32.93,344.91,180502,0.0,E,A*0B
$GPGGA,000259.00,4852.8785714,N,00217.9776691,E,1,06,1.0,-6.388,M,0.000,M,0.0,*5D
$GPGSA,A,3,08,10,16,21,23,27,,,,,,,2.5,1.4,2.0,1*26
$GPGSV,2,1,06,08,74,298,57,10,55,075,54,16,26,182,48,21,46,264,53,1*6A
$GPGSV,2,2,06,23,27,047,49,27,69,122,56,,,,,,,,,1*60
$GPRMC,000300.00,A,4852.8876483,N,00217.9715834,E,32.25,343.76,180502,0.0,E,A*0F
$GPGGA,000300.00,4852.8876483,N,00217.9715834,E,1,06,1.0,-10.382,M,0.000,M,0.0,*67
$GPGSA,A,3,08,10,16,21,23,27,,,,,,,2.5,1.4,2.0,1*26
$GPGSV,2,1,06,08,74,298,56,10,55,075,56,16,26,182,48,21,46,264,53,1*69
$GPGSV,2,2,06,23,27,047,50,27,69,122,56,,,,,,,,,1*68
$GPRMC,000301.00,A,4852.8960746,N,00217.9648892,E,32.42,344.10,180502,0.0,E,A*01
$GPGGA,000301.00,4852.8960746,N,00217.9648892,E,1,06,1.0,-8.637,M,0.000,M,0.0,*5D
$GPGSA,A,3,08,10,16,21,23,27,,,,,,,2.5,1.4,2.0,1*26
$GPGSV,2,1,06,08,74,298,56,10,55,075,55,16,26,182,49,21,46,264,54,1*6C
$GPGSV,2,2,06,23,27,047,48,27,69,122,58,,,,,,,,,1*6F
$GPRMC,000302.00,A,4852.9067567,N,00217.9608119,E,32.18,344.35,180502,0.0,E,A*0A
$GPGGA,000302.00,4852.9067567,N,00217.9608119,E,1,06,1.0,-12.495,M,0.000,M,0.0,*6F
$GPGSA,A,3,08,10,16,21,23,27,,,,,,,2.5,1.4,2.0,1*26
$GPGSV,2,1,06,08,74,298,58,10,55,075,57,16,26,182,48,21,46,264,52,1*67
$GPGSV,2,2,06,23,27,047,51,27,69,122,57,,,,,,,,,1*68
$GPRMC,000303.00,A,4852.9141094,N,00217.9604203,E,31.73,343.76,180502,0.0,E,A*0D
$GPGGA,000303.00,4852.9141094,N,00217.9604203,E,1,06,1.0,-3.982,M,0.000,M,0.0,*5D
$GPGSA,A,3,08,10,16,21,23,27,,,,,,,2.5,1.4,2.0,1*26
$GPGSV,2,1,06,08,74,298,58,10,55,075,56,16,26,182,50,21,46,264,54,1*69
$GPGSV,2,2,06,23,27,047,49,27,69,122,57,,,,,,,,,1*61
$GPRMC,000304.00,A,4852.9217026,N,00217.9588974,E,31.99,344.01,180502,0.0,E,A*0C
$GPGGA,000304.00,4852.9217026,N,00217.9588974,E,1,06,1.0,-0.153,M,0.000,M,0.0,*58
$GPGSA,A,3,08,10,16,21,23,27,,,,,,,2.5,1.4,2.0,1*26
$GPGSV,2,1,06,08,74,298,57,10,55,075,55,16,26,182,50,21,46,264,54,1*65
$GPGSV,2,2,06,23,27,047,49,27,69,122,55,,,,,,,,,1*63
$GPRMC,000305.00,A,4852.9306657,N,00217.9537968,E,33.05,343.32,180502,0.0,E,A*05
$GPGGA,000305.00,4852.9306657,N,00217.9537968,E,1,06,1.0,0.052,M,0.000,M,0.0,*7C
$GPGSA,A,3,08,10,16,21,23,27,,,,,,,2.5,1.4,2.0,1*26
$GPGSV,2,1,06,08,74,298,57,10,55,075,56,16,26,182,51,21,46,264,53,1*60
$GPGSV,2,2,06,23,27,047,51,27,69,122,56,,,,,,,,,1*69
$GPRMC,000306.00,A,4852.9388688,N,00217.9473392,E,27.57,340.96,180502,0.0,E,A*03
$GPGGA,000306.00,4852.9388688,N,00217.9473392,E,1,06,1.0,0.724,M,0.000,M,0.0,*73
$GPGSA,A,3,08,10,16,21,23,27,,,,,,,2.5,1.4,2.0,1*26
$GPGSV,2,1,06,08,74,298,58,10,55,075,54,16,26,182,50,21,46,264,54,1*6B
$GPGSV,2,2,06,23,27,047,49,27,69,122,54,,,,,,,,,1*62
$GPRMC,000307.00,A,4852.9462538,N,00217.9428557,E,18.18,332.18,180502,0.0,E,A*0C
$GPGGA,000307.00,4852.9462538,N,00217.9428557,E,1,06,1.0,-3.958,M,0.000,M,0.0,*53
$GPGSA,A,3,08,10,16,21,23,27,,,,,,,2.5,1.4,2.0,1*26
$GPGSV,2,1,06,08,74,298,57,10,55,075,54,16,26,182,50,21,46,264,54,1*64
$GPGSV,2,2,06,23,27,047,50,27,69,122,55,,,,,,,,,1*6B
$GPRMC,000308.00,A,4852.9489700,N,00217.9399981,E,11.47,315.60,180502,0.0,E,A*0C
$GPGGA,000308.00,4852.9489700,N,00217.9399981,E,1,06,1.0,-5.014,M,0.000,M,0.0,*5D
$GPGSA,A,3,08,10,16,21,23,27,,,,,,,2.5,1.4,2.0,1*26
$GPGSV,2,1,06,08,74,298,55,10,55,075,54,16,26,182,50,21,46,264,52,1*60
$GPGSV,2,2,06,23,27,047,51,27,69,122,57,,,,,,,,,1*68
$GPRMC,000309.00,A,4852.9508260,N,00217.9349510,E,18.40,297.25,180502,0.0,E,A*0B
$GPGGA,000309.00,4852.9508260,N,00217.9349510,E,1,06,1.0,-4.946,M,0.000,M,0.0,*51
$GPGSA,A,3,08,10,16,21,23,27,,,,,,,2.5,1.4,2.0,1*26
$GPGSV,2,1,06,08,74,298,56,10,55,075,55,16,26,182,50,21,46,264,54,1*64
$GPGSV,2,2,06,23,27,047,50,27,69,122,58,,,,,,,,,1*66
$GPRMC,000310.00,A,4852.9545525,N,00217.9244020,E,28.42,291.02,180502,0.0,E,A*04
$GPGGA,000310.00,4852.9545525,N,00217.9244020,E,1,06,1.0,-3.637,M,0.000,M,0.0,*52
$GPGSA,A,3,08,10,16,21,23,27,,,,,,,2.5,1.4,2.0,1*26
$GPGSV,2,1,06,08,74,298,59,10,55,075,56,16,25,182,49,21,46,264,53,1*64
$GPGSV,2,2,06,23,27,047,51,27,69,122,59,,,,,,,,,1*66
$GPRMC,000311.00,A,4852.9566181,N,00217.9143304,E,32.15,288.66,180502,0.0,E,A*0C
$GPGGA,000311.00,4852.9566181,N,00217.9143304,E,1,06,1.0,1.025,M,0.000,M,0.0,*73
$GPGSA,A,3,08,10,16,21,23,27,,,,,,,2.5,1.4,2.0,1*26
$GPGSV,2,1,06,08,74,298,57,10,55,075,56,16,25,182,51,21,46,264,53,1*63
$GPGSV,2,2,06,23,27,047,51,27,69,122,58,,,,,,,,,1*67
$GPRMC,000312.00,A,4852.9573282,N,00217.9047089,E,32.44,287.79,180502,0.0,E,A*0D
$GPGGA,000312.00,4852.9573282,N,00217.9047089,E,1,06,1.0,5.743,M,0.000,M,0.0,*74
$GPGSA,A,3,08,10,16,21,23,27,,,,,,,2.5,1.4,2.0,1*26
$GPGSV,2,1,06,08,74,298,56,10,55,075,54,16,25,182,50,21,46,264,52,1*60
$GPGSV,2,2,06,23,27,047,51,27,69,122,56,,,,,,,,,1*69
$GPRMC,000313.00,A,4852.9609968,N,00217.8892085,E,32.08,288.78,180502,0.0,E,A*06
$GPGGA,000313.00,4852.9609968,N,00217.8892085,E,1,06,1.0,-0.074,M,0.000,M,0.0,*52
$GPGSA,A,3,08,10,16,21,23,27,,,,,,,2.5,1.4,2.0,1*26
$GPGSV,2,1,06,08,74,298,56,10,55,075,54,16,25,182,49,21,46,264,54,1*6E
$GPGSV,2,2,06,23,27,047,50,27,69,122,58,,,,,,,,,1*66
$GPRMC,000314.00,A,4852.9653400,N,00217.8734273,E,32.39,288.65,180502,0.0,E,A*0B
$GPGGA,000314.00,4852.9653400,N,00217.8734273,E,1,06,1.0,-4.905,M,0.000,M,0.0,*5A
$GPGSA,A,3,08,10,16,21,23,27,,,,,,,2.5,1.4,2.0,1*26
$GPGSV,2,1,06,08,74,298,56,10,55,075,57,16,25,182,50,21,46,264,54,1*65
$GPGSV,2,2,06,23,27,047,51,27,69,122,58,,,,,,,,,1*67
$GPRMC,000315.00,A,4852.9673554,N,00217.8627310,E,32.27,286.71,180502,0.0,E,A*0B
$GPGGA,000315.00,4852.9673554,N,00217.8627310,E,1,06,1.0,-3.819,M,0.000,M,0.0,*55
$GPGSA,A,3,08,10,16,21,23,27,,,,,,,2.5,1.4,2.0,1*26
$GPGSV,2,1,06,08,74,298,56,10,55,075,56,16,25,182,50,21,46,264,54,1*64
$GPGSV,2,2,06,23,27,047,50,27,69,122,58,,,,,,,,,1*66
$GPRMC,000316.00,A,4852.9697649,N,00217.8511463,E,32.30,288.17,180502,0.0,E,A*00
$GPGGA,000316.00,4852.9697649,N,00217.8511463,E,1,06,1.0,-6.046,M,0.000,M,0.0,*51
$GPGSA,A,3,08,10,16,21,23,27,,,,,,,2.5,1.4,2.0,1*26
$GPGSV,2,1,06,08,74,298,57,10,55,075,56,16,25,182,51,21,46,264,54,1*64
$GPGSV,2,2,06,23,27,047,50,27,69,122,56,,,,,,,,,1*68
$GPRMC,000317.00,A,4852.9740431,N,00217.8354699,E,33.24,289.88,180502,0.0,E,A*04
$GPGGA,000317.00,4852.9740431,N,00217.8354699,E,1,06,1.0,-10.305,M,0.000,M,0.0,*65
$GPGSA,A,3,08,10,16,21,23,27,,,,,,,2.5,1.4,2.0,1*26
$GPGSV,2,1,06,08,74,298,57,10,55,074,58,16,25,182,49,21,46,264,54,1*62
$GPGSV,2,2,06,23,26,047,50,27,69,122,57,,,,,,,,,1*68
$GPRMC,000318.00,A,4852.9765346,N,00217.8219511,E,31.61,287.93,180502,0.0,E,A*07
$GPGGA,000318.00,4852.9765346,N,00217.8219511,E,1,06,1.0,-8.261,M,0.000,M,0.0,*5B
$GPGSA,A,3,08,10,16,21,23,27,,,,,,,2.5,1.4,2.0,1*26
$GPGSV,2,1,06,08,74,298,56,10,55,074,57,16,25,182,52,21,46,264,54,1*66
$GPGSV,2,2,06,23,26,047,50,27,69,122,56,,,,,,,,,1*69
$GPRMC,000319.00,A,4852.9771235,N,00217.8126385,E,32.25,286.39,180502,0.0,E,A*00
$GPGGA,000319.00,4852.9771235,N,00217.8126385,E,1,06,1.0,-5.126,M,0.000,M,0.0,*53
$GPGSA,A,3,08,10,16,21,23,27,,,,,,,2.5,1.4,2.0,1*26
$GPGSV,2,1,06,08,74,298,57,10,55,074,55,16,25,182,50,21,46,264,53,1*60
$GPGSV,2,2,06,23,26,047,50,27,69,122,55,,,,,,,,,1*6A
$GPRMC,000320.00,A,4852.9800347,N,00217.8002447,E,32.81,289.12,180502,0.0,E,A*01
$GPGGA,000320.00,4852.9800347,N,00217.8002447,E,1,06,1.0,-5.057,M,0.000,M,0.0,*5D
$GPGSA,A,3,08,10,16,21,23,27,,,,,,,2.5,1.4,2.0,1*26
$GPGSV,2,1,06,08,74,298,56,10,55,074,55,16,25,182,50,21,46,264,54,1*66
$GPGSV,2,2,06,23,26,047,51,27,69,122,56,,,,,,,,,1*68
$GPRMC,000321.00,A,4852.9834549,N,00217.7856655,E,31.92,288.32,180502,0.0,E,A*0A
$GPGGA,000321.00,4852.9834549,N,00217.7856655,E,1,06,1.0,-3.817,M,0.000,M,0.0,*5E
$GPGSA,A,3,08,10,16,21,23,27,,,,,,,2.5,1.4,2.0,1*26
$GPGSV,2,1,06,08,74,298,58,10,55,074,54,16,25,182,50,21,46,264,54,1*69
$GPGSV,2,2,06,23,26,047,51,27,69,122,56,,,,,,,,,1*68
$GPRMC,000322.00,A,4852.9857175,N,00217.7747762,E,32.35,288.25,180502,0.0,E,A*05
$GPGGA,000322.00,4852.9857175,N,00217.7747762,E,1,06,1.0,-3.198,M,0.000,M,0.0,*57
$GPGSA,A,3,08,10,16,21,23,27,,,,,,,2.5,1.4,2.0,1*26
$GPGSV,2,1,06,08,74,298,57,10,55,074,54,16,25,182,48,21,46,264,53,1*68
$GPGSV,2,2,06,23,26,047,48,27,69,122,56,,,,,,,,,1*60
$GPRMC,000323.00,A,4852.9882725,N,00217.7618876,E,32.06,288.30,180502,0.0,E,A*0A
$GPGGA,000323.00,4852.9882725,N,00217.7618876,E,1,06,1.0,-6.431,M,0.000,M,0.0,*5F
$GPGSA,A,3,08,10,16,21,23,27,,,,,,,2.5,1.4,2.0,1*26
$GPGSV,2,1,06,08,74,298,54,10,55,074,54,16,25,182,48,21,46,264,54,1*6C
$GPGSV,2,2,06,23,26,047,49,27,69,122,54,,,,,,,,,1*63
$GPRMC,000324.00,A,4852.9924649,N,00217.7455331,E,32.56,287.76,180502,0.0,E,A*00
$GPGGA,000324.00,4852.9924649,N,00217.7455331,E,1,06,1.0,-13.601,M,0.000,M,0.0,*68
$GPGSA,A,3,08,10,16,21,23,27,,,,,,,2.5,1.4,2.0,1*26
$GPGSV,2,1,06,08,74,298,58,10,55,074,56,16,25,182,48,21,46,264,54,1*62
$GPGSV,2,2,06,23,26,047,52,27,69,122,56,,,,,,,,,1*6B
$GPRMC,000325.00,A,4852.9958188,N,00217.7316081,E,32.56,288.55,180502,0.0,E,A*06
$GPGGA,000325.00,4852.9958188,N,00217.7316081,E,1,06,1.0,-13.661,M,0.000,M,0.0,*66
$GPGSA,A,3,08,10,16,21,23,27,,,,,,,2.5,1.4,2.0,1*26
$GPGSV,2,1,06,08,74,298,57,10,55,074,58,16,25,182,50,21,46,264,54,1*6A
$GPGSV,2,2,06,23,26,047,52,27,69,122,56,,,,,,,,,1*6B
$GPRMC,000326.00,A,4852.9983385,N,00217.7216285,E,32.90,288.01,180502,0.0,E,A*00
$GPGGA,000326.00,4852.9983385,N,00217.7216285,E,1,06,1.0,-16.202,M,0.000,M,0.0,*6F
$GPGSA,A,3,08,10,16,21,23,27,,,,,,,2.5,1.4,2.0,1*26
$GPGSV,2,1,06,08,74,298,58,10,55,074,55,16,25,182,50,21,46,264,54,1*68
$GPGSV,2,2,06,23,26,047,51,27,69,122,58,,,,,,,,,1*66
$GPRMC,000327.00,A,4852.9998286,N,00217.7106265,E,32.57,288.16,180502,0.0,E,A*08
$GPGGA,000327.00,4852.9998286,N,00217.7106265,E,1,06,1.0,-11.818,M,0.000,M,0.0,*6C
$GPGSA,A,3,08,10,16,21,23,27,,,,,,,2.5,1.4,2.0,1*26
$GPGSV,2,1,06,08,74,298,56,10,55,074,55,16,25,182,52,21,46,264,54,1*64
$GPGSV,2,2,06,23,26,047,52,27,69,122,57,,,,,,,,,1*6A
$GPRMC,000328.00,A,4853.0030623,N,00217.6950939,E,32.23,287.91,180502,0.0,E,A*04
$GPGGA,000328.00,4853.0030623,N,00217.6950939,E,1,06,1.0,-12.124,M,0.000,M,0.0,*66
$GPGSA,A,3,08,10,16,21,23,27,,,,,,,2.5,1.4,2.0,1*26
$GPGSV,2,1,06,08,74,298,56,10,55,074,54,16,25,182,50,21,46,264,53,1*60
$GPGSV,2,2,06,23,26,047,51,27,69,122,56,,,,,,,,,1*68
$GPRMC,000329.00,A,4853.0055195,N,00217.6830377,E,32.69,289.32,180502,0.0,E,A*02
$GPGGA,000329.00,4853.0055195,N,00217.6830377,E,1,06,1.0,-8.362,M,0.000,M,0.0,*52
$GPGSA,A,3,08,10,16,21,23,27,,,,,,,2.5,1.4,2.0,1*26
$GPGSV,2,1,06,08,75,298,56,10,55,074,56,16,25,182,49,21,46,264,52,1*6A
$GPGSV,2,2,06,23,26,047,51,27,69,122,54,,,,,,,,,1*6A
$GPRMC,000330.00,A,4853.0065277,N,00217.6729716,E,32.83,288.04,180502,0.0,E,A*02
$GPGGA,000330.00,4853.0065277,N,00217.6729716,E,1,06,1.0,-4.387,M,0.000,M,0.0,*55
$GPGSA,A,3,08,10,16,21,23,27,,,,,,,2.5,1.4,2.0,1*26
$GPGSV,2,1,06,08,75,298,58,10,55,074,56,16,25,182,50,21,46,264,53,1*6D
$GPGSV,2,2,06,23,26,047,50,27,69,122,56,,,,,,,,,1*69
$GPRMC,000331.00,A,4853.0103916,N,00217.6594243,E,32.00,287.38,180502,0.0,E,A*04
$GPGGA,000331.00,4853.0103916,N,00217.6594243,E,1,06,1.0,-7.572,M,0.000,M,0.0,*57
$GPGSA,A,3,08,10,16,21,23,27,,,,,,,2.5,1.4,2.0,1*26
$GPGSV,2,1,06,08,75,298,57,10,55,074,55,16,25,182,52,21,46,264,54,1*64
$GPGSV,2,2,06,23,26,047,50,27,69,122,58,,,,,,,,,1*67
$GPRMC,000332.00,A,4853.0148710,N,00217.6426030,E,32.55,287.78,180502,0.0,E,A*0A
$GPGGA,000332.00,4853.0148710,N,00217.6426030,E,1,06,1.0,-9.809,M,0.000,M,0.0,*52
$GPGSA,A,3,08,10,16,21,23,27,,,,,,,2.5,1.4,2.0,1*26
$GPGSV,2,1,06,08,75,298,54,10,55,074,55,16,25,182,51,21,46,264,56,1*66
$GPGSV,2,2,06,23,26,047,51,27,69,122,58,,,,,,,,,1*66
$GPRMC,000333.00,A,4853.0168022,N,00217.6299718,E,32.69,287.81,180502,0.0,E,A*09
$GPGGA,000333.00,4853.0168022,N,00217.6299718,E,1,06,1.0,-9.843,M,0.000,M,0.0,*56
$GPGSA,A,3,08,10,16,21,23,27,,,,,,,2.5,1.4,2.0,1*26
$GPGSV,2,1,06,08,75,298,55,10,55,074,55,16,25,182,51,21,46,264,56,1*67
$GPGSV,2,2,06,23,26,047,51,27,69,122,57,,,,,,,,,1*69
$GPRMC,000334.00,A,4853.0195615,N,00217.6183281,E,32.38,287.28,180502,0.0,E,A*04
$GPGGA,000334.00,4853.0195615,N,00217.6183281,E,1,06,1.0,-11.792,M,0.000,M,0.0,*66
$GPGSA,A,3,08,10,16,21,23,27,,,,,,,2.5,1.4,2.0,1*26
$GPGSV,2,1,06,08,75,298,56,10,55,074,57,16,25,182,51,21,46,264,55,1*65
$GPGSV,2,2,06,23,26,047,52,27,69,122,56,,,,,,,,,1*6B
$GPRMC,000335.00,A,4853.0238425,N,00217.6040840,E,32.26,288.24,180502,0.0,E,A*05
$GPGGA,000335.00,4853.0238425,N,00217.6040840,E,1,06,1.0,-11.602,M,0.000,M,0.0,*63
$GPGSA,A,3,08,10,16,21,23,27,,,,,,,2.5,1.4,2.0,1*26
$GPGSV,2,1,06,08,75,298,56,10,55,074,56,16,25,182,50,21,46,264,54,1*64
$GPGSV,2,2,06,23,26,047,50,27,69,122,58,,,,,,,,,1*67
$GPRMC,000336.00,A,4853.0266854,N,00217.5905000,E,27.24,291.51,180502,0.0,E,A*0C
$GPGGA,000336.00,4853.0266854,N,00217.5905000,E,1,06,1.0,-10.199,M,0.000,M,0.0,*62
$GPGSA,A,3,08,10,16,21,23,27,,,,,,,2.5,1.4,2.0,1*26
$GPGSV,2,1,06,08,75,298,57,10,55,074,55,16,25,182,50,21,46,264,54,1*66
$GPGSV,2,2,06,23,26,047,51,27,69,122,58,,,,,,,,,1*66
$GPRMC,000337.00,A,4853.0278212,N,00217.5853378,E,16.75,297.70,180502,0.0,E,A*07
$GPGGA,000337.00,4853.0278212,N,00217.5853378,E,1,06,1.0,-6.857,M,0.000,M,0.0,*56
$GPGSA,A,3,08,10,16,21,23,27,,,,,,,2.4,1.4,2.0,1*27
$GPGSV,2,1,06,08,75,298,56,10,55,074,54,16,25,182,50,21,46,264,54,1*66
$GPGSV,2,2,06,23,26,047,49,27,69,122,55,,,,,,,,,1*62
$GPRMC,000338.00,A,4853.0292900,N,00217.5822958,E,9.40,319.79,180502,0.0,E,A*3C
$GPGGA,000338.00,4853.0292900,N,00217.5822958,E,1,06,1.0,-4.689,M,0.000,M,0.0,*54
$GPGSA,A,3,08,10,16,21,23,27,,,,,,,2.4,1.4,2.0,1*27
$GPGSV,2,1,06,08,75,298,56,10,55,074,56,16,25,182,50,21,46,264,51,1*61
$GPGSV,2,2,06,23,26,047,50,27,69,122,56,,,,,,,,,1*69
$GPRMC,000339.00,A,4853.0324566,N,00217.5787331,E,15.55,339.24,180502,0.0,E,A*0B
$GPGGA,000339.00,4853.0324566,N,00217.5787331,E,1,06,1.0,-4.095,M,0.000,M,0.0,*5B
$GPGSA,A,3,08,10,16,21,23,27,,,,,,,2.4,1.4,2.0,1*27
$GPGSV,2,1,06,08,75,298,58,10,55,074,56,16,25,182,50,21,46,264,54,1*6A
$GPGSV,2,2,06,23,26,047,50,27,69,122,56,,,,,,,,,1*69
$GPRMC,000340.00,A,4853.0393698,N,00217.5731932,E,26.29,348.34,180502,0.0,E,A*03
$GPGGA,000340.00,4853.0393698,N,00217.5731932,E,1,06,1.0,-7.334,M,0.000,M,0.0,*54
$GPGSA,A,3,08,10,16,21,23,27,,,,,,,2.4,1.4,2.0,1*27
$GPGSV,2,1,06,08,75,298,56,10,55,074,57,16,25,182,50,21,46,264,52,1*63
$GPGSV,2,2,06,23,26,047,50,27,69,122,59,,,,,,,,,1*66
$GPRMC,000341.00,A,4853.0479985,N,00217.5711676,E,33.05,351.83,180502,0.0,E,A*01
$GPGGA,000341.00,4853.0479985,N,00217.5711676,E,1,06,1.0,-10.613,M,0.000,M,0.0,*6E
$GPGSA,A,3,08,10,16,21,23,27,,,,,,,2.4,1.4,2.0,1*27
$GPGSV,2,1,06,08,75,298,56,10,55,074,56,16,25,182,50,21,46,264,53,1*63
$GPGSV,2,2,06,23,26,047,49,27,69,122,56,,,,,,,,,1*61
$GPRMC,000342.00,A,4853.0561007,N,00217.5717592,E,31.55,352.57,180502,0.0,E,A*0B
$GPGGA,000342.00,4853.0561007,N,00217.5717592,E,1,06,1.0,-8.991,M,0.000,M,0.0,*55
$GPGSA,A,3,08,10,16,21,23,27,,,,,,,2.4,1.4,2.0,1*27
$GPGSV,2,1,06,08,75,298,58,10,55,074,58,16,25,182,49,21,46,264,54,1*6C
$GPGSV,2,2,06,23,26,047,50,27,69,122,57,,,,,,,,,1*68
$GPRMC,000343.00,A,4853.0656737,N,00217.5709323,E,32.41,353.65,180502,0.0,E,A*0C
$GPGGA,000343.00,4853.0656737,N,00217.5709323,E,1,06,1.0,-9.721,M,0.000,M,0.0,*50
$GPGSA,A,3,08,10,16,21,23,27,,,,,,,2.4,1.4,2.0,1*27
$GPGSV,2,1,06,08,75,298,58,10,55,074,56,16,25,182,48,21,46,264,54,1*63
$GPGSV,2,2,06,23,26,047,50,27,69,122,57,,,,,,,,,1*68
$GPRMC,000344.00,A,4853.0749576,N,00217.5669959,E,32.78,352.80,180502,0.0,E,A*03
$GPGGA,000344.00,4853.0749576,N,00217.5669959,E,1,06,1.0,-9.244,M,0.000,M,0.0,*59
$GPGSA,A,3,08,10,16,21,23,27,,,,,,,2.4,1.4,2.0,1*27
$GPGSV,2,1,06,08,75,298,57,10,55,074,56,16,25,182,50,21,46,264,53,1*62
$GPGSV,2,2,06,23,26,047,48,27,69,122,57,,,,,,,,,1*61
$GPRMC,000345.00,A,4853.0835504,N,00217.5640767,E,31.78,353.20,180502,0.0,E,A*03
$GPGGA,000345.00,4853.0835504,N,00217.5640767,E,1,06,1.0,-7.995,M,0.000,M,0.0,*58
$GPGSA,A,3,08,10,16,21,23,27,,,,,,,2.4,1.4,2.0,1*27
$GPGSV,2,1,06,08,75,298,56,10,55,074,57,16,25,182,52,21,46,264,52,1*61
$GPGSV,2,2,06,23,26,047,52,27,69,122,57,,,,,,,,,1*6A
$GPRMC,000346.00,A,4853.0921236,N,00217.5630371,E,32.33,352.69,180502,0.0,E,A*06
$GPGGA,000346.00,4853.0921236,N,00217.5630371,E,1,06,1.0,-8.584,M,0.000,M,0.0,*5E
$GPGSA,A,3,08,10,16,21,23,27,,,,,,,2.4,1.4,2.0,1*27
$GPGSV,2,1,06,08,75,298,54,10,55,074,55,16,25,182,51,21,46,264,51,1*61
$GPGSV,2,2,06,23,26,047,52,27,69,122,52,,,,,,,,,1*6F
$GPRMC,000347.00,A,4853.0998836,N,00217.5637380,E,32.34,352.27,180502,0.0,E,A*0B
$GPGGA,000347.00,4853.0998836,N,00217.5637380,E,1,06,1.0,-4.102,M,0.000,M,0.0,*58
$GPGSA,A,3,08,10,16,21,23,27,,,,,,,2.4,1.4,2.0,1*27
$GPGSV,2,1,06,08,75,298,56,10,55,074,53,16,25,182,52,21,46,264,52,1*65
$GPGSV,2,2,06,23,26,047,51,27,69,122,54,,,,,,,,,1*6A
$GPRMC,000348.00,A,4853.1087359,N,00217.5640930,E,32.74,352.38,180502,0.0,E,A*0B
$GPGGA,000348.00,4853.1087359,N,00217.5640930,E,1,06,1.0,-2.372,M,0.000,M,0.0,*51
$GPGSA,A,3,08,10,16,21,23,27,,,,,,,2.4,1.4,2.0,1*27
$GPGSV,2,1,06,08,75,298,56,10,55,074,54,16,25,182,50,21,46,264,52,1*60
$GPGSV,2,2,06,23,26,047,50,27,69,122,56,,,,,,,,,1*69
$GPRMC,000349.00,A,4853.1188863,N,00217.5607646,E,31.99,353.07,180502,0.0,E,A*06
$GPGGA,000349.00,4853.1188863,N,00217.5607646,E,1,06,1.0,-4.961,M,0.000,M,0.0,*5F
$GPGSA,A,3,08,10,16,21,23,27,,,,,,,2.4,1.4,2.0,1*27
$GPGSV,2,1,06,08,75,298,56,10,55,074,54,16,25,182,51,21,46,264,54,1*67
$GPGSV,2,2,06,23,26,047,52,27,69,122,56,,,,,,,,,1*6B
$GPRMC,000350.00,A,4853.1282795,N,00217.5561614,E,33.11,352.66,180502,0.0,E,A*01
$GPGGA,000350.00,4853.1282795,N,00217.5561614,E,1,06,1.0,-8.519,M,0.000,M,0.0,*53
$GPGSA,A,3,08,10,16,21,23,27,,,,,,,2.4,1.4,2.0,1*27
$GPGSV,2,1,06,08,75,298,54,10,55,074,54,16,25,182,50,21,46,264,55,1*65
$GPGSV,2,2,06,23,26,047,52,27,69,122,56,,,,,,,,,1*6B
$GPRMC,000351.00,A,4853.1378200,N,00217.5534737,E,32.08,354.80,180502,0.0,E,A*0A
$GPGGA,000351.00,4853.1378200,N,00217.5534737,E,1,06,1.0,-13.977,M,0.000,M,0.0,*61
$GPGSA,A,3,08,10,16,21,23,27,,,,,,,2.4,1.4,2.0,1*27
$GPGSV,2,1,06,08,75,298,53,10,55,074,51,16,25,182,49,21,46,264,54,1*6E
$GPGSV,2,2,06,23,26,047,50,27,69,122,57,,,,,,,,,1*68
$GPRMC,000352.00,A,4853.1450565,N,00217.5536098,E,24.88,356.69,180502,0.0,E,A*0A
$GPGGA,000352.00,4853.1450565,N,00217.5536098,E,1,06,1.0,-12.585,M,0.000,M,0.0,*6B
$GPGSA,A,3,08,10,16,21,23,27,,,,,,,2.4,1.4,2.0,1*27
$GPGSV,2,1,06,08,75,298,56,10,55,074,54,16,25,182,49,21,46,264,54,1*6E
$GPGSV,2,2,06,23,26,047,48,27,69,122,58,,,,,,,,,1*6E
$GPRMC,000353.00,A,4853.1504272,N,00217.5554768,E,18.60,6.35,180502,0.0,E,A*00
$GPGGA,000353.00,4853.1504272,N,00217.5554768,E,1,06,1.0,-9.464,M,0.000,M,0.0,*53
$GPGSA,A,3,08,10,16,21,23,27,,,,,,,2.4,1.4,2.0,1*27
$GPGSV,2,1,06,08,75,298,56,10,55,074,55,16,25,182,50,21,46,264,53,1*60
$GPGSV,2,2,06,23,26,047,48,27,69,122,56,,,,,,,,,1*60
$GPRMC,000354.00,A,4853.1566529,N,00217.5582833,E,26.30,13.76,180502,0.0,E,A*3B
$GPGGA,000354.00,4853.1566529,N,00217.5582833,E,1,06,1.0,-8.593,M,0.000,M,0.0,*5B
$GPGSA,A,3,08,10,16,21,23,27,,,,,,,2.4,1.4,2.0,1*27
$GPGSV,2,1,06,08,75,298,58,10,55,074,55,16,25,182,50,21,46,264,53,1*6E
$GPGSV,2,2,06,23,26,047,50,27,69,122,55,,,,,,,,,1*6A
$GPRMC,000355.00,A,4853.1634083,N,00217.5613981,E,32.30,16.91,180502,0.0,E,A*31
$GPGGA,000355.00,4853.1634083,N,00217.5613981,E,1,06,1.0,-4.366,M,0.000,M,0.0,*58
$GPGSA,A,3,08,10,16,21,23,27,,,,,,,2.4,1.4,2.0,1*27
$GPGSV,2,1,06,08,75,298,57,10,55,074,54,16,25,182,49,21,46,264,54,1*6F
$GPGSV,2,2,06,23,26,047,50,27,69,122,56,,,,,,,,,1*69
$GPRMC,000356.00,A,4853.1724709,N,00217.5648056,E,32.24,17.03,180502,0.0,E,A*35
$GPGGA,000356.00,4853.1724709,N,00217.5648056,E,1,06,1.0,-6.903,M,0.000,M,0.0,*58
$GPGSA,A,3,08,10,16,21,23,27,,,,,,,2.4,1.4,2.0,1*27
$GPGSV,2,1,06,08,75,298,58,10,55,074,55,16,25,182,50,21,46,264,52,1*6F
$GPGSV,2,2,06,23,26,047,50,27,69,122,56,,,,,,,,,1*69
$GPRMC,000357.00,A,4853.1810536,N,00217.5693465,E,32.46,17.25,180502,0.0,E,A*30
$GPGGA,000357.00,4853.1810536,N,00217.5693465,E,1,06,1.0,-7.967,M,0.000,M,0.0,*5E
$GPGSA,A,3,08,10,16,21,23,27,,,,,,,2.4,1.4,2.0,1*27
$GPGSV,2,1,06,08,75,298,58,10,55,074,55,16,25,182,51,21,46,264,54,1*68
$GPGSV,2,2,06,23,26,047,50,27,69,122,56,,,,,,,,,1*69
$GPRMC,000358.00,A,4853.1898686,N,00217.5731142,E,32.36,17.98,180502,0.0,E,A*3F
$GPGGA,000358.00,4853.1898686,N,00217.5731142,E,1,06,1.0,-8.972,M,0.000,M,0.0,*5B
$GPGSA,A,3,08,10,16,21,23,27,,,,,,,2.4,1.4,2.0,1*27
$GPGSV,2,1,06,08,75,298,57,10,55,074,54,16,25,182,49,21,46,264,52,1*69
$GPGSV,2,2,06,23,26,047,48,27,69,122,58,,,,,,,,,1*6E
$GPRMC,000359.00,A,4853.1993604,N,00217.5776760,E,32.72,17.11,180502,0.0,E,A*3A
$GPGGA,000359.00,4853.1993604,N,00217.5776760,E,1,06,1.0,-13.479,M,0.000,M,0.0,*63
$GPGSA,A,3,08,10,16,21,23,27,,,,,,,2.4,1.4,2.0,1*27
$GPGSV,2,1,06,08,75,298,57,10,55,074,54,16,25,182,50,21,46,264,54,1*67
$GPGSV,2,2,06,23,26,047,49,27,69,122,57,,,,,,,,,1*60
$GPRMC,000400.00,A,4853.2067737,N,00217.5808076,E,32.46,17.06,180502,0.0,E,A*36
$GPGGA,000400.00,4853.2067737,N,00217.5808076,E,1,06,1.0,-13.761,M,0.000,M,0.0,*64
$GPGSA,A,3,08,10,16,21,23,27,,,,,,,2.4,1.4,2.0,1*27
$GPGSV,2,1,06,08,75,298,55,10,55,074,54,16,25,182,50,21,46,264,53,1*62
$GPGSV,2,2,06,23,26,047,48,27,69,122,56,,,,,,,,,1*60
$GPRMC,000401.00,A,4853.2160834,N,00217.5850702,E,31.71,18.40,180502,0.0,E,A*3E
$GPGGA,000401.00,4853.2160834,N,00217.5850702,E,1,06,1.0,-16.108,M,0.000,M,0.0,*6A
$GPGSA,A,3,08,10,16,21,23,27,,,,,,,2.4,1.4,2.0,1*27
$GPGSV,2,1,06,08,75,298,57,10,55,074,54,16,25,182,49,21,46,264,54,1*6F
$GPGSV,2,2,06,23,26,047,50,27,69,122,55,,,,,,,,,1*6A
$GPRMC,000402.00,A,4853.2243981,N,00217.5883014,E,32.63,17.28,180502,0.0,E,A*3F
$GPGGA,000402.00,4853.2243981,N,00217.5883014,E,1,06,1.0,-11.864,M,0.000,M,0.0,*6E
$GPGSA,A,3,08,10,16,21,23,27,,,,,,,2.4,1.4,2.0,1*27
$GPGSV,2,1,06,08,75,297,58,10,55,074,54,16,25,182,51,21,46,264,54,1*66
$GPGSV,2,2,06,23,26,047,51,27,69,122,55,,,,,,,,,1*6B
$GPRMC,000403.00,A,4853.2326524,N,00217.5928554,E,31.75,17.61,180502,0.0,E,A*37
$GPGGA,000403.00,4853.2326524,N,00217.5928554,E,1,06,1.0,-8.536,M,0.000,M,0.0,*5D
$GPGSA,A,3,08,10,16,21,23,27,,,,,,,2.4,1.4,2.0,1*27
$GPGSV,2,1,06,08,75,297,56,10,55,074,53,16,25,182,50,21,46,264,53,1*69
$GPGSV,2,2,06,23,26,047,49,27,69,122,55,,,,,,,,,1*62
$GPRMC,000404.00,A,4853.2411876,N,00217.5989686,E,32.61,17.42,180502,0.0,E,A*39
$GPGGA,000404.00,4853.2411876,N,00217.5989686,E,1,06,1.0,-6.863,M,0.000,M,0.0,*57
$GPGSA,A,3,08,10,16,21,23,27,,,,,,,2.4,1.4,2.0,1*27
$GPGSV,2,1,06,08,75,297,57,10,55,074,54,16,25,182,49,21,46,264,53,1*67
$GPGSV,2,2,06,23,26,047,51,27,69,122,56,,,,,,,,,1*68
$GPRMC,000405.00,A,4853.2486095,N,00217.6037765,E,32.92,17.20,180502,0.0,E,A*38
$GPGGA,000405.00,4853.2486095,N,00217.6037765,E,1,06,1.0,-4.665,M,0.000,M,0.0,*54
$GPGSA,A,3,08,10,16,21,23,27,,,,,,,2.4,1.4,2.0,1*27
$GPGSV,2,1,06,08,75,297,57,10,55,074,52,16,25,182,50,21,46,264,53,1*69
$GPGSV,2,2,06,23,26,047,49,27,69,122,56,,,,,,,,,1*61
$GPRMC,000406.00,A,4853.2582872,N,00217.6067114,E,31.79,18.52,180502,0.0,E,A*36
$GPGGA,000406.00,4853.2582872,N,00217.6067114,E,1,06,1.0,-9.466,M,0.000,M,0.0,*5A
$GPGSA,A,3,08,10,16,21,23,27,,,,,,,2.4,1.4,2.0,1*27
$GPGSV,2,1,06,08,75,297,57,10,55,074,54,16,25,182,50,21,46,264,52,1*6E
$GPGSV,2,2,06,23,26,047,49,27,69,122,57,,,,,,,,,1*60
$GPRMC,000407.00,A,4853.2673131,N,00217.6081909,E,32.41,17.49,180502,0.0,E,A*35
$GPGGA,000407.00,4853.2673131,N,00217.6081909,E,1,06,1.0,-10.894,M,0.000,M,0.0,*6D
$GPGSA,A,3,08,10,16,21,23,27,,,,,,,2.4,1.4,2.0,1*27
$GPGSV,2,1,06,08,75,297,56,10,55,074,56,16,25,182,50,21,46,264,54,1*6B
$GPGSV,2,2,06,23,26,047,49,27,69,122,56,,,,,,,,,1*61
$GPRMC,000408.00,A,4853.2768138,N,00217.6107328,E,32.16,19.88,180502,0.0,E,A*3F
$GPGGA,000408.00,4853.2768138,N,00217.6107328,E,1,06,1.0,-11.813,M,0.000,M,0.0,*68
$GPGSA,A,3,08,10,16,21,23,27,,,,,,,2.4,1.4,2.0,1*27
$GPGSV,2,1,06,08,75,297,56,10,55,074,54,16,25,182,49,21,46,264,54,1*61
$GPGSV,2,2,06,23,26,047,49,27,69,122,56,,,,,,,,,1*61
$GPRMC,000409.00,A,4853.2859804,N,00217.6160492,E,32.61,25.95,180502,0.0,E,A*31
$GPGGA,000409.00,4853.2859804,N,00217.6160492,E,1,06,1.0,-12.422,M,0.000,M,0.0,*68
$GPGSA,A,3,08,10,16,21,23,27,,,,,,,2.4,1.4,2.0,1*27
$GPGSV,2,1,06,08,75,297,56,10,55,074,54,16,25,182,49,21,46,264,55,1*60
$GPGSV,2,2,06,23,26,047,50,27,69,122,56,,,,,,,,,1*69
$GPRMC,000410.00,A,4853.2924090,N,00217.6233788,E,32.78,28.05,180502,0.0,E,A*36
$GPGGA,000410.00,4853.2924090,N,00217.6233788,E,1,06,1.0,-8.002,M,0.000,M,0.0,*5E
$GPGSA,A,3,08,10,16,21,23,27,,,,,,,2.4,1.4,2.0,1*27
$GPGSV,2,1,06,08,75,297,57,10,55,074,54,16,25,182,51,21,46,264,54,1*69
$GPGSV,2,2,06,23,26,047,50,27,69,122,58,,,,,,,,,1*67
$GPRMC,000411.00,A,4853.2998969,N,00217.6325287,E,32.43,28.55,180502,0.0,E,A*3E
$GPGGA,000411.00,4853.2998969,N,00217.6325287,E,1,06,1.0,-5.705,M,0.000,M,0.0,*56
$GPGSA,A,3,08,10,16,21,23,27,,,,,,,2.4,1.4,2.0,1*27
$GPGSV,2,1,06,08,75,297,55,10,55,074,56,16,25,182,48,21,46,264,53,1*66
$GPGSV,2,2,06,23,26,047,49,27,69,122,56,,,,,,,,,1*61
$GPRMC,000412.00,A,4853.3069952,N,00217.6395706,E,32.87,28.33,180502,0.0,E,A*3C
$GPGGA,000412.00,4853.3069952,N,00217.6395706,E,1,06,1.0,-0.734,M,0.000,M,0.0,*5B
$GPGSA,A,3,08,10,16,21,23,27,,,,,,,2.4,1.4,2.0,1*27
$GPGSV,2,1,06,08,75,297,55,10,55,074,55,16,25,182,49,21,46,264,51,1*66
$GPGSV,2,2,06,23,26,047,49,27,69,122,54,,,,,,,,,1*63
$GPRMC,000413.00,A,4853.3152868,N,00217.6460925,E,32.22,28.69,180502,0.0,E,A*3E
$GPGGA,000413.00,4853.3152868,N,00217.6460925,E,1,06,1.0,0.224,M,0.000,M,0.0,*70
$GPGSA,A,3,08,10,16,21,23,27,,,,,,,2.4,1.4,2.0,1*27
$GPGSV,2,1,06,08,75,297,55,10,55,074,56,16,25,182,51,21,46,264,52,1*6F
$GPGSV,2,2,06,23,26,047,48,27,69,122,56,,,,,,,,,1*60
$GPRMC,000414.00,A,4853.3239809,N,00217.6504559,E,32.37,27.94,180502,0.0,E,A*3D
$GPGGA,000414.00,4853.3239809,N,00217.6504559,E,1,06,1.0,-2.535,M,0.000,M,0.0,*52
$GPGSA,A,3,08,10,16,21,23,27,,,,,,,2.4,1.4,2.0,1*27
$GPGSV,2,1,06,08,75,297,56,10,55,074,56,16,25,182,50,21,46,264,54,1*6B
$GPGSV,2,2,06,23,26,047,48,27,68,122,55,,,,,,,,,1*62
$GPRMC,000415.00,A,4853.3322254,N,00217.6546150,E,32.48,28.80,180502,0.0,E,A*3C
$GPGGA,000415.00,4853.3322254,N,00217.6546150,E,1,06,1.0,-6.074,M,0.000,M,0.0,*55
$GPGSA,A,3,08,10,16,21,23,27,,,,,,,2.4,1.4,2.0,1*27
$GPGSV,2,1,06,08,75,297,57,10,55,074,52,16,25,182,52,21,46,264,53,1*6B
$GPGSV,2,2,06,23,26,047,50,27,68,122,55,,,,,,,,,1*6B
$GPRMC,000416.00,A,4853.3417254,N,00217.6603848,E,32.59,28.17,180502,0.0,E,A*32
$GPGGA,000416.00,4853.3417254,N,00217.6603848,E,1,06,1.0,-8.455,M,0.000,M,0.0,*5C
$GPGSA,A,3,08,10,16,21,23,27,,,,,,,2.4,1.4,2.0,1*27
