$GPRMC,000030.00,A,4852.4662600,N,00217.5805355,E,1.19,0.00,180502,0.0,E,A*35
$GPGGA,000030.00,4852.4662600,N,00217.5805355,E,1,06,1.0,-8.471,M,0.000,M,0.0,*55
$GPGSA,A,3,01,08,10,16,21,23,,,,,,,2.2,1.3,1.8,1*29
$GPGSV,2,1,06,01,15,255,47,08,73,299,56,10,56,076,54,16,27,182,50,1*66
$GPGSV,2,2,06,21,45,263,53,23,28,048,50,,,,,,,,,1*63
$GPRMC,000031.00,A,4852.4660605,N,00217.5818075,E,0.53,0.00,180502,0.0,E,A*31
$GPGGA,000031.00,4852.4660605,N,00217.5818075,E,1,06,1.0,-9.744,M,0.000,M,0.0,*5A
$GPGSA,A,3,01,08,10,16,21,23,,,,,,,2.2,1.3,1.8,1*29
$GPGSV,2,1,06,01,15,255,47,08,73,299,57,10,56,076,54,16,27,182,50,1*67
$GPGSV,2,2,06,21,45,263,54,23,28,048,50,,,,,,,,,1*64
$GPRMC,000032.00,A,4852.4666250,N,00217.5821019,E,1.28,0.00,180502,0.0,E,A*3D
$GPGGA,000032.00,4852.4666250,N,00217.5821019,E,1,06,1.0,-15.230,M,0.000,M,0.0,*60
$GPGSA,A,3,01,08,10,16,21,23,,,,,,,2.2,1.3,1.8,1*29
$GPGSV,2,1,06,01,15,255,48,08,73,299,57,10,56,076,54,16,27,182,50,1*68
$GPGSV,2,2,06,21,45,263,53,23,28,048,51,,,,,,,,,1*62
$GPRMC,000033.00,A,4852.4665510,N,00217.5806570,E,1.50,0.00,180502,0.0,E,A*3C
$GPGGA,000033.00,4852.4665510,N,00217.5806570,E,1,06,1.0,-15.333,M,0.000,M,0.0,*6C
$GPGSA,A,3,01,08,10,16,21,23,,,,,,,2.2,1.3,1.8,1*29
$GPGSV,2,1,06,01,15,255,48,08,73,299,56,10,56,076,54,16,27,182,49,1*61
$GPGSV,2,2,06,21,45,263,54,23,28,048,50,,,,,,,,,1*64
$GPRMC,000034.00,A,4852.4669008,N,00217.5813381,E,1.85,0.00,180502,0.0,E,A*3F
$GPGGA,000034.00,4852.4669008,N,00217.5813381,E,1,06,1.0,-13.868,M,0.000,M,0.0,*64
$GPGSA,A,3,01,08,10,16,21,23,,,,,,,2.2,1.3,1.8,1*29
$GPGSV,2,1,06,01,15,255,48,08,73,299,56,10,56,076,54,16,27,182,50,1*69
$GPGSV,2,2,06,21,45,263,52,23,28,048,50,,,,,,,,,1*62
$GPRMC,000035.00,A,4852.4661301,N,00217.5808829,E,0.37,0.00,180502,0.0,E,A*37
$GPGGA,000035.00,4852.4661301,N,00217.5808829,E,1,06,1.0,-7.668,M,0.000,M,0.0,*5F
$GPGSA,A,3,01,08,10,16,21,23,,,,,,,2.2,1.3,1.8,1*29
$GPGSV,2,1,06,01,15,255,47,08,73,299,58,10,56,076,57,16,27,182,50,1*6B
$GPGSV,2,2,06,21,45,263,52,23,27,048,51,,,,,,,,,1*6C
$GPRMC,000036.00,A,4852.4672811,N,00217.5796370,E,0.93,0.00,180502,0.0,E,A*3D
$GPGGA,000036.00,4852.4672811,N,00217.5796370,E,1,06,1.0,-8.366,M,0.000,M,0.0,*5F
$GPGSA,A,3,01,08,10,16,21,23,,,,,,,2.2,1.3,1.8,1*29
$GPGSV,2,1,06,01,15,255,49,08,73,299,57,10,56,076,57,16,27,182,51,1*6B
$GPGSV,2,2,06,21,45,263,54,23,27,048,50,,,,,,,,,1*6B
$GPRMC,000037.00,A,4852.4677428,N,00217.5783698,E,0.60,0.00,180502,0.0,E,A*34
$GPGGA,000037.00,4852.4677428,N,00217.5783698,E,1,06,1.0,-2.606,M,0.000,M,0.0,*53
$GPGSA,A,3,01,08,10,16,21,23,,,,,,,2.2,1.3,1.8,1*29
$GPGSV,2,1,06,01,15,255,47,08,73,299,59,10,56,076,56,16,27,182,49,1*63
$GPGSV,2,2,06,21,45,263,53,23,27,048,50,,,,,,,,,1*6C
$GPRMC,000038.00,A,4852.4663995,N,00217.5801794,E,0.54,0.00,180502,0.0,E,A*3A
$GPGGA,000038.00,4852.4663995,N,00217.5801794,E,1,06,1.0,-2.129,M,0.000,M,0.0,*50
$GPGSA,A,3,01,08,10,16,21,23,,,,,,,2.2,1.3,1.8,1*29
$GPGSV,2,1,06,01,15,255,48,08,73,299,55,10,56,076,55,16,27,182,50,1*6B
$GPGSV,2,2,06,21,45,263,53,23,27,048,50,,,,,,,,,1*6C
$GPRMC,000039.00,A,4852.4669189,N,00217.5808800,E,0.80,0.00,180502,0.0,E,A*36
$GPGGA,000039.00,4852.4669189,N,00217.5808800,E,1,06,1.0,-7.811,M,0.000,M,0.0,*52
$GPGSA,A,3,01,08,10,16,21,23,,,,,,,2.2,1.3,1.8,1*29
$GPGSV,2,1,06,01,15,255,48,08,73,299,56,10,56,076,54,16,27,182,50,1*69
$GPGSV,2,2,06,21,45,263,52,23,27,048,52,,,,,,,,,1*6F
$GPRMC,000040.00,A,4852.4669703,N,00217.5786947,E,1.62,0.00,180502,0.0,E,A*3A
$GPGGA,000040.00,4852.4669703,N,00217.5786947,E,1,06,1.0,-7.047,M,0.000,M,0.0,*58
$GPGSA,A,3,01,08,10,16,21,23,,,,,,,2.2,1.3,1.8,1*29
$GPGSV,2,1,06,01,15,255,48,08,73,299,57,10,56,076,55,16,27,182,50,1*69
$GPGSV,2,2,06,21,45,263,52,23,27,048,50,,,,,,,,,1*6D
$GPRMC,000041.00,A,4852.4665695,N,00217.5803625,E,0.52,0.00,180502,0.0,E,A*32
$GPGGA,000041.00,4852.4665695,N,00217.5803625,E,1,06,1.0,-10.909,M,0.000,M,0.0,*67
$GPGSA,A,3,01,08,10,16,21,23,,,,,,,2.2,1.3,1.8,1*29
$GPGSV,2,1,06,01,15,255,47,08,73,299,55,10,56,076,54,16,27,182,50,1*65
$GPGSV,2,2,06,21,45,263,54,23,27,048,50,,,,,,,,,1*6B
$GPRMC,000042.00,A,4852.4658045,N,00217.5820825,E,0.85,0.00,180502,0.0,E,A*31
$GPGGA,000042.00,4852.4658045,N,00217.5820825,E,1,06,1.0,-14.042,M,0.000,M,0.0,*6C
$GPGSA,A,3,01,08,10,16,21,23,,,,,,,2.2,1.3,1.8,1*29
$GPGSV,2,1,06,01,15,255,49,08,73,299,57,10,56,076,54,16,27,182,50,1*69
$GPGSV,2,2,06,21,45,263,53,23,27,048,50,,,,,,,,,1*6C
$GPRMC,000043.00,A,4852.4667886,N,00217.5812419,E,0.96,0.00,180502,0.0,E,A*3B
$GPGGA,000043.00,4852.4667886,N,00217.5812419,E,1,06,1.0,-16.884,M,0.000,M,0.0,*64
$GPGSA,A,3,01,08,10,16,21,23,,,,,,,2.2,1.3,1.8,1*29
$GPGSV,2,1,06,01,15,255,47,08,73,299,56,10,56,076,54,16,27,182,48,1*6F
$GPGSV,2,2,06,21,45,263,54,23,27,048,52,,,,,,,,,1*69
$GPRMC,000044.00,A,4852.4663451,N,00217.5806325,E,0.68,0.00,180502,0.0,E,A*32
$GPGGA,000044.00,4852.4663451,N,00217.5806325,E,1,06,1.0,-13.105,M,0.000,M,0.0,*69
$GPGSA,A,3,01,08,10,16,21,23,,,,,,,2.2,1.3,1.8,1*29
$GPGSV,2,1,06,01,15,255,49,08,73,299,58,10,56,076,56,16,27,182,48,1*6D
$GPGSV,2,2,06,21,45,263,52,23,27,048,51,,,,,,,,,1*6C
$GPRMC,000045.00,A,4852.4663965,N,00217.5802138,E,0.41,0.00,180502,0.0,E,A*38
$GPGGA,000045.00,4852.4663965,N,00217.5802138,E,1,06,1.0,-10.360,M,0.000,M,0.0,*6A
$GPGSA,A,3,01,08,10,16,21,23,,,,,,,2.2,1.3,1.8,1*29
$GPGSV,2,1,06,01,15,255,48,08,73,299,57,10,56,076,56,16,27,182,48,1*63
$GPGSV,2,2,06,21,45,263,52,23,27,048,50,,,,,,,,,1*6D
$GPRMC,000046.00,A,4852.4672168,N,00217.5808384,E,0.45,0.00,180502,0.0,E,A*35
$GPGGA,000046.00,4852.4672168,N,00217.5808384,E,1,06,1.0,-11.100,M,0.000,M,0.0,*66
$GPGSA,A,3,01,08,10,16,21,23,,,,,,,2.2,1.3,1.8,1*29
$GPGSV,2,1,06,01,15,255,49,08,73,299,55,10,56,076,56,16,27,182,48,1*60
$GPGSV,2,2,06,21,45,263,51,23,27,048,50,,,,,,,,,1*6E
$GPRMC,000047.00,A,4852.4662382,N,00217.5796649,E,1.54,0.00,180502,0.0,E,A*3E
$GPGGA,000047.00,4852.4662382,N,00217.5796649,E,1,06,1.0,-4.160,M,0.000,M,0.0,*5E
$GPGSA,A,3,01,08,10,16,21,23,,,,,,,2.2,1.3,1.8,1*29
$GPGSV,2,1,06,01,15,255,50,08,73,299,57,10,56,076,58,16,27,182,49,1*65
$GPGSV,2,2,06,21,45,263,52,23,27,048,52,,,,,,,,,1*6F
$GPRMC,000048.00,A,4852.4673182,N,00217.5779564,E,1.32,0.00,180502,0.0,E,A*3E
$GPGGA,000048.00,4852.4673182,N,00217.5779564,E,1,06,1.0,-2.646,M,0.000,M,0.0,*5B
$GPGSA,A,3,01,08,10,16,21,23,,,,,,,2.2,1.3,1.8,1*29
$GPGSV,2,1,06,01,15,255,50,08,73,299,57,10,56,076,55,16,27,182,50,1*60
$GPGSV,2,2,06,21,45,263,54,23,27,048,49,,,,,,,,,1*63
$GPRMC,000049.00,A,4852.4672530,N,00217.5791391,E,1.42,0.00,180502,0.0,E,A*3E
$GPGGA,000049.00,4852.4672530,N,00217.5791391,E,1,06,1.0,-5.463,M,0.000,M,0.0,*5E
$GPGSA,A,3,01,08,10,16,21,23,,,,,,,2.2,1.3,1.8,1*29
$GPGSV,2,1,06,01,15,255,49,08,73,299,57,10,56,076,54,16,27,182,49,1*61
$GPGSV,2,2,06,21,45,263,51,23,27,048,50,,,,,,,,,1*6E
$GPRMC,000050.00,A,4852.4658291,N,00217.5809982,E,1.13,0.00,180502,0.0,E,A*30
$GPGGA,000050.00,4852.4658291,N,00217.5809982,E,1,06,1.0,-6.864,M,0.000,M,0.0,*5C
$GPGSA,A,3,01,08,10,16,21,23,,,,,,,2.2,1.3,1.8,1*29
$GPGSV,2,1,06,01,15,255,49,08,73,299,56,10,56,076,55,16,27,182,51,1*68
$GPGSV,2,2,06,21,45,263,52,23,27,048,51,,,,,,,,,1*6C
$GPRMC,000051.00,A,4852.4671726,N,00217.5807607,E,1.18,0.00,180502,0.0,E,A*34
$GPGGA,000051.00,4852.4671726,N,00217.5807607,E,1,06,1.0,-9.595,M,0.000,M,0.0,*5F
$GPGSA,A,3,01,08,10,16,21,23,,,,,,,2.2,1.3,1.8,1*29
$GPGSV,2,1,06,01,15,255,49,08,73,299,57,10,56,076,55,16,27,182,52,1*6A
$GPGSV,2,2,06,21,45,263,54,23,27,048,53,,,,,,,,,1*68
$GPRMC,000052.00,A,4852.4667824,N,00217.5797228,E,1.97,136.97,180502,0.0,E,A*3F
$GPGGA,000052.00,4852.4667824,N,00217.5797228,E,1,06,1.0,-10.234,M,0.000,M,0.0,*6D
$GPGSA,A,3,01,08,10,16,21,23,,,,,,,2.2,1.3,1.8,1*29
$GPGSV,2,1,06,01,15,255,48,08,73,299,56,10,56,076,56,16,27,182,49,1*63
$GPGSV,2,2,06,21,45,263,54,23,27,048,51,,,,,,,,,1*6A
$GPRMC,000053.00,A,4852.4661845,N,00217.5818610,E,1.41,136.97,180502,0.0,E,A*33
$GPGGA,000053.00,4852.4661845,N,00217.5818610,E,1,06,1.0,-15.879,M,0.000,M,0.0,*6C
$GPGSA,A,3,01,08,10,16,21,23,,,,,,,2.2,1.3,1.8,1*29
$GPGSV,2,1,06,01,15,255,48,08,73,299,57,10,56,076,56,16,27,182,49,1*62
$GPGSV,2,2,06,21,45,263,52,23,27,048,49,,,,,,,,,1*65
$GPRMC,000054.00,A,4852.4662717,N,00217.5830211,E,0.43,136.97,180502,0.0,E,A*33
$GPGGA,000054.00,4852.4662717,N,00217.5830211,E,1,06,1.0,-15.768,M,0.000,M,0.0,*60
$GPGSA,A,3,01,08,10,16,21,23,,,,,,,2.2,1.3,1.8,1*29
$GPGSV,2,1,06,01,15,255,49,08,73,299,57,10,56,076,55,16,27,182,50,1*68
$GPGSV,2,2,06,21,45,263,53,23,27,048,49,,,,,,,,,1*64
$GPRMC,000055.00,A,4852.4663822,N,00217.5810495,E,0.52,136.97,180502,0.0,E,A*32
$GPGGA,000055.00,4852.4663822,N,00217.5810495,E,1,06,1.0,-12.194,M,0.000,M,0.0,*63
$GPGSA,A,3,01,08,10,16,21,23,,,,,,,2.2,1.3,1.8,1*29
$GPGSV,2,1,06,01,15,255,49,08,73,299,59,10,56,076,58,16,27,182,51,1*6A
$GPGSV,2,2,06,21,45,263,52,23,27,048,50,,,,,,,,,1*6D
$GPRMC,000056.00,A,4852.4664945,N,00217.5808855,E,1.24,136.97,180502,0.0,E,A*3F
$GPGGA,000056.00,4852.4664945,N,00217.5808855,E,1,06,1.0,-11.071,M,0.000,M,0.0,*67
$GPGSA,A,3,01,08,10,16,21,23,,,,,,,2.2,1.3,1.8,1*29
$GPGSV,2,1,06,01,15,255,48,08,73,299,58,10,56,076,56,16,27,182,48,1*6C
$GPGSV,2,2,06,21,45,263,54,23,27,048,50,,,,,,,,,1*6B
$GPRMC,000057.00,A,4852.4662621,N,00217.5813924,E,1.86,136.97,180502,0.0,E,A*30
$GPGGA,000057.00,4852.4662621,N,00217.5813924,E,1,06,1.0,-6.118,M,0.000,M,0.0,*58
$GPGSA,A,3,01,08,10,16,21,23,,,,,,,2.2,1.3,1.8,1*29
$GPGSV,2,1,06,01,16,255,50,08,73,299,57,10,56,076,55,16,27,182,50,1*63
$GPGSV,2,2,06,21,45,263,53,23,27,048,50,,,,,,,,,1*6C
$GPRMC,000058.00,A,4852.4667097,N,00217.5816977,E,1.12,136.97,180502,0.0,E,A*3F
$GPGGA,000058.00,4852.4667097,N,00217.5816977,E,1,06,1.0,-5.213,M,0.000,M,0.0,*51
$GPGSA,A,3,01,08,10,16,21,23,,,,,,,2.2,1.3,1.8,1*29
$GPGSV,2,1,06,01,16,255,48,08,73,299,57,10,56,076,56,16,27,182,51,1*68
$GPGSV,2,2,06,21,45,263,52,23,27,048,50,,,,,,,,,1*6D
$GPRMC,000059.00,A,4852.4667338,N,00217.5797530,E,0.89,136.97,180502,0.0,E,A*32
$GPGGA,000059.00,4852.4667338,N,00217.5797530,E,1,06,1.0,-0.653,M,0.000,M,0.0,*5A
$GPGSA,A,3,01,08,10,16,21,23,,,,,,,2.2,1.3,1.8,1*29
$GPGSV,2,1,06,01,16,255,50,08,73,299,57,10,56,076,57,16,26,182,52,1*62
$GPGSV,2,2,06,21,45,263,53,23,27,048,51,,,,,,,,,1*6D
$GPRMC,000100.00,A,4852.4668185,N,00217.5792587,E,0.66,136.97,180502,0.0,E,A*3C
$GPGGA,000100.00,4852.4668185,N,00217.5792587,E,1,06,1.0,0.260,M,0.000,M,0.0,*7C
$GPGSA,A,3,01,08,10,16,21,23,,,,,,,2.2,1.3,1.8,1*29
$GPGSV,2,1,06,01,16,255,49,08,73,299,56,10,56,076,57,16,26,182,50,1*69
$GPGSV,2,2,06,21,45,263,53,23,27,048,50,,,,,,,,,1*6C
$GPRMC,000101.00,A,4852.4665691,N,00217.5817054,E,0.63,136.97,180502,0.0,E,A*3E
$GPGGA,000101.00,4852.4665691,N,00217.5817054,E,1,06,1.0,-4.793,M,0.000,M,0.0,*5B
$GPGSA,A,3,01,08,10,16,21,23,,,,,,,2.2,1.3,1.8,1*29
$GPGSV,2,1,06,01,16,255,48,08,73,299,55,10,56,076,55,16,26,182,50,1*69
$GPGSV,2,2,06,21,45,263,52,23,27,048,51,,,,,,,,,1*6C
$GPRMC,000102.00,A,4852.4655823,N,00217.5811222,E,0.55,136.97,180502,0.0,E,A*39
$GPGGA,000102.00,4852.4655823,N,00217.5811222,E,1,06,1.0,-5.536,M,0.000,M,0.0,*55
$GPGSA,A,3,01,08,10,16,21,23,,,,,,,2.2,1.3,1.8,1*29
$GPGSV,2,1,06,01,16,255,49,08,73,299,56,10,56,076,55,16,26,182,49,1*63
$GPGSV,2,2,06,21,45,263,53,23,27,048,50,,,,,,,,,1*6C
$GPRMC,000103.00,A,4852.4671135,N,00217.5809621,E,1.54,136.97,180502,0.0,E,A*3E
$GPGGA,000103.00,4852.4671135,N,00217.5809621,E,1,06,1.0,-8.962,M,0.000,M,0.0,*52
$GPGSA,A,3,01,08,10,16,21,23,,,,,,,2.2,1.3,1.8,1*29
$GPGSV,2,1,06,01,16,255,48,08,73,299,56,10,56,076,56,16,26,182,50,1*69
$GPGSV,2,2,06,21,45,263,53,23,27,048,51,,,,,,,,,1*6D
$GPRMC,000104.00,A,4852.4663662,N,00217.5814720,E,1.60,136.97,180502,0.0,E,A*34
$GPGGA,000104.00,4852.4663662,N,00217.5814720,E,1,06,1.0,-9.855,M,0.000,M,0.0,*5B
$GPGSA,A,3,01,08,10,16,21,23,,,,,,,2.2,1.3,1.8,1*29
$GPGSV,2,1,06,01,16,255,47,08,73,299,58,10,56,076,56,16,26,182,50,1*68
$GPGSV,2,2,06,21,45,263,54,23,27,048,50,,,,,,,,,1*6B
$GPRMC,000105.00,A,4852.4656449,N,00217.5829049,E,2.01,353.13,180502,0.0,E,A*37
$GPGGA,000105.00,4852.4656449,N,00217.5829049,E,1,06,1.0,-13.288,M,0.000,M,0.0,*60
$GPGSA,A,3,01,08,10,16,21,23,,,,,,,2.2,1.3,1.8,1*29
$GPGSV,2,1,06,01,16,255,48,08,73,299,58,10,56,076,55,16,26,182,50,1*64
$GPGSV,2,2,06,21,45,263,53,23,27,048,50,,,,,,,,,1*6C
$GPRMC,000106.00,A,4852.4668573,N,00217.5825882,E,1.16,353.13,180502,0.0,E,A*37
$GPGGA,000106.00,4852.4668573,N,00217.5825882,E,1,06,1.0,-18.066,M,0.000,M,0.0,*6C
$GPGSA,A,3,01,08,10,16,21,23,,,,,,,2.2,1.3,1.8,1*29
$GPGSV,2,1,06,01,16,255,48,08,73,299,56,10,56,076,55,16,26,182,51,1*6B
$GPGSV,2,2,06,21,45,263,53,23,27,048,50,,,,,,,,,1*6C
$GPRMC,000107.00,A,4852.4662310,N,00217.5809503,E,0.88,353.13,180502,0.0,E,A*33
$GPGGA,000107.00,4852.4662310,N,00217.5809503,E,1,06,1.0,-11.595,M,0.000,M,0.0,*6E
$GPGSA,A,3,01,08,10,16,21,23,,,,,,,2.2,1.3,1.8,1*29
$GPGSV,2,1,06,01,16,255,47,08,73,299,56,10,56,076,54,16,26,182,50,1*64
$GPGSV,2,2,06,21,45,263,51,23,27,048,51,,,,,,,,,1*6F
$GPRMC,000108.00,A,4852.4656923,N,00217.5826565,E,9.91,112.56,180502,0.0,E,A*3B
$GPGGA,000108.00,4852.4656923,N,00217.5826565,E,1,06,1.0,-11.796,M,0.000,M,0.0,*60
$GPGSA,A,3,01,08,10,16,21,23,,,,,,,2.2,1.3,1.8,1*29
$GPGSV,2,1,06,01,16,255,46,08,73,299,57,10,56,076,55,16,26,182,51,1*64
$GPGSV,2,2,06,21,45,263,51,23,27,048,52,,,,,,,,,1*6C
$GPRMC,000109.00,A,4852.4644969,N,00217.5890167,E,20.29,116.01,180502,0.0,E,A*02
$GPGGA,000109.00,4852.4644969,N,00217.5890167,E,1,06,1.0,-10.472,M,0.000,M,0.0,*6F
$GPGSA,A,3,01,08,10,16,21,23,,,,,,,2.2,1.3,1.8,1*29
$GPGSV,2,1,06,01,16,255,40,08,73,299,59,10,56,076,52,16,26,182,51,1*6B
$GPGSV,2,2,06,21,45,263,46,23,27,048,54,,,,,,,,,1*6C
$GPRMC,000110.00,A,4852.4589795,N,00217.5995519,E,29.32,117.23,180502,0.0,E,A*0E
$GPGGA,000110.00,4852.4589795,N,00217.5995519,E,1,06,1.0,-9.372,M,0.000,M,0.0,*5E
$GPGSA,A,3,01,08,10,16,21,23,,,,,,,2.2,1.3,1.8,1*29
$GPGSV,2,1,06,01,16,255,50,08,73,299,57,10,56,076,48,16,26,182,44,1*6B
$GPGSV,2,2,06,21,45,263,52,23,27,048,46,,,,,,,,,1*6A
$GPRMC,000111.00,A,4852.4571518,N,00217.6100166,E,31.26,115.30,180502,0.0,E,A*08
$GPGGA,000111.00,4852.4571518,N,00217.6100166,E,1,06,1.0,-8.421,M,0.000,M,0.0,*54
$GPGSA,A,3,01,08,10,16,21,23,,,,,,,2.2,1.3,1.8,1*29
$GPGSV,2,1,06,01,16,255,53,08,73,299,49,10,56,076,54,16,26,182,43,1*6D
$GPGSV,2,2,06,21,45,263,58,23,27,048,42,,,,,,,,,1*64
$GPRMC,000112.00,A,4852.4549152,N,00217.6202665,E,32.72,115.69,180502,0.0,E,A*01
$GPGGA,000112.00,4852.4549152,N,00217.6202665,E,1,06,1.0,-4.886,M,0.000,M,0.0,*5E
$GPGSA,A,3,01,08,10,16,21,23,,,,,,,2.2,1.3,1.8,1*29
$GPGSV,2,1,06,01,16,255,50,08,73,299,48,10,56,076,57,16,26,182,49,1*66
$GPGSV,2,2,06,21,45,263,59,23,27,048,48,,,,,,,,,1*6F
$GPRMC,000113.00,A,4852.4495914,N,00217.6336125,E,31.43,114.98,180502,0.0,E,A*01
$GPGGA,000113.00,4852.4495914,N,00217.6336125,E,1,06,1.0,-3.879,M,0.000,M,0.0,*57
$GPGSA,A,3,01,08,10,16,21,23,,,,,,,2.2,1.3,1.8,1*29
$GPGSV,2,1,06,01,16,255,47,08,73,299,49,10,56,076,56,16,26,182,48,1*61
$GPGSV,2,2,06,21,45,263,53,23,27,048,49,,,,,,,,,1*64
$GPRMC,000114.00,A,4852.4456709,N,00217.6442979,E,22.86,109.68,180502,0.0,E,A*06
$GPGGA,000114.00,4852.4456709,N,00217.6442979,E,1,06,1.0,0.703,M,0.000,M,0.0,*74
$GPGSA,A,3,01,08,10,16,21,23,,,,,,,2.2,1.3,1.8,1*29
$GPGSV,2,1,06,01,16,255,44,08,73,299,46,10,56,076,52,16,26,182,44,1*65
$GPGSV,2,2,06,21,45,263,48,23,27,048,44,,,,,,,,,1*63
$GPRMC,000115.00,A,4852.4464597,N,00217.6526938,E,13.65,108.96,180502,0.0,E,A*0A
$GPGGA,000115.00,4852.4464597,N,00217.6526938,E,1,06,1.0,-10.644,M,0.000,M,0.0,*69
$GPGSA,A,3,01,08,10,16,21,23,,,,,,,2.2,1.3,1.8,1*29
$GPGSV,2,1,06,01,16,255,39,08,73,299,46,10,56,076,45,16,26,182,39,1*63
$GPGSV,2,2,06,21,45,263,44,23,27,048,39,,,,,,,,,1*65
$GPRMC,000116.00,A,4852.4458675,N,00217.6563490,E,9.43,61.82,180502,0.0,E,A*03
$GPGGA,000116.00,4852.4458675,N,00217.6563490,E,1,06,1.0,-7.677,M,0.000,M,0.0,*52
$GPGSA,A,3,01,08,10,16,21,23,,,,,,,2.2,1.3,1.8,1*29
$GPGSV,2,1,06,01,16,255,37,08,73,298,46,10,56,076,42,16,26,182,36,1*64
$GPGSV,2,2,06,21,45,263,41,23,27,048,36,,,,,,,,,1*6F
$GPRMC,000117.00,A,4852.4472866,N,00217.6621257,E,21.15,66.52,180502,0.0,E,A*3D
$GPGGA,000117.00,4852.4472866,N,00217.6621257,E,1,06,1.0,-4.994,M,0.000,M,0.0,*5E
$GPGSA,A,3,01,08,10,16,21,23,,,,,,,2.2,1.3,1.8,1*29
$GPGSV,2,1,06,01,16,255,35,08,73,298,57,10,56,076,37,16,26,182,35,1*67
$GPGSV,2,2,06,21,45,263,36,23,27,048,35,,,,,,,,,1*6C
$GPRMC,000118.00,A,4852.4525908,N,00217.6704637,E,32.01,56.67,180502,0.0,E,A*3E
$GPGGA,000118.00,4852.4525908,N,00217.6704637,E,1,06,1.0,-10.391,M,0.000,M,0.0,*65
$GPGSA,A,3,01,08,10,16,21,23,,,,,,,2.2,1.3,1.8,1*29
$GPGSV,2,1,06,01,16,255,35,08,73,298,54,10,56,076,35,16,26,182,35,1*66
$GPGSV,2,2,06,21,45,263,35,23,27,048,35,,,,,,,,,1*6F
$GPRMC,000119.00,A,4852.4522922,N,00217.6844909,E,27.92,69.33,180502,0.0,E,A*3A
$GPGGA,000119.00,4852.4522922,N,00217.6844909,E,1,06,1.0,-7.396,M,0.000,M,0.0,*53
$GPGSA,A,3,01,08,10,16,21,23,,,,,,,2.2,1.3,1.8,1*29
$GPGSV,2,1,06,01,16,255,35,08,74,298,50,10,56,076,35,16,26,182,35,1*65
$GPGSV,2,2,06,21,45,263,35,23,27,048,36,,,,,,,,,1*6C
$GPRMC,000120.00,A,4852.4544880,N,00217.6920776,E,20.97,78.38,180502,0.0,E,A*35
$GPGGA,000120.00,4852.4544880,N,00217.6920776,E,1,06,1.0,-11.062,M,0.000,M,0.0,*6A
$GPGSA,A,3,01,08,10,16,21,23,,,,,,,2.2,1.3,1.8,1*29
$GPGSV,2,1,06,01,16,255,35,08,74,298,54,10,56,076,36,16,26,182,36,1*61
$GPGSV,2,2,06,21,45,263,36,23,27,048,36,,,,,,,,,1*6F
$GPRMC,000121.00,A,4852.4537359,N,00217.6979531,E,20.62,80.43,180502,0.0,E,A*33
$GPGGA,000121.00,4852.4537359,N,00217.6979531,E,1,05,1.0,-5.547,M,0.000,M,0.0,*59
$GPGSA,A,3,08,10,16,21,23,,,,,,,,3.0,1.6,2.6,1*23
$GPGSV,2,1,05,08,74,298,54,10,56,076,38,16,26,182,36,21,45,263,37,1*6F
$GPGSV,2,2,05,23,27,048,36,,,,,,,,,,,,,1*5C
$GPRMC,000122.00,A,4852.4559747,N,00217.7058062,E,18.20,89.87,180502,0.0,E,A*37
$GPGGA,000122.00,4852.4559747,N,00217.7058062,E,1,05,1.0,-19.048,M,0.000,M,0.0,*66
$GPGSA,A,3,08,10,16,21,23,,,,,,,,3.0,1.6,2.6,1*23
$GPGSV,2,1,05,08,74,298,52,10,56,076,38,16,26,182,36,21,45,263,38,1*66
$GPGSV,2,2,05,23,27,048,36,,,,,,,,,,,,,1*5C
$GPRMC,000123.00,A,4852.4533959,N,00217.7153849,E,20.37,111.64,180502,0.0,E,A*00
$GPGGA,000123.00,4852.4533959,N,00217.7153849,E,1,05,1.0,-21.195,M,0.000,M,0.0,*6B
$GPGSA,A,3,08,10,16,21,23,,,,,,,,3.0,1.6,2.6,1*23
$GPGSV,2,1,05,08,74,298,51,10,56,076,42,16,26,182,38,21,45,263,40,1*69
$GPGSV,2,2,05,23,27,048,38,,,,,,,,,,,,,1*52
$GPRMC,000124.00,A,4852.4505657,N,00217.7137589,E,19.73,111.49,180502,0.0,E,A*05
$GPGGA,000124.00,4852.4505657,N,00217.7137589,E,1,05,1.0,-53.233,M,0.000,M,0.0,*61
$GPGSA,A,3,08,10,16,21,23,,,,,,,,3.0,1.6,2.6,1*23
$GPGSV,2,1,05,08,74,298,48,10,56,076,48,16,26,182,44,21,45,263,46,1*66
$GPGSV,2,2,05,23,27,048,44,,,,,,,,,,,,,1*59
$GPRMC,000125.00,A,4852.4433234,N,00217.7312301,E,19.17,125.23,180502,0.0,E,A*0B
$GPGGA,000125.00,4852.4433234,N,00217.7312301,E,1,05,1.0,-17.806,M,0.000,M,0.0,*6A
$GPGSA,A,3,08,10,16,21,23,,,,,,,,3.0,1.6,2.6,1*23
$GPGSV,2,1,05,08,74,298,53,10,56,076,49,16,26,182,45,21,45,263,52,1*69
$GPGSV,2,2,05,23,27,048,47,,,,,,,,,,,,,1*5A
$GPRMC,000126.00,A,4852.4441161,N,00217.7382177,E,13.04,135.27,180502,0.0,E,A*09
$GPGGA,000126.00,4852.4441161,N,00217.7382177,E,1,05,1.0,-13.383,M,0.000,M,0.0,*67
$GPGSA,A,3,08,10,16,21,23,,,,,,,,3.0,1.6,2.6,1*23
$GPGSV,2,1,05,08,74,298,52,10,56,076,46,16,26,182,42,21,45,263,45,1*66
$GPGSV,2,2,05,23,27,048,42,,,,,,,,,,,,,1*5F
$GPRMC,000127.00,A,4852.4416935,N,00217.7385230,E,17.08,142.26,180502,0.0,E,A*0D
$GPGGA,000127.00,4852.4416935,N,00217.7385230,E,1,05,1.0,-11.527,M,0.000,M,0.0,*60
$GPGSA,A,3,08,10,16,21,23,,,,,,,,3.0,1.6,2.6,1*23
$GPGSV,2,1,05,08,74,298,50,10,56,076,40,16,26,182,39,21,45,263,39,1*65
$GPGSV,2,2,05,23,27,048,38,,,,,,,,,,,,,1*52
$GPRMC,000128.00,A,4852.4339562,N,00217.7445656,E,22.30,156.68,180502,0.0,E,A*0B
$GPGGA,000128.00,4852.4339562,N,00217.7445656,E,1,05,1.0,-0.547,M,0.000,M,0.0,*52
$GPGSA,A,3,08,10,16,21,23,,,,,,,,3.0,1.6,2.6,1*23
$GPGSV,2,1,05,08,74,298,52,10,56,076,38,16,26,182,36,21,45,263,38,1*66
$GPGSV,2,2,05,23,27,048,36,,,,,,,,,,,,,1*5C
$GPRMC,000129.00,A,4852.4319448,N,00217.7485145,E,24.89,165.58,180502,0.0,E,A*0F
$GPGGA,000129.00,4852.4319448,N,00217.7485145,E,1,05,1.0,-0.167,M,0.000,M,0.0,*57
$GPGSA,A,3,08,10,16,21,23,,,,,,,,3.0,1.6,2.6,1*23
$GPGSV,2,1,05,08,74,298,46,10,56,076,36,16,26,182,36,21,45,263,36,1*63
$GPGSV,2,2,05,23,27,048,36,,,,,,,,,,,,,1*5C
$GPRMC,000130.00,A,4852.4244497,N,00217.7501775,E,20.40,161.16,180502,0.0,E,A*0B
$GPGGA,000130.00,4852.4244497,N,00217.7501775,E,1,05,1.0,2.037,M,0.000,M,0.0,*77
$GPGSA,A,3,08,10,16,21,23,,,,,,,,3.0,1.6,2.6,1*23
$GPGSV,2,1,05,08,74,298,44,10,56,076,35,16,26,182,36,21,45,263,35,1*61
$GPGSV,2,2,05,23,27,048,36,,,,,,,,,,,,,1*5C
$GPRMC,000131.00,A,4852.4213633,N,00217.7493453,E,20.97,174.05,180502,0.0,E,A*05
$GPGGA,000131.00,4852.4213633,N,00217.7493453,E,1,05,1.0,1.367,M,0.000,M,0.0,*70
$GPGSA,A,3,08,10,16,21,23,,,,,,,,3.0,1.6,2.6,1*23
$GPGSV,2,1,05,08,74,298,57,10,56,076,35,16,26,182,35,21,45,263,35,1*60
$GPGSV,2,2,05,23,27,048,35,,,,,,,,,,,,,1*5F
$GPRMC,000132.00,A,4852.4195300,N,00217.7527249,E,8.92,158.35,180502,0.0,E,A*3F
$GPGGA,000132.00,4852.4195300,N,00217.7527249,E,1,05,1.0,-0.949,M,0.000,M,0.0,*52
$GPGSA,A,3,08,10,16,21,23,,,,,,,,3.0,1.6,2.6,1*23
$GPGSV,2,1,05,08,74,298,52,10,56,076,36,16,26,182,35,21,45,263,35,1*66
$GPGSV,2,2,05,23,27,048,35,,,,,,,,,,,,,1*5F
$GPRMC,000133.00,A,4852.4118775,N,00217.7620852,E,14.72,122.23,180502,0.0,E,A*00
$GPGGA,000133.00,4852.4118775,N,00217.7620852,E,1,05,1.0,12.067,M,0.000,M,0.0,*4F
$GPGSA,A,3,08,10,16,21,23,,,,,,,,3.0,1.6,2.6,1*23
$GPGSV,2,1,05,08,74,298,50,10,56,076,39,16,26,182,34,21,45,263,39,1*66
$GPGSV,2,2,05,23,27,048,35,,,,,,,,,,,,,1*5F
$GPRMC,000206.00,A,4852.4029011,N,00217.5760614,E,30.18,336.90,180502,0.0,E,A*0D
$GPGGA,000206.00,4852.4029011,N,00217.5760614,E,1,05,1.0,20.098,M,0.000,M,0.0,*46
$GPGSA,A,3,08,10,21,23,27,,,,,,,,4.9,3.1,3.7,1*2A
$GPGSV,2,1,05,08,74,298,53,10,55,075,46,21,45,263,44,23,27,047,40,1*6B
$GPGSV,2,2,05,27,69,121,53,,,,,,,,,,,,,1*5F
$GPRMC,000207.00,A,4852.3948483,N,00217.5777488,E,36.94,345.47,180502,0.0,E,A*07
$GPGGA,000207.00,4852.3948483,N,00217.5777488,E,1,05,1.0,-9.129,M,0.000,M,0.0,*5D
$GPGSA,A,3,08,10,21,23,27,,,,,,,,4.9,3.1,3.7,1*2A
$GPGSV,2,1,05,08,74,298,54,10,55,075,46,21,45,263,45,23,27,047,42,1*6F
$GPGSV,2,2,05,27,69,121,53,,,,,,,,,,,,,1*5F
$GPRMC,000208.00,A,4852.4019587,N,00217.5719481,E,37.37,350.95,180502,0.0,E,A*05
$GPGGA,000208.00,4852.4019587,N,00217.5719481,E,1,05,1.0,-14.501,M,0.000,M,0.0,*6E
$GPGSA,A,3,08,10,21,23,27,,,,,,,,4.9,3.1,3.8,1*25
$GPGSV,2,1,05,08,74,298,50,10,55,075,45,21,45,263,44,23,27,047,42,1*69
$GPGSV,2,2,05,27,69,121,51,,,,,,,,,,,,,1*5D
$GPRMC,000209.00,A,4852.4072862,N,00217.5709497,E,31.67,348.24,180502,0.0,E,A*09
$GPGGA,000209.00,4852.4072862,N,00217.5709497,E,1,05,1.0,-25.378,M,0.000,M,0.0,*68
$GPGSA,A,3,08,10,21,23,27,,,,,,,,4.9,3.1,3.8,1*25
$GPGSV,2,1,05,08,74,298,53,10,55,075,46,21,45,263,44,23,27,047,43,1*68
$GPGSV,2,2,05,27,69,121,52,,,,,,,,,,,,,1*5E
$GPRMC,000210.00,A,4852.4182506,N,00217.5682786,E,32.34,355.90,180502,0.0,E,A*07
$GPGGA,000210.00,4852.4182506,N,00217.5682786,E,1,05,1.0,-19.873,M,0.000,M,0.0,*6F
$GPGSA,A,3,08,10,21,23,27,,,,,,,,4.9,3.1,3.8,1*25
$GPGSV,2,1,05,08,74,298,53,10,55,075,46,21,45,263,45,23,27,047,44,1*6E
$GPGSV,2,2,05,27,69,121,51,,,,,,,,,,,,,1*5D
$GPRMC,000211.00,A,4852.4347504,N,00217.5671231,E,32.01,3.16,180502,0.0,E,A*02
$GPGGA,000211.00,4852.4347504,N,00217.5671231,E,1,05,1.0,-10.961,M,0.000,M,0.0,*69
$GPGSA,A,3,08,10,21,23,27,,,,,,,,4.9,3.1,3.8,1*25
$GPGSV,2,1,05,08,74,298,49,10,55,075,44,21,45,263,43,23,27,047,42,1*67
$GPGSV,2,2,05,27,69,121,50,,,,,,,,,,,,,1*5C
$GPRMC,000212.00,A,4852.4392970,N,00217.5671340,E,28.59,9.41,180502,0.0,E,A*0F
$GPGGA,000212.00,4852.4392970,N,00217.5671340,E,1,05,1.0,-20.909,M,0.000,M,0.0,*67
$GPGSA,A,3,08,10,21,23,27,,,,,,,,4.9,3.1,3.8,1*25
$GPGSV,2,1,05,08,74,298,49,10,55,075,44,21,45,263,42,23,27,047,41,1*65
$GPGSV,2,2,05,27,69,121,48,,,,,,,,,,,,,1*55
$GPRMC,000213.00,A,4852.4465896,N,00217.5716598,E,30.95,11.46,180502,0.0,E,A*3C
$GPGGA,000213.00,4852.4465896,N,00217.5716598,E,1,05,1.0,-34.134,M,0.000,M,0.0,*60
$GPGSA,A,3,08,10,21,23,27,,,,,,,,4.9,3.1,3.8,1*25
$GPGSV,2,1,05,08,74,298,47,10,55,075,45,21,45,263,43,23,27,047,44,1*6E
$GPGSV,2,2,05,27,69,121,46,,,,,,,,,,,,,1*5B
$GPRMC,000214.00,A,4852.4503929,N,00217.5750941,E,19.45,12.89,180502,0.0,E,A*33
$GPGGA,000214.00,4852.4503929,N,00217.5750941,E,1,05,1.0,-13.185,M,0.000,M,0.0,*66
$GPGSA,A,3,08,10,21,23,27,,,,,,,,4.9,3.1,3.8,1*25
$GPGSV,2,1,05,08,74,298,47,10,55,075,48,21,45,263,48,23,27,047,39,1*62
$GPGSV,2,2,05,27,69,121,44,,,,,,,,,,,,,1*59
$GPRMC,000215.00,A,4852.4590217,N,00217.5770603,E,9.57,2.17,180502,0.0,E,A*31
$GPGGA,000215.00,4852.4590217,N,00217.5770603,E,1,05,1.0,-5.329,M,0.000,M,0.0,*53
$GPGSA,A,3,08,10,21,23,27,,,,,,,,4.9,3.1,3.8,1*25
$GPGSV,2,1,05,08,74,298,50,10,55,075,43,21,45,263,44,23,27,047,36,1*6C
$GPGSV,2,2,05,27,69,121,47,,,,,,,,,,,,,1*5A
$GPRMC,000216.00,A,4852.4659267,N,00217.5725346,E,4.93,15.98,180502,0.0,E,A*03
$GPGGA,000216.00,4852.4659267,N,00217.5725346,E,1,05,1.0,-0.666,M,0.000,M,0.0,*5E
$GPGSA,A,3,08,10,21,23,27,,,,,,,,4.9,3.1,3.8,1*25
$GPGSV,2,1,05,08,74,298,50,10,55,075,41,21,45,263,41,23,27,047,35,1*68
$GPGSV,2,2,05,27,69,121,50,,,,,,,,,,,,,1*5C
$GPRMC,000217.00,A,4852.4628046,N,00217.5700648,E,1.49,15.98,180502,0.0,E,A*0B
$GPGGA,000217.00,4852.4628046,N,00217.5700648,E,1,05,1.0,3.411,M,0.000,M,0.0,*78
$GPGSA,A,3,08,10,21,23,27,,,,,,,,4.9,3.1,3.8,1*25
$GPGSV,2,1,05,08,74,298,54,10,55,075,46,21,45,263,46,23,27,047,38,1*61
$GPGSV,2,2,05,27,69,121,54,,,,,,,,,,,,,1*58
$GPRMC,000218.00,A,4852.4607534,N,00217.5720795,E,1.05,15.98,180502,0.0,E,A*02
$GPGGA,000218.00,4852.4607534,N,00217.5720795,E,1,05,1.0,-10.150,M,0.000,M,0.0,*66
$GPGSA,A,3,08,10,21,23,27,,,,,,,,4.9,3.1,3.8,1*25
$GPGSV,2,1,05,08,74,298,56,10,55,075,54,21,45,263,51,23,27,047,48,1*61
$GPGSV,2,2,05,27,69,121,54,,,,,,,,,,,,,1*58
$GPRMC,000219.00,A,4852.4594703,N,00217.5748038,E,1.26,15.98,180502,0.0,E,A*03
$GPGGA,000219.00,4852.4594703,N,00217.5748038,E,1,05,1.0,-0.827,M,0.000,M,0.0,*5E
$GPGSA,A,3,08,10,21,23,27,,,,,,,,4.9,3.1,3.8,1*25
$GPGSV,2,1,05,08,74,298,56,10,55,075,53,21,45,263,52,23,27,047,51,1*6D
$GPGSV,2,2,05,27,69,121,52,,,,,,,,,,,,,1*5E
$GPRMC,000220.00,A,4852.4635958,N,00217.5733781,E,0.84,15.98,180502,0.0,E,A*01
$GPGGA,000220.00,4852.4635958,N,00217.5733781,E,1,05,1.0,9.514,M,0.000,M,0.0,*7C
$GPGSA,A,3,08,10,21,23,27,,,,,,,,4.9,3.1,3.8,1*25
$GPGSV,2,1,05,08,74,298,56,10,55,075,53,21,45,263,54,23,27,047,50,1*6A
$GPGSV,2,2,05,27,69,121,50,,,,,,,,,,,,,1*5C
$GPRMC,000221.00,A,4852.4694047,N,00217.5694330,E,2.70,343.41,180502,0.0,E,A*33
$GPGGA,000221.00,4852.4694047,N,00217.5694330,E,1,05,1.0,4.476,M,0.000,M,0.0,*7B
$GPGSA,A,3,08,10,21,23,27,,,,,,,,4.9,3.1,3.8,1*25
$GPGSV,2,1,05,08,74,298,57,10,55,075,54,21,45,263,55,23,27,047,51,1*6C
$GPGSV,2,2,05,27,69,121,52,,,,,,,,,,,,,1*5E
$GPRMC,000222.00,A,4852.4686594,N,00217.5666728,E,1.33,343.41,180502,0.0,E,A*3C
$GPGGA,000222.00,4852.4686594,N,00217.5666728,E,1,05,1.0,4.726,M,0.000,M,0.0,*76
$GPGSA,A,3,08,10,21,23,27,,,,,,,,4.9,3.1,3.8,1*25
$GPGSV,2,1,05,08,74,298,55,10,55,075,54,21,45,263,54,23,27,047,50,1*6E
$GPGSV,2,2,05,27,69,121,53,,,,,,,,,,,,,1*5F
