$GPRMC,000030.00,A,4852.4662587,N,00217.5805414,E,1.19,0.00,180502,0.0,E,A*3B
$GPGGA,000030.00,4852.4662587,N,00217.5805414,E,1,06,1.0,-8.476,M,0.000,M,0.0,*5C
$GPGSA,A,3,01,08,10,16,21,23,,,,,,,2.2,1.3,1.8,1*29
$GPGSV,2,1,06,01,15,255,47,08,73,299,56,10,56,076,54,16,27,182,50,1*66
$GPGSV,2,2,06,21,45,263,53,23,28,048,50,,,,,,,,,1*63
$GPRMC,000031.00,A,4852.4660686,N,00217.5818028,E,0.53,0.00,180502,0.0,E,A*32
$GPGGA,000031.00,4852.4660686,N,00217.5818028,E,1,06,1.0,-9.741,M,0.000,M,0.0,*5C
$GPGSA,A,3,01,08,10,16,21,23,,,,,,,2.2,1.3,1.8,1*29
$GPGSV,2,1,06,01,15,255,47,08,73,299,57,10,56,076,54,16,27,182,50,1*67
$GPGSV,2,2,06,21,45,263,54,23,28,048,50,,,,,,,,,1*64
$GPRMC,000032.00,A,4852.4666250,N,00217.5821019,E,1.28,0.00,180502,0.0,E,A*3D
$GPGGA,000032.00,4852.4666250,N,00217.5821019,E,1,06,1.0,-15.230,M,0.000,M,0.0,*60
$GPGSA,A,3,01,08,10,16,21,23,,,,,,,2.2,1.3,1.8,1*29
$GPGSV,2,1,06,01,15,255,48,08,73,299,57,10,56,076,54,16,27,182,50,1*68
$GPGSV,2,2,06,21,45,263,53,23,28,048,51,,,,,,,,,1*62
$GPRMC,000033.00,A,4852.4665671,N,00217.5806476,E,1.50,0.00,180502,0.0,E,A*3F
$GPGGA,000033.00,4852.4665671,N,00217.5806476,E,1,06,1.0,-15.327,M,0.000,M,0.0,*6A
$GPGSA,A,3,01,08,10,16,21,23,,,,,,,2.2,1.3,1.8,1*29
$GPGSV,2,1,06,01,15,255,48,08,73,299,56,10,56,076,54,16,27,182,49,1*61
$GPGSV,2,2,06,21,45,263,54,23,28,048,50,,,,,,,,,1*64
$GPRMC,000034.00,A,4852.4668995,N,00217.5813440,E,1.85,0.00,180502,0.0,E,A*39
$GPGGA,000034.00,4852.4668995,N,00217.5813440,E,1,06,1.0,-13.873,M,0.000,M,0.0,*68
$GPGSA,A,3,01,08,10,16,21,23,,,,,,,2.2,1.3,1.8,1*29
$GPGSV,2,1,06,01,15,255,48,08,73,299,56,10,56,076,54,16,27,182,50,1*69
$GPGSV,2,2,06,21,45,263,52,23,28,048,50,,,,,,,,,1*62
$GPRMC,000035.00,A,4852.4661282,N,00217.5808878,E,0.37,0.00,180502,0.0,E,A*39
$GPGGA,000035.00,4852.4661282,N,00217.5808878,E,1,06,1.0,-7.653,M,0.000,M,0.0,*59
$GPGSA,A,3,01,08,10,16,21,23,,,,,,,2.2,1.3,1.8,1*29
$GPGSV,2,1,06,01,15,255,47,08,73,299,58,10,56,076,57,16,27,182,50,1*6B
$GPGSV,2,2,06,21,45,263,52,23,27,048,51,,,,,,,,,1*6C
$GPRMC,000036.00,A,4852.4672768,N,00217.5796304,E,0.93,0.00,180502,0.0,E,A*3F
$GPGGA,000036.00,4852.4672768,N,00217.5796304,E,1,06,1.0,-8.329,M,0.000,M,0.0,*56
$GPGSA,A,3,01,08,10,16,21,23,,,,,,,2.2,1.3,1.8,1*29
$GPGSV,2,1,06,01,15,255,49,08,73,299,57,10,56,076,57,16,27,182,51,1*6B
$GPGSV,2,2,06,21,45,263,54,23,27,048,50,,,,,,,,,1*6B
$GPRMC,000037.00,A,4852.4677500,N,00217.5783684,E,0.60,0.00,180502,0.0,E,A*32
$GPGGA,000037.00,4852.4677500,N,00217.5783684,E,1,06,1.0,-2.638,M,0.000,M,0.0,*58
$GPGSA,A,3,01,08,10,16,21,23,,,,,,,2.2,1.3,1.8,1*29
$GPGSV,2,1,06,01,15,255,47,08,73,299,59,10,56,076,56,16,27,182,49,1*63
$GPGSV,2,2,06,21,45,263,53,23,27,048,50,,,,,,,,,1*6C
$GPRMC,000038.00,A,4852.4663976,N,00217.5801843,E,0.54,0.00,180502,0.0,E,A*32
$GPGGA,000038.00,4852.4663976,N,00217.5801843,E,1,06,1.0,-2.113,M,0.000,M,0.0,*51
$GPGSA,A,3,01,08,10,16,21,23,,,,,,,2.2,1.3,1.8,1*29
$GPGSV,2,1,06,01,15,255,48,08,73,299,55,10,56,076,55,16,27,182,50,1*6B
$GPGSV,2,2,06,21,45,263,53,23,27,048,50,,,,,,,,,1*6C
$GPRMC,000039.00,A,4852.4669137,N,00217.5808765,E,0.79,0.00,180502,0.0,E,A*39
$GPGGA,000039.00,4852.4669137,N,00217.5808765,E,1,06,1.0,-7.794,M,0.000,M,0.0,*59
$GPGSA,A,3,01,08,10,16,21,23,,,,,,,2.2,1.3,1.8,1*29
$GPGSV,2,1,06,01,15,255,48,08,73,299,56,10,56,076,54,16,27,182,50,1*69
$GPGSV,2,2,06,21,45,263,52,23,27,048,52,,,,,,,,,1*6F
$GPRMC,000040.00,A,4852.4669756,N,00217.5786982,E,1.61,0.00,180502,0.0,E,A*30
$GPGGA,000040.00,4852.4669756,N,00217.5786982,E,1,06,1.0,-7.064,M,0.000,M,0.0,*50
$GPGSA,A,3,01,08,10,16,21,23,,,,,,,2.2,1.3,1.8,1*29
$GPGSV,2,1,06,01,15,255,48,08,73,299,57,10,56,076,55,16,27,182,50,1*69
$GPGSV,2,2,06,21,45,263,52,23,27,048,50,,,,,,,,,1*6D
$GPRMC,000041.00,A,4852.4665695,N,00217.5803625,E,0.52,0.00,180502,0.0,E,A*32
$GPGGA,000041.00,4852.4665695,N,00217.5803625,E,1,06,1.0,-10.909,M,0.000,M,0.0,*67
$GPGSA,A,3,01,08,10,16,21,23,,,,,,,2.2,1.3,1.8,1*29
$GPGSV,2,1,06,01,15,255,47,08,73,299,55,10,56,076,54,16,27,182,50,1*65
$GPGSV,2,2,06,21,45,263,54,23,27,048,50,,,,,,,,,1*6B
$GPRMC,000042.00,A,4852.4658140,N,00217.5820723,E,0.85,0.00,180502,0.0,E,A*3C
$GPGGA,000042.00,4852.4658140,N,00217.5820723,E,1,06,1.0,-14.049,M,0.000,M,0.0,*6A
$GPGSA,A,3,01,08,10,16,21,23,,,,,,,2.2,1.3,1.8,1*29
$GPGSV,2,1,06,01,15,255,49,08,73,299,57,10,56,076,54,16,27,182,50,1*69
$GPGSV,2,2,06,21,45,263,53,23,27,048,50,,,,,,,,,1*6C
$GPRMC,000043.00,A,4852.4667886,N,00217.5812419,E,0.96,0.00,180502,0.0,E,A*3B
$GPGGA,000043.00,4852.4667886,N,00217.5812419,E,1,06,1.0,-16.884,M,0.000,M,0.0,*64
$GPGSA,A,3,01,08,10,16,21,23,,,,,,,2.2,1.3,1.8,1*29
$GPGSV,2,1,06,01,15,255,47,08,73,299,56,10,56,076,54,16,27,182,48,1*6F
$GPGSV,2,2,06,21,45,263,54,23,27,048,52,,,,,,,,,1*69
$GPRMC,000044.00,A,4852.4663513,N,00217.5806330,E,0.68,0.00,180502,0.0,E,A*31
$GPGGA,000044.00,4852.4663513,N,00217.5806330,E,1,06,1.0,-13.101,M,0.000,M,0.0,*6E
$GPGSA,A,3,01,08,10,16,21,23,,,,,,,2.2,1.3,1.8,1*29
$GPGSV,2,1,06,01,15,255,49,08,73,299,58,10,56,076,56,16,27,182,48,1*6D
$GPGSV,2,2,06,21,45,263,52,23,27,048,51,,,,,,,,,1*6C
$GPRMC,000045.00,A,4852.4664070,N,00217.5802209,E,0.41,0.00,180502,0.0,E,A*33
$GPGGA,000045.00,4852.4664070,N,00217.5802209,E,1,06,1.0,-10.394,M,0.000,M,0.0,*6A
$GPGSA,A,3,01,08,10,16,21,23,,,,,,,2.2,1.3,1.8,1*29
$GPGSV,2,1,06,01,15,255,48,08,73,299,57,10,56,076,56,16,27,182,48,1*63
$GPGSV,2,2,06,21,45,263,52,23,27,048,50,,,,,,,,,1*6D
$GPRMC,000046.00,A,4852.4672168,N,00217.5808384,E,0.46,0.00,180502,0.0,E,A*36
$GPGGA,000046.00,4852.4672168,N,00217.5808384,E,1,06,1.0,-11.100,M,0.000,M,0.0,*66
$GPGSA,A,3,01,08,10,16,21,23,,,,,,,2.2,1.3,1.8,1*29
$GPGSV,2,1,06,01,15,255,49,08,73,299,55,10,56,076,56,16,27,182,48,1*60
$GPGSV,2,2,06,21,45,263,51,23,27,048,50,,,,,,,,,1*6E
$GPRMC,000047.00,A,4852.4662402,N,00217.5796600,E,1.54,0.00,180502,0.0,E,A*3C
$GPGGA,000047.00,4852.4662402,N,00217.5796600,E,1,06,1.0,-4.175,M,0.000,M,0.0,*58
$GPGSA,A,3,01,08,10,16,21,23,,,,,,,2.2,1.3,1.8,1*29
$GPGSV,2,1,06,01,15,255,50,08,73,299,57,10,56,076,58,16,27,182,49,1*65
$GPGSV,2,2,06,21,45,263,52,23,27,048,52,,,,,,,,,1*6F
$GPRMC,000048.00,A,4852.4673182,N,00217.5779564,E,1.32,0.00,180502,0.0,E,A*3E
$GPGGA,000048.00,4852.4673182,N,00217.5779564,E,1,06,1.0,-2.646,M,0.000,M,0.0,*5B
$GPGSA,A,3,01,08,10,16,21,23,,,,,,,2.2,1.3,1.8,1*29
$GPGSV,2,1,06,01,15,255,50,08,73,299,57,10,56,076,55,16,27,182,50,1*60
$GPGSV,2,2,06,21,45,263,54,23,27,048,49,,,,,,,,,1*63
$GPRMC,000049.00,A,4852.4672517,N,00217.5791449,E,1.43,0.00,180502,0.0,E,A*38
$GPGGA,000049.00,4852.4672517,N,00217.5791449,E,1,06,1.0,-5.468,M,0.000,M,0.0,*52
$GPGSA,A,3,01,08,10,16,21,23,,,,,,,2.2,1.3,1.8,1*29
$GPGSV,2,1,06,01,15,255,49,08,73,299,57,10,56,076,54,16,27,182,49,1*61
$GPGSV,2,2,06,21,45,263,51,23,27,048,50,,,,,,,,,1*6E
$GPRMC,000050.00,A,4852.4658258,N,00217.5809898,E,1.13,0.00,180502,0.0,E,A*3F
$GPGGA,000050.00,4852.4658258,N,00217.5809898,E,1,06,1.0,-6.862,M,0.000,M,0.0,*55
$GPGSA,A,3,01,08,10,16,21,23,,,,,,,2.2,1.3,1.8,1*29
$GPGSV,2,1,06,01,15,255,49,08,73,299,56,10,56,076,55,16,27,182,51,1*68
$GPGSV,2,2,06,21,45,263,52,23,27,048,51,,,,,,,,,1*6C
$GPRMC,000051.00,A,4852.4671726,N,00217.5807607,E,1.18,0.00,180502,0.0,E,A*34
$GPGGA,000051.00,4852.4671726,N,00217.5807607,E,1,06,1.0,-9.595,M,0.000,M,0.0,*5F
$GPGSA,A,3,01,08,10,16,21,23,,,,,,,2.2,1.3,1.8,1*29
$GPGSV,2,1,06,01,15,255,49,08,73,299,57,10,56,076,55,16,27,182,52,1*6A
$GPGSV,2,2,06,21,45,263,54,23,27,048,53,,,,,,,,,1*68
$GPRMC,000052.00,A,4852.4667891,N,00217.5797239,E,1.97,136.91,180502,0.0,E,A*37
$GPGGA,000052.00,4852.4667891,N,00217.5797239,E,1,06,1.0,-10.236,M,0.000,M,0.0,*61
$GPGSA,A,3,01,08,10,16,21,23,,,,,,,2.2,1.3,1.8,1*29
$GPGSV,2,1,06,01,15,255,48,08,73,299,56,10,56,076,56,16,27,182,49,1*63
$GPGSV,2,2,06,21,45,263,54,23,27,048,51,,,,,,,,,1*6A
$GPRMC,000053.00,A,4852.4661898,N,00217.5818645,E,1.41,136.91,180502,0.0,E,A*35
$GPGGA,000053.00,4852.4661898,N,00217.5818645,E,1,06,1.0,-15.896,M,0.000,M,0.0,*6D
$GPGSA,A,3,01,08,10,16,21,23,,,,,,,2.2,1.3,1.8,1*29
$GPGSV,2,1,06,01,15,255,48,08,73,299,57,10,56,076,56,16,27,182,49,1*62
$GPGSV,2,2,06,21,45,263,52,23,27,048,49,,,,,,,,,1*65
$GPRMC,000054.00,A,4852.4662704,N,00217.5830270,E,0.43,136.91,180502,0.0,E,A*30
$GPGGA,000054.00,4852.4662704,N,00217.5830270,E,1,06,1.0,-15.773,M,0.000,M,0.0,*6F
$GPGSA,A,3,01,08,10,16,21,23,,,,,,,2.2,1.3,1.8,1*29
$GPGSV,2,1,06,01,15,255,49,08,73,299,57,10,56,076,55,16,27,182,50,1*68
$GPGSV,2,2,06,21,45,263,53,23,27,048,49,,,,,,,,,1*64
$GPRMC,000055.00,A,4852.4663742,N,00217.5810542,E,0.52,136.91,180502,0.0,E,A*36
$GPGGA,000055.00,4852.4663742,N,00217.5810542,E,1,06,1.0,-12.197,M,0.000,M,0.0,*62
$GPGSA,A,3,01,08,10,16,21,23,,,,,,,2.2,1.3,1.8,1*29
$GPGSV,2,1,06,01,15,255,49,08,73,299,59,10,56,076,58,16,27,182,51,1*6A
$GPGSV,2,2,06,21,45,263,52,23,27,048,50,,,,,,,,,1*6D
$GPRMC,000056.00,A,4852.4664972,N,00217.5808773,E,1.24,136.91,180502,0.0,E,A*36
$GPGGA,000056.00,4852.4664972,N,00217.5808773,E,1,06,1.0,-11.051,M,0.000,M,0.0,*6A
$GPGSA,A,3,01,08,10,16,21,23,,,,,,,2.2,1.3,1.8,1*29
$GPGSV,2,1,06,01,15,255,48,08,73,299,58,10,56,076,56,16,27,182,48,1*6C
$GPGSV,2,2,06,21,45,263,54,23,27,048,50,,,,,,,,,1*6B
$GPRMC,000057.00,A,4852.4662594,N,00217.5814038,E,1.86,136.91,180502,0.0,E,A*38
$GPGGA,000057.00,4852.4662594,N,00217.5814038,E,1,06,1.0,-6.113,M,0.000,M,0.0,*5D
$GPGSA,A,3,01,08,10,16,21,23,,,,,,,2.2,1.3,1.8,1*29
$GPGSV,2,1,06,01,16,255,50,08,73,299,57,10,56,076,55,16,27,182,50,1*63
$GPGSV,2,2,06,21,45,263,53,23,27,048,50,,,,,,,,,1*6C
$GPRMC,000058.00,A,4852.4667122,N,00217.5816934,E,1.12,136.91,180502,0.0,E,A*31
$GPGGA,000058.00,4852.4667122,N,00217.5816934,E,1,06,1.0,-5.234,M,0.000,M,0.0,*5C
$GPGSA,A,3,01,08,10,16,21,23,,,,,,,2.2,1.3,1.8,1*29
$GPGSV,2,1,06,01,16,255,48,08,73,299,57,10,56,076,56,16,27,182,51,1*68
$GPGSV,2,2,06,21,45,263,52,23,27,048,50,,,,,,,,,1*6D
$GPRMC,000059.00,A,4852.4667338,N,00217.5797530,E,0.89,136.91,180502,0.0,E,A*34
$GPGGA,000059.00,4852.4667338,N,00217.5797530,E,1,06,1.0,-0.653,M,0.000,M,0.0,*5A
$GPGSA,A,3,01,08,10,16,21,23,,,,,,,2.2,1.3,1.8,1*29
$GPGSV,2,1,06,01,16,255,50,08,73,299,57,10,56,076,57,16,26,182,52,1*62
$GPGSV,2,2,06,21,45,263,53,23,27,048,51,,,,,,,,,1*6D
$GPRMC,000100.00,A,4852.4668185,N,00217.5792587,E,0.66,136.91,180502,0.0,E,A*3A
$GPGGA,000100.00,4852.4668185,N,00217.5792587,E,1,06,1.0,0.260,M,0.000,M,0.0,*7C
$GPGSA,A,3,01,08,10,16,21,23,,,,,,,2.2,1.3,1.8,1*29
$GPGSV,2,1,06,01,16,255,49,08,73,299,56,10,56,076,57,16,26,182,50,1*69
$GPGSV,2,2,06,21,45,263,53,23,27,048,50,,,,,,,,,1*6C
$GPRMC,000101.00,A,4852.4665771,N,00217.5817007,E,0.63,136.91,180502,0.0,E,A*31
$GPGGA,000101.00,4852.4665771,N,00217.5817007,E,1,06,1.0,-4.790,M,0.000,M,0.0,*51
$GPGSA,A,3,01,08,10,16,21,23,,,,,,,2.2,1.3,1.8,1*29
$GPGSV,2,1,06,01,16,255,48,08,73,299,55,10,56,076,55,16,26,182,50,1*69
$GPGSV,2,2,06,21,45,263,52,23,27,048,51,,,,,,,,,1*6C
$GPRMC,000102.00,A,4852.4655800,N,00217.5811307,E,0.55,136.91,180502,0.0,E,A*38
$GPGGA,000102.00,4852.4655800,N,00217.5811307,E,1,06,1.0,-5.547,M,0.000,M,0.0,*54
$GPGSA,A,3,01,08,10,16,21,23,,,,,,,2.2,1.3,1.8,1*29
$GPGSV,2,1,06,01,16,255,49,08,73,299,56,10,56,076,55,16,26,182,49,1*63
$GPGSV,2,2,06,21,45,263,53,23,27,048,50,,,,,,,,,1*6C
$GPRMC,000103.00,A,4852.4671135,N,00217.5809621,E,1.54,136.91,180502,0.0,E,A*38
$GPGGA,000103.00,4852.4671135,N,00217.5809621,E,1,06,1.0,-8.962,M,0.000,M,0.0,*52
$GPGSA,A,3,01,08,10,16,21,23,,,,,,,2.2,1.3,1.8,1*29
$GPGSV,2,1,06,01,16,255,48,08,73,299,56,10,56,076,56,16,26,182,50,1*69
$GPGSV,2,2,06,21,45,263,53,23,27,048,51,,,,,,,,,1*6D
$GPRMC,000104.00,A,4852.4663629,N,00217.5814636,E,1.60,136.91,180502,0.0,E,A*3B
$GPGGA,000104.00,4852.4663629,N,00217.5814636,E,1,06,1.0,-9.853,M,0.000,M,0.0,*54
$GPGSA,A,3,01,08,10,16,21,23,,,,,,,2.2,1.3,1.8,1*29
$GPGSV,2,1,06,01,16,255,47,08,73,299,58,10,56,076,56,16,26,182,50,1*68
$GPGSV,2,2,06,21,45,263,54,23,27,048,50,,,,,,,,,1*6B
$GPRMC,000105.00,A,4852.4656444,N,00217.5829043,E,2.02,353.12,180502,0.0,E,A*32
$GPGGA,000105.00,4852.4656444,N,00217.5829043,E,1,06,1.0,-13.283,M,0.000,M,0.0,*6C
$GPGSA,A,3,01,08,10,16,21,23,,,,,,,2.2,1.3,1.8,1*29
$GPGSV,2,1,06,01,16,255,48,08,73,299,58,10,56,076,55,16,26,182,50,1*64
$GPGSV,2,2,06,21,45,263,53,23,27,048,50,,,,,,,,,1*6C
$GPRMC,000106.00,A,4852.4668644,N,00217.5825864,E,1.16,353.12,180502,0.0,E,A*39
$GPGGA,000106.00,4852.4668644,N,00217.5825864,E,1,06,1.0,-18.084,M,0.000,M,0.0,*6F
$GPGSA,A,3,01,08,10,16,21,23,,,,,,,2.2,1.3,1.8,1*29
$GPGSV,2,1,06,01,16,255,48,08,73,299,56,10,56,076,55,16,26,182,51,1*6B
$GPGSV,2,2,06,21,45,263,53,23,27,048,50,,,,,,,,,1*6C
$GPRMC,000107.00,A,4852.4662301,N,00217.5809533,E,0.89,353.12,180502,0.0,E,A*30
$GPGGA,000107.00,4852.4662301,N,00217.5809533,E,1,06,1.0,-11.615,M,0.000,M,0.0,*66
$GPGSA,A,3,01,08,10,16,21,23,,,,,,,2.2,1.3,1.8,1*29
$GPGSV,2,1,06,01,16,255,47,08,73,299,56,10,56,076,54,16,26,182,50,1*64
$GPGSV,2,2,06,21,45,263,51,23,27,048,51,,,,,,,,,1*6F
$GPRMC,000108.00,A,4852.4656805,N,00217.5826746,E,9.92,112.65,180502,0.0,E,A*3E
$GPGGA,000108.00,4852.4656805,N,00217.5826746,E,1,06,1.0,-11.758,M,0.000,M,0.0,*64
$GPGSA,A,3,01,08,10,16,21,23,,,,,,,2.2,1.3,1.8,1*29
$GPGSV,2,1,06,01,16,255,46,08,73,299,57,10,56,076,55,16,26,182,51,1*64
$GPGSV,2,2,06,21,45,263,51,23,27,048,52,,,,,,,,,1*6C
$GPRMC,000109.00,A,4852.4644465,N,00217.5891350,E,20.23,115.99,180502,0.0,E,A*0C
$GPGGA,000109.00,4852.4644465,N,00217.5891350,E,1,06,1.0,-10.075,M,0.000,M,0.0,*6A
$GPGSA,A,3,01,08,10,16,21,23,,,,,,,2.2,1.3,1.8,1*29
$GPGSV,2,1,06,01,16,255,39,08,73,299,59,10,56,076,52,16,26,182,51,1*65
$GPGSV,2,2,06,21,45,263,46,23,27,048,54,,,,,,,,,1*6C
$GPRMC,000110.00,A,4852.4590065,N,00217.5995081,E,29.08,117.01,180502,0.0,E,A*03
$GPGGA,000110.00,4852.4590065,N,00217.5995081,E,1,06,1.0,-9.180,M,0.000,M,0.0,*55
$GPGSA,A,3,01,08,10,16,21,23,,,,,,,2.2,1.3,1.8,1*29
$GPGSV,2,1,06,01,16,255,50,08,73,299,57,10,56,076,47,16,26,182,43,1*63
$GPGSV,2,2,06,21,45,263,52,23,27,048,46,,,,,,,,,1*6A
$GPRMC,000111.00,A,4852.4574296,N,00217.6101646,E,31.25,115.31,180502,0.0,E,A*0A
$GPGGA,000111.00,4852.4574296,N,00217.6101646,E,1,06,1.0,-9.265,M,0.000,M,0.0,*53
$GPGSA,A,3,01,08,10,16,21,23,,,,,,,2.2,1.3,1.8,1*29
$GPGSV,2,1,06,01,16,255,53,08,73,299,49,10,56,076,54,16,26,182,42,1*6C
$GPGSV,2,2,06,21,45,263,59,23,27,048,40,,,,,,,,,1*67
$GPRMC,000112.00,A,4852.4548938,N,00217.6203098,E,32.74,115.69,180502,0.0,E,A*07
$GPGGA,000112.00,4852.4548938,N,00217.6203098,E,1,06,1.0,-5.054,M,0.000,M,0.0,*58
$GPGSA,A,3,01,08,10,16,21,23,,,,,,,2.2,1.3,1.8,1*29
$GPGSV,2,1,06,01,16,255,50,08,73,299,47,10,56,076,57,16,26,182,49,1*69
$GPGSV,2,2,06,21,45,263,59,23,27,048,48,,,,,,,,,1*6F
$GPRMC,000113.00,A,4852.4497358,N,00217.6335831,E,31.40,115.09,180502,0.0,E,A*04
$GPGGA,000113.00,4852.4497358,N,00217.6335831,E,1,06,1.0,-4.129,M,0.000,M,0.0,*53
$GPGSA,A,3,01,08,10,16,21,23,,,,,,,2.2,1.3,1.8,1*29
$GPGSV,2,1,06,01,16,255,47,08,73,299,48,10,56,076,55,16,26,182,48,1*63
$GPGSV,2,2,06,21,45,263,53,23,27,048,48,,,,,,,,,1*65
$GPRMC,000114.00,A,4852.4453471,N,00217.6444091,E,23.00,109.63,180502,0.0,E,A*02
$GPGGA,000114.00,4852.4453471,N,00217.6444091,E,1,06,1.0,0.997,M,0.000,M,0.0,*77
$GPGSA,A,3,01,08,10,16,21,23,,,,,,,2.2,1.3,1.8,1*29
$GPGSV,2,1,06,01,16,255,44,08,73,299,44,10,56,076,51,16,26,182,44,1*64
$GPGSV,2,2,06,21,45,263,48,23,27,048,44,,,,,,,,,1*63
$GPRMC,000115.00,A,4852.4465735,N,00217.6524297,E,13.16,109.33,180502,0.0,E,A*07
$GPGGA,000115.00,4852.4465735,N,00217.6524297,E,1,06,1.0,-11.836,M,0.000,M,0.0,*64
$GPGSA,A,3,01,08,10,16,21,23,,,,,,,2.2,1.3,1.8,1*29
$GPGSV,2,1,06,01,16,255,39,08,73,299,45,10,56,076,45,16,26,182,38,1*61
$GPGSV,2,2,06,21,45,263,44,23,27,048,38,,,,,,,,,1*64
$GPRMC,000116.00,A,4852.4455812,N,00217.6563163,E,10.57,107.09,180502,0.0,E,A*07
$GPGGA,000116.00,4852.4455812,N,00217.6563163,E,1,06,1.0,-8.945,M,0.000,M,0.0,*58
$GPGSA,A,3,01,08,10,16,21,23,,,,,,,2.2,1.3,1.8,1*29
$GPGSV,2,1,06,01,16,255,36,08,73,298,46,10,56,076,41,16,26,182,36,1*66
$GPGSV,2,2,06,21,45,263,40,23,27,048,36,,,,,,,,,1*6E
$GPRMC,000117.00,A,4852.4466817,N,00217.6624078,E,20.54,75.88,180502,0.0,E,A*35
$GPGGA,000117.00,4852.4466817,N,00217.6624078,E,1,06,1.0,-4.751,M,0.000,M,0.0,*50
$GPGSA,A,3,01,08,10,16,21,23,,,,,,,2.2,1.3,1.8,1*29
$GPGSV,2,1,06,01,16,255,34,08,73,298,57,10,56,076,36,16,26,182,34,1*66
$GPGSV,2,2,06,21,45,263,36,23,27,048,35,,,,,,,,,1*6C
$GPRMC,000118.00,A,4852.4520049,N,00217.6702267,E,36.56,81.05,180502,0.0,E,A*38
$GPGGA,000118.00,4852.4520049,N,00217.6702267,E,1,06,1.0,-10.995,M,0.000,M,0.0,*65
$GPGSA,A,3,01,08,10,16,21,23,,,,,,,2.2,1.3,1.8,1*29
$GPGSV,2,1,06,01,16,255,34,08,73,298,54,10,56,076,35,16,26,182,35,1*67
$GPGSV,2,2,06,21,45,263,34,23,27,048,34,,,,,,,,,1*6F
$GPRMC,000119.00,A,4852.4511479,N,00217.6838883,E,26.65,92.07,180502,0.0,E,A*3B
$GPGGA,000119.00,4852.4511479,N,00217.6838883,E,1,06,1.0,-6.778,M,0.000,M,0.0,*5D
$GPGSA,A,3,01,08,10,16,21,23,,,,,,,2.2,1.3,1.8,1*29
$GPGSV,2,1,06,01,16,255,34,08,74,298,50,10,56,076,35,16,26,182,35,1*64
$GPGSV,2,2,06,21,45,263,34,23,27,048,35,,,,,,,,,1*6E
$GPRMC,000120.00,A,4852.4518761,N,00217.6912014,E,22.18,92.45,180502,0.0,E,A*35
$GPGGA,000120.00,4852.4518761,N,00217.6912014,E,1,06,1.0,-10.511,M,0.000,M,0.0,*61
$GPGSA,A,3,01,08,10,16,21,23,,,,,,,2.2,1.3,1.8,1*29
$GPGSV,2,1,06,01,16,255,35,08,74,298,54,10,56,076,35,16,26,182,35,1*61
$GPGSV,2,2,06,21,45,263,35,23,27,048,35,,,,,,,,,1*6F
$GPRMC,000121.00,A,4852.4555661,N,00217.6975045,E,24.54,123.13,180502,0.0,E,A*0F
$GPGGA,000121.00,4852.4555661,N,00217.6975045,E,1,05,1.0,-25.536,M,0.000,M,0.0,*6D
$GPGSA,A,3,01,08,10,16,21,,,,,,,,3.7,2.1,3.1,1*26
$GPGSV,2,1,05,01,16,255,35,08,74,298,54,10,56,076,37,16,26,182,35,1*60
$GPGSV,2,2,05,21,45,263,37,,,,,,,,,,,,,1*50
$GPRMC,000122.00,A,4852.4545987,N,00217.7073222,E,20.73,105.16,180502,0.0,E,A*07
$GPGGA,000122.00,4852.4545987,N,00217.7073222,E,1,05,1.0,-23.409,M,0.000,M,0.0,*6E
$GPGSA,A,3,01,08,10,16,21,,,,,,,,3.7,2.1,3.1,1*26
$GPGSV,2,1,05,01,16,255,36,08,74,298,52,10,56,076,38,16,26,182,36,1*69
$GPGSV,2,2,05,21,45,263,37,,,,,,,,,,,,,1*50
$GPRMC,000123.00,A,4852.4546445,N,00217.7164021,E,20.49,107.57,180502,0.0,E,A*0E
$GPGGA,000123.00,4852.4546445,N,00217.7164021,E,1,05,1.0,-35.912,M,0.000,M,0.0,*69
$GPGSA,A,3,01,08,10,16,21,,,,,,,,3.7,2.1,3.1,1*26
$GPGSV,2,1,05,01,16,255,37,08,74,298,51,10,56,076,42,16,26,182,38,1*68
$GPGSV,2,2,05,21,45,263,40,,,,,,,,,,,,,1*50
$GPRMC,000124.00,A,4852.4356499,N,00217.7121747,E,19.63,112.56,180502,0.0,E,A*0E
$GPGGA,000124.00,4852.4356499,N,00217.7121747,E,1,05,1.0,-2.042,M,0.000,M,0.0,*56
$GPGSA,A,3,01,08,10,16,21,,,,,,,,3.7,2.1,3.1,1*26
$GPGSV,2,1,05,01,16,255,42,08,74,298,47,10,56,076,48,16,26,182,44,1*6C
$GPGSV,2,2,05,21,45,263,46,,,,,,,,,,,,,1*56
$GPRMC,000125.00,A,4852.4327940,N,00217.7295684,E,20.10,125.56,180502,0.0,E,A*08
$GPGGA,000125.00,4852.4327940,N,00217.7295684,E,1,05,1.0,9.239,M,0.000,M,0.0,*72
$GPGSA,A,3,01,08,10,16,21,,,,,,,,3.7,2.1,3.1,1*26
$GPGSV,2,1,05,01,16,255,46,08,74,298,52,10,56,076,48,16,26,182,45,1*6D
$GPGSV,2,2,05,21,45,263,52,,,,,,,,,,,,,1*53
$GPRMC,000126.00,A,4852.4429112,N,00217.7363146,E,18.40,146.18,180502,0.0,E,A*0D
$GPGGA,000126.00,4852.4429112,N,00217.7363146,E,1,05,1.0,-26.567,M,0.000,M,0.0,*6A
$GPGSA,A,3,01,08,10,16,21,,,,,,,,3.7,2.1,3.1,1*26
$GPGSV,2,1,05,01,16,255,41,08,74,298,52,10,56,076,45,16,26,182,41,1*63
$GPGSV,2,2,05,21,45,263,44,,,,,,,,,,,,,1*54
$GPRMC,000127.00,A,4852.4397736,N,00217.7382405,E,15.46,137.81,180502,0.0,E,A*0E
$GPGGA,000127.00,4852.4397736,N,00217.7382405,E,1,05,1.0,-18.244,M,0.000,M,0.0,*6F
$GPGSA,A,3,01,08,10,16,21,,,,,,,,3.7,2.1,3.1,1*26
$GPGSV,2,1,05,01,16,255,36,08,74,298,50,10,56,076,40,16,26,182,38,1*6A
$GPGSV,2,2,05,21,45,263,39,,,,,,,,,,,,,1*5E
$GPRMC,000128.00,A,4852.4350951,N,00217.7429147,E,20.44,145.75,180502,0.0,E,A*0A
$GPGGA,000128.00,4852.4350951,N,00217.7429147,E,1,05,1.0,-13.920,M,0.000,M,0.0,*63
$GPGSA,A,3,01,08,10,16,21,,,,,,,,3.7,2.1,3.1,1*26
$GPGSV,2,1,05,01,16,255,35,08,74,298,52,10,56,076,38,16,26,182,36,1*6A
$GPGSV,2,2,05,21,45,263,37,,,,,,,,,,,,,1*50
$GPRMC,000129.00,A,4852.4347422,N,00217.7482063,E,27.50,169.96,180502,0.0,E,A*03
$GPGGA,000129.00,4852.4347422,N,00217.7482063,E,1,05,1.0,-18.486,M,0.000,M,0.0,*61
$GPGSA,A,3,01,08,10,16,21,,,,,,,,3.7,2.1,3.1,1*26
$GPGSV,2,1,05,01,16,255,35,08,74,298,45,10,56,076,36,16,26,182,35,1*61
$GPGSV,2,2,05,21,45,263,36,,,,,,,,,,,,,1*51
$GPRMC,000130.00,A,4852.4215044,N,00217.7502679,E,20.69,161.15,180502,0.0,E,A*03
$GPGGA,000130.00,4852.4215044,N,00217.7502679,E,1,04,1.0,10.104,M,0.000,M,0.0,*44
$GPGSA,A,3,08,10,16,21,,,,,,,,,9.0,3.8,8.1,1*29
$GPGSV,1,1,04,08,74,298,43,10,56,076,35,16,26,182,35,21,45,263,35,1*67
$GPRMC,000131.00,A,4852.4168433,N,00217.7493249,E,22.34,174.68,180502,0.0,E,A*05
$GPGGA,000131.00,4852.4168433,N,00217.7493249,E,1,04,1.0,15.637,M,0.000,M,0.0,*44
$GPGSA,A,3,08,10,16,21,,,,,,,,,9.0,3.8,8.1,1*29
$GPGSV,1,1,04,08,74,298,56,10,56,076,35,16,26,182,35,21,45,263,35,1*63
$GPRMC,000132.00,A,4852.4142815,N,00217.7524129,E,18.21,77.41,180502,0.0,E,A*3A
$GPGGA,000132.00,4852.4142815,N,00217.7524129,E,1,04,1.0,20.651,M,0.000,M,0.0,*49
$GPGSA,A,3,08,10,16,21,,,,,,,,,9.0,3.8,8.1,1*29
$GPGSV,1,1,04,08,74,298,52,10,56,076,35,16,26,182,34,21,45,263,35,1*66
$GPRMC,000154.00,A,4852.3368661,N,00217.6898753,E,32.58,272.69,180502,0.0,E,A*01
$GPGGA,000154.00,4852.3368661,N,00217.6898753,E,1,04,1.0,-11.065,M,0.000,M,0.0,*67
$GPGSA,A,3,01,08,10,23,,,,,,,,,4.2,3.7,2.0,1*26
$GPGSV,1,1,04,01,16,255,46,08,74,298,52,10,55,075,53,23,27,048,43,1*63
$GPRMC,000155.00,A,4852.3567905,N,00217.6689983,E,34.20,279.11,180502,0.0,E,A*04
$GPGGA,000155.00,4852.3567905,N,00217.6689983,E,1,04,1.0,-1.774,M,0.000,M,0.0,*59
$GPGSA,A,3,01,08,10,23,,,,,,,,,4.2,3.8,2.0,1*29
$GPGSV,1,1,04,01,16,255,45,08,74,298,51,10,55,075,50,23,27,048,42,1*61
$GPRMC,000156.00,A,4852.3449405,N,00217.6679978,E,31.48,280.35,180502,0.0,E,A*07
$GPGGA,000156.00,4852.3449405,N,00217.6679978,E,1,04,1.0,-15.698,M,0.000,M,0.0,*67
$GPGSA,A,3,01,08,10,23,,,,,,,,,4.2,3.8,2.0,1*29
$GPGSV,1,1,04,01,16,255,45,08,74,298,52,10,55,075,51,23,27,048,43,1*62
$GPRMC,000157.00,A,4852.3452590,N,00217.6515771,E,33.11,283.85,180502,0.0,E,A*09
$GPGGA,000157.00,4852.3452590,N,00217.6515771,E,1,04,1.0,8.227,M,0.000,M,0.0,*7E
$GPGSA,A,3,01,08,10,23,,,,,,,,,4.3,3.8,2.0,1*28
$GPGSV,1,1,04,01,16,255,45,08,74,298,52,10,55,075,51,23,27,048,42,1*63
$GPRMC,000158.00,A,4852.3450900,N,00217.6434259,E,39.96,307.95,180502,0.0,E,A*05
$GPGGA,000158.00,4852.3450900,N,00217.6434259,E,1,04,1.0,-18.831,M,0.000,M,0.0,*6A
$GPGSA,A,3,01,08,10,23,,,,,,,,,4.3,3.8,2.0,1*28
$GPGSV,1,1,04,01,16,255,42,08,74,298,56,10,55,075,47,23,27,048,40,1*65
$GPRMC,000159.00,A,4852.3522011,N,00217.6269744,E,19.22,282.38,180502,0.0,E,A*08
$GPGGA,000159.00,4852.3522011,N,00217.6269744,E,1,04,1.0,-10.708,M,0.000,M,0.0,*6C
$GPGSA,A,3,01,08,10,23,,,,,,,,,4.3,3.8,2.0,1*28
$GPGSV,1,1,04,01,16,255,37,08,74,298,49,10,55,075,42,23,27,048,38,1*63
$GPRMC,000200.00,A,4852.3609457,N,00217.6153165,E,21.48,296.22,180502,0.0,E,A*0D
$GPGGA,000200.00,4852.3609457,N,00217.6153165,E,1,04,1.0,-1.493,M,0.000,M,0.0,*51
$GPGSA,A,3,01,08,10,23,,,,,,,,,4.3,3.8,2.0,1*28
$GPGSV,1,1,04,01,16,255,36,08,74,298,46,10,55,075,40,23,27,048,38,1*6F
$GPRMC,000201.00,A,4852.3583783,N,00217.6133007,E,23.66,308.33,180502,0.0,E,A*0C
$GPGGA,000201.00,4852.3583783,N,00217.6133007,E,1,04,1.0,-15.956,M,0.000,M,0.0,*69
$GPGSA,A,3,01,08,10,23,,,,,,,,,4.3,3.8,2.0,1*28
$GPGSV,1,1,04,01,16,255,41,08,74,298,55,10,55,075,46,23,27,048,42,1*66
$GPRMC,000202.00,A,4852.3633853,N,00217.6051443,E,30.32,322.41,180502,0.0,E,A*0A
$GPGGA,000202.00,4852.3633853,N,00217.6051443,E,1,04,1.0,-3.521,M,0.000,M,0.0,*5A
$GPGSA,A,3,01,08,10,23,,,,,,,,,4.3,3.8,2.0,1*28
$GPGSV,1,1,04,01,16,255,44,08,74,298,56,10,55,075,49,23,27,048,43,1*6E
$GPRMC,000203.00,A,4852.3865194,N,00217.5804538,E,30.11,322.58,180502,0.0,E,A*0B
$GPGGA,000203.00,4852.3865194,N,00217.5804538,E,1,04,1.0,25.297,M,0.000,M,0.0,*41
$GPGSA,A,3,01,08,10,23,,,,,,,,,4.3,3.8,2.0,1*28
$GPGSV,1,1,04,01,16,255,42,08,74,298,50,10,55,075,46,23,27,048,42,1*60
$GPRMC,000204.00,A,4852.3776273,N,00217.5893857,E,39.78,332.88,180502,0.0,E,A*0B
$GPGGA,000204.00,4852.3776273,N,00217.5893857,E,1,04,1.0,4.084,M,0.000,M,0.0,*78
$GPGSA,A,3,01,08,10,23,,,,,,,,,4.3,3.8,2.0,1*28
$GPGSV,1,1,04,01,16,255,44,08,74,298,48,10,55,075,52,23,27,048,40,1*68
$GPRMC,000206.00,A,4852.3930117,N,00217.5754779,E,29.68,338.80,180502,0.0,E,A*01
$GPGGA,000206.00,4852.3930117,N,00217.5754779,E,1,06,1.0,-1.164,M,0.000,M,0.0,*55
$GPGSA,A,3,01,08,10,16,23,27,,,,,,,2.1,1.3,1.7,1*23
$GPGSV,2,1,06,01,16,255,40,08,74,298,52,10,55,075,46,16,26,182,44,1*67
$GPGSV,2,2,06,23,27,047,40,27,69,121,52,,,,,,,,,1*6E
$GPRMC,000207.00,A,4852.3973023,N,00217.5766656,E,32.94,339.78,180502,0.0,E,A*03
$GPGGA,000207.00,4852.3973023,N,00217.5766656,E,1,06,1.0,-5.545,M,0.000,M,0.0,*5B
$GPGSA,A,3,01,08,10,16,23,27,,,,,,,2.1,1.3,1.7,1*23
$GPGSV,2,1,06,01,16,255,41,08,74,298,54,10,55,075,46,16,26,182,46,1*62
$GPGSV,2,2,06,23,27,047,42,27,69,121,52,,,,,,,,,1*6C
$GPRMC,000208.00,A,4852.4106687,N,00217.5684240,E,35.38,346.15,180502,0.0,E,A*05
$GPGGA,000208.00,4852.4106687,N,00217.5684240,E,1,06,1.0,-0.616,M,0.000,M,0.0,*5F
$GPGSA,A,3,01,08,10,16,23,27,,,,,,,2.1,1.3,1.6,1*22
$GPGSV,2,1,06,01,16,255,39,08,74,298,50,10,55,075,44,16,26,182,46,1*6B
$GPGSV,2,2,06,23,27,047,42,27,69,121,51,,,,,,,,,1*6F
$GPRMC,000209.00,A,4852.4137116,N,00217.5710637,E,31.23,349.66,180502,0.0,E,A*04
$GPGGA,000209.00,4852.4137116,N,00217.5710637,E,1,06,1.0,-10.049,M,0.000,M,0.0,*66
$GPGSA,A,3,01,08,10,16,23,27,,,,,,,2.1,1.3,1.6,1*22
$GPGSV,2,1,06,01,16,255,40,08,74,298,53,10,55,075,45,16,26,182,46,1*67
$GPGSV,2,2,06,23,27,047,43,27,69,121,51,,,,,,,,,1*6E
$GPRMC,000210.00,A,4852.4234462,N,00217.5661518,E,31.80,352.43,180502,0.0,E,A*07
$GPGGA,000210.00,4852.4234462,N,00217.5661518,E,1,06,1.0,-11.841,M,0.000,M,0.0,*60
$GPGSA,A,3,01,08,10,16,23,27,,,,,,,2.1,1.3,1.6,1*22
$GPGSV,2,1,06,01,16,255,40,08,74,298,52,10,55,075,45,16,26,182,47,1*67
$GPGSV,2,2,06,23,27,047,44,27,69,121,51,,,,,,,,,1*69
$GPRMC,000211.00,A,4852.4365135,N,00217.5644269,E,33.67,0.85,180502,0.0,E,A*07
$GPGGA,000211.00,4852.4365135,N,00217.5644269,E,1,06,1.0,-10.832,M,0.000,M,0.0,*60
$GPGSA,A,3,01,08,10,16,23,27,,,,,,,2.1,1.3,1.6,1*22
$GPGSV,2,1,06,01,16,255,38,08,74,298,49,10,55,075,43,16,26,182,46,1*65
$GPGSV,2,2,06,23,27,047,42,27,69,121,49,,,,,,,,,1*66
$GPRMC,000212.00,A,4852.4387512,N,00217.5700863,E,35.87,6.48,180502,0.0,E,A*07
$GPGGA,000212.00,4852.4387512,N,00217.5700863,E,1,05,1.0,-21.971,M,0.000,M,0.0,*68
$GPGSA,A,3,01,08,10,16,27,,,,,,,,3.7,2.1,3.0,1*21
$GPGSV,2,1,05,01,16,255,38,08,74,298,48,10,55,075,43,16,26,182,46,1*67
$GPGSV,2,2,05,27,69,121,48,,,,,,,,,,,,,1*55
$GPRMC,000213.00,A,4852.4541012,N,00217.5703987,E,26.07,10.11,180502,0.0,E,A*36
$GPGGA,000213.00,4852.4541012,N,00217.5703987,E,1,05,1.0,-18.133,M,0.000,M,0.0,*6C
$GPGSA,A,3,01,08,10,16,27,,,,,,,,3.7,2.1,3.0,1*21
$GPGSV,2,1,05,01,16,255,39,08,74,298,46,10,55,075,45,16,26,182,42,1*6A
$GPGSV,2,2,05,27,69,121,45,,,,,,,,,,,,,1*58
$GPRMC,000214.00,A,4852.4561500,N,00217.5727998,E,23.10,12.17,180502,0.0,E,A*3A
$GPGGA,000214.00,4852.4561500,N,00217.5727998,E,1,05,1.0,-9.201,M,0.000,M,0.0,*55
$GPGSA,A,3,01,08,10,16,27,,,,,,,,3.7,2.1,3.0,1*21
$GPGSV,2,1,05,01,16,255,44,08,74,298,46,10,55,075,48,16,26,182,36,1*6E
$GPGSV,2,2,05,27,69,121,44,,,,,,,,,,,,,1*59
$GPRMC,000215.00,A,4852.4625123,N,00217.5746290,E,3.63,47.15,180502,0.0,E,A*0D
$GPGGA,000215.00,4852.4625123,N,00217.5746290,E,1,05,1.0,-15.301,M,0.000,M,0.0,*6A
$GPGSA,A,3,01,08,10,16,27,,,,,,,,3.7,2.1,3.0,1*21
$GPGSV,2,1,05,01,16,255,38,08,74,298,50,10,55,075,42,16,26,182,34,1*6A
$GPGSV,2,2,05,27,69,121,47,,,,,,,,,,,,,1*5A
$GPRMC,000216.00,A,4852.4648097,N,00217.5725524,E,4.91,2.56,180502,0.0,E,A*3A
$GPGGA,000216.00,4852.4648097,N,00217.5725524,E,1,05,1.0,-13.216,M,0.000,M,0.0,*60
$GPGSA,A,3,01,08,10,16,27,,,,,,,,3.7,2.1,3.0,1*21
$GPGSV,2,1,05,01,16,255,36,08,74,298,50,10,55,075,40,16,26,182,34,1*66
$GPGSV,2,2,05,27,69,121,50,,,,,,,,,,,,,1*5C
$GPRMC,000217.00,A,4852.4637198,N,00217.5735833,E,5.82,332.81,180502,0.0,E,A*3E
$GPGGA,000217.00,4852.4637198,N,00217.5735833,E,1,05,1.0,-14.289,M,0.000,M,0.0,*6C
$GPGSA,A,3,01,08,10,16,27,,,,,,,,3.7,2.1,3.0,1*21
$GPGSV,2,1,05,01,16,255,40,08,74,298,53,10,55,075,46,16,26,182,37,1*61
$GPGSV,2,2,05,27,69,121,54,,,,,,,,,,,,,1*58
$GPRMC,000218.00,A,4852.4614540,N,00217.5729295,E,1.54,332.81,180502,0.0,E,A*35
$GPGGA,000218.00,4852.4614540,N,00217.5729295,E,1,04,1.0,-4.298,M,0.000,M,0.0,*58
$GPGSA,A,3,08,10,16,27,,,,,,,,,6.4,3.3,5.4,1*27
$GPGSV,1,1,04,08,74,298,56,10,55,075,54,16,26,182,49,27,69,121,54,1*65
$GPRMC,000219.00,A,4852.4577644,N,00217.5747307,E,1.69,332.81,180502,0.0,E,A*39
$GPGGA,000219.00,4852.4577644,N,00217.5747307,E,1,04,1.0,11.342,M,0.000,M,0.0,*45
$GPGSA,A,3,08,10,16,27,,,,,,,,,6.4,3.3,5.4,1*27
$GPGSV,1,1,04,08,74,298,56,10,55,075,53,16,26,182,52,27,69,121,52,1*6E
$GPRMC,000220.00,A,4852.4595449,N,00217.5706781,E,0.51,332.81,180502,0.0,E,A*35
$GPGGA,000220.00,4852.4595449,N,00217.5706781,E,1,04,1.0,4.268,M,0.000,M,0.0,*7E
$GPGSA,A,3,08,10,16,27,,,,,,,,,6.4,3.3,5.4,1*27
$GPGSV,1,1,04,08,74,298,56,10,55,075,52,16,26,182,52,27,69,121,50,1*6D
$GPRMC,000221.00,A,4852.4647044,N,00217.5656387,E,11.21,350.41,180502,0.0,E,A*08
$GPGGA,000221.00,4852.4647044,N,00217.5656387,E,1,04,1.0,-10.993,M,0.000,M,0.0,*6B
$GPGSA,A,3,08,10,16,27,,,,,,,,,6.4,3.3,5.4,1*27
$GPGSV,1,1,04,08,74,298,57,10,55,075,54,16,26,182,51,27,69,121,52,1*6B
$GPRMC,000222.00,A,4852.4663855,N,00217.5638282,E,1.03,350.41,180502,0.0,E,A*38
$GPGGA,000222.00,4852.4663855,N,00217.5638282,E,1,04,1.0,-16.764,M,0.000,M,0.0,*6A
$GPGSA,A,3,08,10,16,27,,,,,,,,,6.4,3.3,5.4,1*27
$GPGSV,1,1,04,08,74,298,55,10,55,075,54,16,26,182,51,27,69,121,53,1*68
