     2.11           OBSERVATION DATA    G                   RINEX VERSION / TYPE
BLANK OR G = GPS,  R = GLONASS,  E = GALILEO,  M = MIXED    COMMENT             
GNSS-SDR            joel                 5-MAY-25 07:23     PGM / RUN BY / DATE 
GPS OBSERVATION DATA FILE GENERATED BY GNSS-SDR             COMMENT             
GNSS-SDR VERSION 0.0.16                                     COMMENT             
See https://gnss-sdr.org                                    COMMENT             
DEFAULT MARKER NAME                                         MARKER NAME         
joel                CTTC                                    OBSERVER / AGENCY   
GNSS-SDR            Software Receiver   0.0.16              REC # / TYPE / VERS 
Antenna number      Antenna type                            ANT # / TYPE        
        0.0000        0.0000        0.0000                  APPROX POSITION XYZ 
        0.0000        0.0000        0.0000                  ANTENNA: DELTA H/E/N
     1     1                                                WAVELENGTH FACT L1/2
     4    C1    L1    D1    S1                              # / TYPES OF OBSERV 
  2002    05    18    00    00   42.3400000     GPS         TIME OF FIRST OBS   
    18                                                      LEAP SECONDS        
                                                            END OF HEADER       
 02  5 18 00 00 43.0000000  0  7G01G23G21G10G16G07G08                           
  23763590.557 7 124878513.381 7      3399.658 7        46.685                  
  23001127.120 8 120871744.352 8     -2818.427 8        49.977                  
  21783585.556 8 114473525.344 8      1786.659 8        53.264                  
  21313658.628 9 112004045.667 9      -798.322 9        54.379                  
  23471245.318 8 123342228.695 8     -3662.955 8        49.408                  
  24961618.666 7 131174205.514 7     -1906.861 7        45.648                  
  20445704.806 9 107442938.360 9       868.245 9        55.798                  
 02  5 18 00 00 44.0000000  0  7G01G23G21G10G16G07G08                           
  23762945.646 7 124875116.259 7      3394.709 7        46.775                  
  23001664.781 8 120874563.620 8     -2818.295 8        50.207                  
  21783249.386 9 114471738.133 9      1786.416 9        54.225                  
  21313811.176 8 112004844.024 8      -799.546 8        53.925                  
  23471943.979 8 123345892.470 8     -3663.463 8        50.498                  
  24961982.050 7 131176110.041 7     -1909.758 7        46.111                  
  20445541.823 9 107442070.516 9       867.788 9        56.823                  
 02  5 18 00 00 45.0000000  0  7G01G23G21G10G16G07G08                           
  23762299.020 7 124871719.310 7      3394.050 7        47.506                  
  23002198.940 8 120877383.250 8     -2818.291 8        51.047                  
  21782906.747 8 114469951.232 8      1786.935 8        53.221                  
  21313963.009 9 112005643.022 9      -798.024 9        54.605                  
  23472640.942 8 123349556.442 8     -3662.052 8        50.284                  
  24962342.718 7 131178014.923 7     -1904.918 7        46.797                  
  20445380.215 9 107441203.149 9       867.240 9        57.367                  
 02  5 18 00 00 46.0000000  0  7G01G23G21G10G16G07G08                           
  23761651.250 8 124868322.515 8      3395.413 8        48.422                  
  23002736.494 8 120880203.292 8     -2822.655 8        50.578                  
  21782563.591 8 114468164.641 8      1786.859 8        53.641                  
  21314115.217 9 112006442.619 9      -799.385 9        54.139                  
  23473337.638 8 123353220.599 8     -3665.620 8        49.297                  
  24962709.069 7 131179920.164 7     -1905.527 7        45.003                  
  20445215.677 9 107440336.259 9       866.657 9        56.303                  
 02  5 18 00 00 47.0000000  0  7G01G23G21G10G16G07G08                           
  23761005.749 7 124864925.872 7      3392.825 7        47.630                  
  23003272.511 8 120883023.723 8     -2822.778 8        49.777                  
  21782227.296 8 114466378.352 8      1785.596 8        52.254                  
  21314268.426 8 112007242.812 8      -801.054 8        53.805                  
  23474035.762 8 123356884.951 8     -3665.607 8        50.499                  
  24963068.451 7 131181825.745 7     -1907.404 7        45.938                  
  20445048.388 9 107439469.823 9       865.998 9        55.627                  
 02  5 18 00 00 48.0000000  0  7G01G23G21G10G16G07G08                           
  23760360.123 7 124861529.391 7      3396.569 7        47.362                  
  23003811.887 8 120885844.546 8     -2822.545 8        50.782                  
  21781887.784 8 114464592.358 8      1785.174 8        52.287                  
  21314420.188 9 112008043.612 9      -801.065 9        56.888                  
  23474732.958 8 123360549.505 8     -3664.554 8        50.448                  
  24963433.193 7 131183731.684 7     -1905.933 7        46.249                  
  20444880.991 9 107438603.862 9       864.958 9        57.933                  
 02  5 18 00 00 49.0000000  0  7G01G23G21G10G16G07G08                           
  23759712.139 8 124858133.070 8      3396.768 8        49.099                  
  23004345.813 8 120888665.780 8     -2821.048 8        49.419                  
  21781545.610 8 114462806.662 8      1785.497 8        53.598                  
  21314573.522 9 112008845.055 9      -802.222 9        57.283                  
  23475429.636 8 123364214.251 8     -3667.130 8        50.708                  
  24963795.130 7 131185637.983 7     -1907.274 7        46.822                  
  20444713.254 9 107437738.377 9       865.601 9        57.247                  
 02  5 18 00 00 50.0000000  0  7G01G23G21G10G16G07G08                           
  23759066.335 7 124854736.906 7      3396.929 7        47.094                  
  23004883.796 8 120891487.407 8     -2822.126 8        49.604                  
  21781204.955 8 114461021.265 8      1787.110 8        53.316                  
  21314726.070 9 112009647.095 9      -801.916 9        56.273                  
  23476128.439 8 123367879.173 8     -3665.717 8        48.822                  
  24964157.050 7 131187544.626 7     -1905.261 7        47.788                  
  20444545.267 9 107436873.361 9       864.888 9        58.659                  
 02  5 18 00 00 51.0000000  0  7G01G23G21G10G16G07G08                           
  23758421.620 7 124851340.914 7      3393.945 7        47.525                  
  23005422.226 8 120894309.419 8     -2821.818 8        49.868                  
  21780869.393 8 114459236.167 8      1783.619 8        53.154                  
  21314878.957 9 112010449.732 9      -802.751 9        54.766                  
  23476824.831 8 123371544.307 8     -3665.742 8        50.495                  
  24964522.918 7 131189451.629 7     -1906.477 7        47.338                  
  20444381.391 9 107436008.807 9       863.700 9        54.644                  
 02  5 18 00 00 52.0000000  0  7G01G23G21G10G16G07G08                           
  23757774.369 8 124847945.068 8      3397.270 8        48.301                  
  23005957.170 8 120897131.815 8     -2822.212 8        51.389                  
  21780530.257 8 114457451.363 8      1784.992 8        51.515                  
  21315031.934 9 112011252.989 9      -804.177 9        54.029                  
  23477522.152 8 123375209.640 8     -3666.270 8        49.681                  
  24964882.460 7 131191358.991 7     -1911.228 7        46.035                  
  20444219.229 9 107435144.730 9       864.514 9        56.364                  
 02  5 18 00 00 53.0000000  0  7G01G23G21G10G16G07G08                           
  23757127.170 7 124844549.395 7      3392.974 7        47.984                  
  23006496.904 8 120899954.603 8     -2823.638 8        49.664                  
  21780186.189 8 114455666.858 8      1784.912 8        51.855                  
  21315184.839 9 112012056.876 9      -805.068 9        55.028                  
  23478221.009 8 123378875.143 8     -3662.337 8        49.509                  
  24965249.383 7 131193266.699 7     -1908.667 7        46.803                  
  20444056.979 9 107434281.131 9       863.389 9        57.118                  
 02  5 18 00 00 54.0000000  0  7G01G23G21G10G16G07G08                           
  23756482.563 7 124841153.880 7      3394.635 7        46.983                  
  23007032.135 8 120902777.776 8     -2824.037 8        50.435                  
  21779846.999 8 114453882.667 8      1784.015 8        53.871                  
  21315338.173 9 112012861.360 9      -805.133 9        54.012                  
  23478916.865 8 123382540.856 8     -3665.989 8        50.117                  
  24965609.122 7 131195174.759 7     -1906.393 7        46.840                  
  20443895.210 9 107433418.008 9       863.162 9        54.952                  
 02  5 18 00 00 55.0000000  0  7G01G23G21G10G16G07G08                           
  23755836.777 8 124837758.515 8      3394.897 8        48.819                  
  23007570.672 8 120905601.340 8     -2822.346 8        49.874                  
  21779511.633 8 114452098.796 8      1782.393 8        53.359                  
  21315491.203 9 112013666.441 9      -805.409 9        54.167                  
  23479614.704 8 123386206.755 8     -3667.143 8        49.609                  
  24965973.632 7 131197083.174 7     -1908.903 7        47.057                  
  20443734.175 9 107432555.338 9       862.138 9        56.856                  
 02  5 18 00 00 56.0000000  0  7G01G23G21G10G16G07G08                           
  23755189.382 7 124834363.319 7      3392.528 7        46.765                  
  23008107.868 8 120908425.322 8     -2824.754 8        51.900                  
  21779171.585 9 114450315.209 9      1782.475 9        54.235                  
  21315644.788 9 112014472.138 9      -806.160 9        54.596                  
  23480314.133 7 123389872.845 7     -3668.108 7        47.430                  
  24966337.571 7 131198991.942 7     -1904.862 7        46.364                  
  20443571.674 9 107431693.145 9       861.547 9        56.022                  
 02  5 18 00 00 57.0000000  0  7G01G23G21G10G16G07G08                           
  23754544.704 8 124830968.285 8      3395.862 8        48.679                  
  23008644.332 8 120911249.685 8     -2824.429 8        50.932                  
  21778828.107 8 114448531.933 8      1784.756 8        51.746                  
  21315798.318 9 112015278.470 9      -806.512 9        55.391                  
  23481009.560 7 123393539.124 7     -3663.700 7        47.426                  
  24966698.364 7 131200901.067 7     -1912.580 7        45.970                  
  20443405.295 9 107430831.429 9       861.561 9        58.269                  
 02  5 18 00 00 58.0000000  0  7G01G23G21G10G16G07G08                           
  23753898.238 8 124827573.403 8      3397.160 8        48.508                  
  23009182.815 8 120914074.446 8     -2825.112 8        50.081                  
  21778490.347 8 114446748.946 8      1783.064 8        51.998                  
  21315952.063 9 112016085.397 9      -806.613 9        55.505                  
  23481707.810 7 123397205.601 7     -3665.657 7        47.745                  
  24967065.072 7 131202810.535 7     -1911.452 7        45.927                  
  20443239.113 9 107429970.189 9       861.866 9        57.003                  
 02  5 18 00 00 59.0000000  0  7G01G23G21G10G16G07G08                           
  23753251.183 8 124824178.694 8      3395.400 8        49.064                  
  23009718.689 8 120916899.586 8     -2824.305 8        49.975                  
  21778155.017 8 114444966.266 8      1782.958 8        50.761                  
  21316105.933 9 112016892.921 9      -807.612 9        56.596                  
  23482406.453 8 123400872.282 8     -3666.667 8        48.538                  
  24967425.383 7 131204720.368 7     -1910.956 7        44.704                  
  20443072.681 9 107429109.403 9       860.788 9        55.326                  
 02  5 18 00 01  0.0000000  0  7G01G23G21G10G16G07G08                           
  23752605.932 8 124820784.135 8      3397.685 8        49.811                  
  23010258.655 8 120919725.103 8     -2826.643 8        51.598                  
  21777813.540 8 114443183.873 8      1780.451 8        52.415                  
  21316259.607 9 112017701.078 9      -807.978 9        57.453                  
  23483102.808 8 123404539.138 8     -3670.336 8        48.678                  
  24967791.180 7 131206630.536 7     -1908.943 7        46.992                  
  20442905.695 9 107428249.093 9       859.900 9        57.006                  
 02  5 18 00 01  1.0000000  0  7G01G23G21G10G16G07G08                           
  23751959.949 8 124817389.734 8      3396.040 8        50.110                  
  23010795.048 8 120922551.020 8     -2823.870 8        49.267                  
  21777470.312 8 114441401.790 8      1782.226 8        53.964                  
  21316414.103 9 112018509.852 9      -808.682 9        55.346                  
  23483801.255 8 123408206.194 8     -3665.177 8        49.372                  
  24968153.278 7 131208541.075 7     -1912.363 7        47.395                  
  20442740.425 9 107427389.259 9       859.802 9        56.635                  
 02  5 18 00 01  2.0000000  0  7G01G23G21G10G16G07G08                           
  23751313.252 8 124813995.503 8      3395.671 8        49.061                  
  23011333.173 8 120925377.329 8     -2824.962 8        50.189                  
  21777134.713 8 114439619.991 8      1782.115 8        50.752                  
  21316567.383 9 112019319.225 9      -810.822 9        54.343                  
  23484499.898 8 123411873.441 8     -3666.626 8        49.139                  
  24968517.824 7 131210451.945 7     -1912.132 7        45.647                  
  20442578.603 9 107426529.904 9       858.936 9        57.195                  
 02  5 18 00 01  3.0000000  0  7G01G23G21G10G16G07G08                           
  23750668.001 8 124810601.425 8      3396.408 8        48.963                  
  23011872.049 8 120928204.043 8     -2826.678 8        50.903                  
  21776798.669 8 114437838.515 8      1781.647 8        51.977                  
  21316721.003 9 112020129.192 9      -810.318 9        55.029                  
  23485196.111 8 123415540.863 8     -3666.806 8        51.019                  
  24968882.066 7 131212363.184 7     -1910.570 7        44.747                  
  20442416.924 9 107425671.000 9       858.084 9        55.571                  
 02  5 18 00 01  4.0000000  0  7G01G23G21G10G16G07G08                           
  23750023.197 8 124807207.501 8      3390.053 8        49.246                  
  23012407.548 8 120931031.149 8     -2826.555 8        53.056                  
  21776456.405 9 114436057.350 9      1780.653 9        54.057                  
  21316875.070 9 112020939.780 9      -810.893 9        54.686                  
  23485895.415 8 123419208.508 8     -3667.961 8        52.147                  
  24969242.859 7 131214274.774 7     -1910.250 7        45.158                  
  20442255.888 9 107424812.575 9       858.138 9        56.761                  
 02  5 18 00 01  5.0000000  0  7G01G23G21G10G16G07G08                           
  23749375.910 8 124803813.759 8      3389.173 8        48.125                  
  23012947.711 8 120933858.640 8     -2827.679 8        51.167                  
  21776115.482 8 114434276.482 8      1779.852 8        53.736                  
  21317028.779 9 112021750.999 9      -811.984 9        56.110                  
  23486593.504 8 123422876.322 8     -3665.980 8        49.198                  
  24969609.996 7 131216186.713 7     -1912.809 7        45.789                  
  20442094.638 9 107423954.625 9       858.142 9        56.311                  
 02  5 18 00 01  6.0000000  0  8G01G23G21G27G10G16G07G08                        
  23748729.552 8 124800420.163 8      3391.876 8        48.451                  
  23013484.979 8 120936686.498 8     -2827.095 8        48.888                  
  21775779.956 8 114432495.913 8      1779.910 8        52.022                  
  20485438.026 9 107651718.561 9     -1384.361 9        56.690                  
  21317182.667 9 112022562.814 9      -812.119 9        56.330                  
  23487290.628 8 123426544.336 8     -3664.361 8        48.782                  
  24969970.915 7 131218098.992 7     -1910.560 7        46.438                  
  20441934.710 9 107423097.154 9       857.047 9        57.040                  
 02  5 18 00 01  7.0000000  0  8G01G23G21G27G10G16G07G08                        
  23748085.516 8 124797026.716 8      3392.542 8        49.214                  
  23014023.158 8 120939514.762 8     -2827.322 8        48.928                  
  21775443.071 8 114430715.640 8      1779.796 8        52.923                  
  20485704.632 9 107653102.150 9     -1383.845 9        56.544                  
  21317336.645 9 112023375.226 9      -813.296 9        54.965                  
  23487989.665 8 123430212.548 8     -3668.238 8        50.145                  
  24970337.462 7 131220011.640 7     -1914.441 7        46.132                  
  20441772.817 9 107422240.146 9       856.592 9        57.079                  
 02  5 18 00 01  8.0000000  0  8G01G23G21G27G10G16G07G08                        
  23747438.676 8 124793633.460 8      3393.831 8        48.854                  
  23014562.338 8 120942343.417 8     -2828.536 8        49.937                  
  21775100.915 8 114428935.669 8      1778.952 8        52.592                  
  20485964.519 9 107654486.218 9     -1384.804 9        56.585                  
  21317491.390 9 112024188.271 9      -813.301 9        57.855                  
  23488687.414 8 123433880.940 8     -3666.757 8        50.793                  
  24970700.025 8 131221924.639 8     -1914.160 8        48.175                  
  20441607.314 9 107421383.601 9       857.243 9        58.682                  
 02  5 18 00 01  9.0000000  0  8G01G23G21G27G10G16G07G08                        
  23746792.550 8 124790240.346 8      3391.559 8        48.038                  
  23015099.284 8 120945172.476 8     -2829.935 8        50.436                  
  21774760.510 8 114427155.990 8      1780.310 8        53.921                  
  20486224.085 9 107655870.763 9     -1385.102 9        55.912                  
  21317645.457 9 112025001.930 9      -813.802 9        55.609                  
  23489384.413 8 123437549.535 8     -3667.074 8        48.442                  
  24971064.517 8 131223837.982 8     -1912.741 8        48.036                  
  20441442.580 9 107420527.537 9       855.913 9        57.485                  
 02  5 18 00 01 10.0000000  0  8G01G23G21G27G10G16G07G08                        
  23746148.782 8 124786847.387 8      3397.282 8        49.635                  
  23015639.358 8 120948001.930 8     -2828.595 8        50.123                  
  21774425.162 8 114425376.613 8      1779.839 8        53.375                  
  20486491.101 9 107657255.784 9     -1385.362 9        56.610                  
  21317800.542 9 112025816.190 9      -814.377 9        54.990                  
  23490083.896 8 123441218.319 8     -3669.537 8        49.552                  
  24971429.796 8 131225751.682 8     -1914.138 8        48.429                  
  20441277.524 9 107419671.948 9       855.831 9        56.890                  
 02  5 18 00 01 11.0000000  0  8G01G23G21G27G10G16G07G08                        
  23745502.335 7 124783454.607 7      3393.359 7        47.507                  
  23016176.465 8 120950831.753 8     -2827.734 8        50.592                  
  21774088.474 8 114423597.533 8      1779.037 8        51.797                  
  20486758.511 9 107658641.282 9     -1386.168 9        56.908                  
  21317955.306 9 112026631.045 9      -815.045 9        56.143                  
  23490781.950 8 123444887.285 8     -3669.778 8        50.925                  
  24971791.876 8 131227665.729 8     -1913.684 8        48.151                  
  20441111.824 9 107418816.837 9       854.971 9        57.305                  
 02  5 18 00 01 12.0000000  0  8G01G23G21G27G10G16G07G08                        
  23744856.012 8 124780061.970 8      3389.700 8        50.024                  
  23016715.680 8 120953661.963 8     -2829.888 8        50.661                  
  21773745.246 8 114421818.764 8      1779.370 8        53.132                  
  20487019.739 9 107660027.256 9     -1387.173 9        56.162                  
  21318109.694 9 112027446.513 9      -816.642 9        57.082                  
  23491479.556 8 123448556.452 8     -3669.289 8        51.393                  
  24972158.798 7 131229580.130 7     -1918.429 7        47.874                  
  20440946.553 9 107417962.178 9       854.466 9        57.352                  
 02  5 18 00 01 13.0000000  0  8G01G23G21G27G10G16G07G08                        
  23744211.280 8 124776669.499 8      3391.687 8        48.961                  
  23017255.200 8 120956492.562 8     -2828.595 8        50.193                  
  21773406.431 8 114420040.306 8      1778.207 8        52.767                  
  20487279.340 9 107661413.708 9     -1386.748 9        57.344                  
  21318266.030 9 112028262.622 9      -816.418 9        56.969                  
  23492178.521 8 123452225.799 8     -3669.357 8        50.378                  
  24972519.055 7 131231494.871 7     -1913.298 7        46.501                  
  20440784.392 9 107417107.994 9       854.140 9        56.038                  
 02  5 18 00 01 14.0000000  0  8G01G23G21G27G10G16G07G08                        
  23743565.886 8 124773277.195 8      3392.241 8        48.577                  
  23017792.325 8 120959323.566 8     -2830.555 8        50.850                  
  21773072.727 8 114418262.155 8      1778.650 8        51.981                  
  20487545.159 9 107662800.637 9     -1387.796 9        57.219                  
  21318421.116 9 112029079.324 9      -816.895 9        54.917                  
  23492876.324 8 123455895.345 8     -3670.740 8        49.964                  
  24972887.443 7 131233409.973 7     -1916.047 7        46.564                  
  20440624.053 9 107416254.288 9       854.211 9        54.647                  
 02  5 18 00 01 15.0000000  0  8G01G23G21G27G10G16G07G08                        
  23742918.903 8 124769885.048 8      3390.704 8        48.730                  
  23018333.792 8 120962154.968 8     -2830.893 8        50.293                  
  21772733.502 8 114416484.292 8      1778.176 8        52.861                  
  20487813.623 9 107664188.043 9     -1387.742 9        56.362                  
  21318576.272 9 112029896.623 9      -817.237 9        55.317                  
  23493574.020 8 123459565.087 8     -3670.023 8        49.049                  
  24973249.648 7 131235325.428 7     -1916.194 7        46.914                  
  20440463.804 9 107415401.060 9       853.171 9        55.705                  
 02  5 18 00 01 16.0000000  0  8G01G23G21G27G10G16G07G08                        
  23742273.760 8 124766493.054 8      3395.011 8        48.231                  
  23018869.898 8 120964986.752 8     -2831.757 8        50.714                  
  21772392.310 8 114414706.739 8      1778.241 8        52.845                  
  20488077.120 9 107665575.925 9     -1388.466 9        57.731                  
  21318731.340 9 112030714.530 9      -818.497 9        55.982                  
  23494274.021 8 123463235.002 8     -3672.109 8        49.586                  
  24973615.838 7 131237241.229 7     -1915.954 7        46.177                  
  20440303.823 9 107414548.308 9       853.057 9        56.602                  
 02  5 18 00 01 17.0000000  0  8G01G23G21G27G10G16G07G08                        
  23741629.706 7 124763101.242 7      3388.856 7        46.907                  
  23019409.221 8 120967818.905 8     -2834.134 8        50.229                  
  21772053.835 9 114412929.472 9      1777.480 9        54.425                  
  20488336.006 9 107666964.283 9     -1388.246 9        58.255                  
  21318887.962 9 112031533.079 9      -819.287 9        56.138                  
  23494971.271 8 123466905.122 8     -3670.724 8        50.231                  
  24973980.742 8 131239157.390 8     -1916.992 8        48.105                  
  20440143.234 9 107413696.011 9       852.032 9        57.653                  
 02  5 18 00 01 18.0000000  0  8G01G23G21G27G10G16G07G08                        
  23740983.991 7 124759709.572 7      3392.885 7        47.709                  
  23019949.062 8 120970651.452 8     -2830.506 8        49.604                  
  21771719.327 8 114411152.520 8      1775.606 8        53.201                  
  20488600.486 9 107668353.119 9     -1389.139 9        57.009                  
  21319043.744 9 112032352.227 9      -820.207 9        55.378                  
  23495669.556 8 123470575.423 8     -3672.591 8        49.382                  
  24974342.553 7 131241073.890 7     -1914.805 7        47.696                  
  20439983.771 9 107412844.189 9       851.011 9        57.420                  
 02  5 18 00 01 19.0000000  0  8G01G23G21G27G10G16G07G08                        
  23740337.043 7 124756318.069 7      3392.527 7        47.756                  
  23020485.812 8 120973484.406 8     -2832.141 8        50.274                  
  21771381.478 8 114409375.842 8      1774.925 8        52.677                  
  20488870.076 9 107669742.432 9     -1388.942 9        57.249                  
  21319200.920 9 112033171.969 9      -819.820 9        54.670                  
  23496368.521 8 123474245.919 8     -3669.741 8        50.735                  
  24974711.156 8 131242990.739 8     -1916.120 8        48.137                  
  20439822.199 9 107411992.844 9       850.782 9        56.585                  
 02  5 18 00 01 20.0000000  0  8G01G23G21G27G10G16G07G08                        
  23739693.794 7 124752927.000 7      3389.405 7        47.307                  
  23021027.243 8 120976317.624 8     -2831.753 8        50.789                  
  21771039.572 8 114407599.704 8      1774.722 8        50.991                  
  20489135.538 9 107671132.098 9     -1389.548 9        55.502                  
  21319357.971 8 112033992.145 8      -819.453 8        53.406                  
  23497066.825 8 123477916.477 8     -3672.010 8        50.059                  
  24975072.396 7 131244908.304 7     -1918.553 7        47.196                  
  20439658.572 9 107411142.080 9       849.464 9        56.527                  
 02  5 18 00 01 21.0000000  0  8G01G23G21G27G10G16G07G08                        
  23739062.607 6 124749547.813 6      3373.988 6        41.118                  
  23021566.066 7 120979145.675 7     -2823.715 7        47.141                  
  21770703.348 8 114405833.219 8      1760.068 8        48.414                  
  20489393.352 9 107672516.987 9     -1381.062 9        58.165                  
  21319513.538 8 112034806.153 8      -809.396 8        53.040                  
  23497763.752 8 123481581.934 8     -3661.333 8        52.464                  
  24975446.234 6 131246841.382 6     -1941.587 6        40.740                  
  20439495.964 9 107410296.167 9       842.000 9        58.558                  
 02  5 18 00 01 22.0000000  0  8G01G23G21G27G10G16G07G08                        
  23738420.233 7 124746187.746 7      3344.347 7        43.180                  
  23022106.622 8 120981965.065 8     -2807.697 8        48.291                  
  21770374.433 8 114404082.760 8      1742.621 8        53.331                  
  20489653.775 9 107673893.568 9     -1372.914 9        56.971                  
  21319666.515 8 112035609.123 8      -798.560 8        50.357                  
  23498461.502 7 123485239.141 7     -3653.861 7        47.407                  
  24975813.228 7 131248799.277 7     -1968.707 7        46.114                  
  20439334.339 9 107409458.045 9       833.842 9        57.736                  
 02  5 18 00 01 23.0000000  0  8G01G23G21G27G10G16G07G08                        
  23737775.001 7 124742846.797 7      3331.622 7        46.941                  
  23022636.670 8 120984775.906 8     -2807.023 8        48.332                  
  21770044.964 8 114402348.180 8      1727.758 8        51.319                  
  20489920.024 9 107675261.811 9     -1363.463 9        54.314                  
  21319817.187 8 112036401.350 8      -787.043 8        50.856                  
  23499154.534 8 123488887.695 8     -3642.684 8        48.763                  
  24976193.463 7 131250782.660 7     -1996.687 7        46.366                  
  20439174.107 9 107408627.728 9       826.036 9        57.647                  
 02  5 18 00 01 24.0000000  0  8G01G23G21G27G10G16G07G08                        
  23737142.008 7 124739520.473 7      3328.683 7        46.573                  
  23023170.490 8 120987580.232 8     -2803.814 8        49.897                  
  21769714.012 8 114400625.343 8      1721.965 8        53.125                  
  20490180.018 8 107676624.075 8     -1362.249 8        53.516                  
  21319966.572 8 112037185.822 8      -784.150 8        52.685                  
  23499845.708 8 123492530.418 8     -3643.422 8        50.209                  
  24976569.784 7 131252784.648 7     -2004.567 7        43.597                  
  20439017.521 9 107407803.265 9       823.353 9        54.212                  
 02  5 18 00 01 25.0000000  0  8G01G23G21G27G10G16G07G08                        
  23736509.302 8 124736194.289 8      3329.561 8        48.511                  
  23023704.488 7 120990383.949 7     -2805.470 7        46.784                  
  21769382.202 8 114398902.643 8      1725.539 8        50.634                  
  20490433.580 8 107677987.108 8     -1373.631 8        53.113                  
  21320115.260 8 112037971.053 8      -786.308 8        48.545                  
  23500542.117 7 123496174.834 7     -3660.741 7        45.746                  
  24976954.915 7 131254786.313 7     -1999.704 7        45.428                  
  20438857.897 9 107406979.213 9       825.382 9        55.601                  
 02  5 18 00 01 26.0000000  0  8G01G23G21G27G10G16G07G08                        
  23735875.899 6 124732854.797 6      3345.280 6        40.950                  
  23024237.914 8 120993192.656 8     -2810.863 8        50.532                  
  21769054.895 7 114397169.268 7      1734.049 7        42.472                  
  20490695.361 7 107679357.822 7     -1378.936 7        44.564                  
  21320266.074 7 112038764.631 7      -802.095 7        45.509                  
  23501235.793 6 123499828.935 6     -3652.688 6        39.288                  
  24977328.414 6 131256778.027 6     -1984.530 6        37.336                  
  20438698.791 7 107406149.164 7       829.392 7        46.632                  
 02  5 18 00 01 27.0000000  0  8G01G23G21G27G10G16G07G08                        
  23735233.114 7 124729509.927 7      3346.000 7        43.839                  
  23024771.250 7 120996001.606 7     -2809.986 7        43.893                  
  21768729.000 8 114395429.401 8      1739.855 8        48.833                  
  20490962.324 7 107680734.419 7     -1375.624 7        44.794                  
  21320420.105 7 112039562.923 7      -800.431 7        46.834                  
  23501933.006 6 123503487.561 6     -3653.921 6        36.262                  
  24977708.416 6 131258754.540 6     -1970.339 6        39.609                  
  20438539.096 7 107405315.383 7       836.552 7        46.340                  
 02  5 18 00 01 28.0000000  0  8G01G23G21G27G10G16G07G08                        
  23734599.943 6 124726157.227 6      3347.710 6        36.721                  
  23025304.194 6 120998806.722 6     -2792.183 6        36.709                  
  21768397.672 6 114393691.119 6      1736.753 6        40.936                  
  20491224.999 8 107682112.292 8     -1379.909 8        51.380                  
  21320570.455 6 112040360.743 6      -793.333 6        41.484                  
  23502634.240 5 123507148.727 5     -3669.428 5        35.671                  
  24978081.396 6 131260725.015 6     -1965.235 6        40.524                  
  20438383.993 8 107404481.412 8       831.525 8        50.899                  
 02  5 18 00 01 29.0000000  0  8G01G23G21G27G10G16G07G08                        
  23733961.912 5 124722792.477 5      3371.106 5        35.000                  
  23025836.298 5 121001610.388 5     -2792.162 5        35.002                  
  21768063.147 6 114391949.635 6      1751.199 6        37.053                  
  20491480.293 8 107683494.173 8     -1386.318 8        51.362                  
  21320724.933 6 112041161.015 6      -804.898 6        37.662                  
  23503330.560 5 123510828.067 5     -3678.177 5        35.438                  
  24978459.433 6 131262685.509 6     -1944.118 6        36.358                  
  20438225.423 8 107403645.144 8       838.294 8        50.359                  
 02  5 18 00 01 30.0000000  0  8G01G23G21G27G10G16G07G08                        
  23733318.591 5 124719412.602 5      3382.770 5        35.301                  
  23026373.119 5 121004425.605 5     -2827.540 5        34.710                  
  21767726.030 6 114390193.125 6      1760.754 6        38.954                  
  20491746.006 7 107684884.022 7     -1390.399 7        47.972                  
  21320879.000 6 112041973.501 6      -817.507 6        38.875                  
  23504032.884 5 123514512.239 5     -3680.153 5        34.734                  
  24978822.514 7 131264625.706 7     -1933.815 7        42.126                  
  20438066.138 8 107402803.067 8       852.913 8        49.170                  
 02  5 18 00 01 31.0000000  0  8G01G23G21G27G10G16G07G08                        
  23732682.025 5 124716028.685 5      3387.729 5        34.722                  
  23026911.441 5 121007232.550 5     -2804.241 5        34.769                  
  21767393.809 6 114388436.981 6      1752.542 6        36.798                  
  20492016.203 7 107686278.056 7     -1393.578 7        43.235                  
  21321032.173 6 112042785.434 6      -804.653 6        36.525                  
  23504736.048 5 123518211.474 5     -3701.380 5        35.024                  
  24979193.028 7 131266561.873 7     -1931.742 7        43.542                  
  20437906.568 7 107401958.432 7       849.157 7        44.905                  
 02  5 18 00 01 32.0000000  0  8G01G23G21G27G10G16G07G08                        
  23732045.441 5 124712649.040 5      3379.542 5        34.745                  
  23027444.492 5 121010027.581 5     -2801.472 5        35.164                  
  21767065.483 6 114386681.460 6      1754.574 6        38.722                  
  20492284.149 6 107687677.409 6     -1398.148 6        39.130                  
  21321186.025 6 112043596.030 6      -809.446 6        37.134                  
  23505439.051 5 123521931.527 5     -3735.010 5        35.184                  
  24979559.450 6 131268495.367 6     -1912.739 6        40.243                  
  20437748.195 6 107401110.779 6       843.168 6        41.374                  
 02  5 18 00 01 33.0000000  0  7G01G21G27G10G16G07G08                           
  23731402.675 6 124709276.094 6      3372.142 6        39.473                  
  21766723.577 7 114384917.139 7      1772.509 7        47.886                  
  20492545.841 6 107689079.955 6     -1404.143 6        37.609                  
  21321347.150 7 112044414.769 7      -825.472 7        44.102                  
  23506146.665 5 123525646.961 5     -3696.854 5        35.406                  
  24979928.446 5 131270416.257 5     -1934.729 5        35.903                  
  20437589.375 6 107400260.990 6       843.854 6        39.689                  
 02  5 18 00 01 34.0000000  0  6G01G21G27G10G07G08                              
  23730758.479 7 124705890.182 7      3398.202 7        43.080                  
  21766385.638 6 114383143.692 6      1781.959 6        41.767                  
  20492811.125 6 107690484.077 6     -1411.111 6        36.817                  
  21321499.180 7 112045242.182 7      -836.877 7        47.069                  
  24980289.489 5 131272347.184 5     -1926.686 5        34.499                  
  20437429.036 6 107399410.691 6       846.971 6        38.446                  
 02  5 18 00 01 35.0000000  0  6G01G21G27G10G07G08                              
  23730108.618 6 124702493.691 6      3416.258 6        37.454                  
  21766045.877 6 114381360.788 6      1795.866 6        36.532                  
  20493084.413 5 107691896.243 5     -1425.154 5        35.674                  
  21321658.339 6 112046076.719 6      -840.921 6        40.998                  
  24980649.908 5 131274270.468 5     -1935.485 5        34.332                  
  20437264.445 6 107398554.677 6       859.580 6        36.533                  
 02  5 18 00 01 36.0000000  0  6G01G21G27G10G07G08                              
  23729461.831 5 124699085.318 5      3434.185 5        34.911                  
  21765711.744 5 114379567.177 5      1803.485 5        34.836                  
  20493355.772 5 107693317.473 5     -1425.344 5        34.971                  
  21321819.643 6 112046919.057 6      -849.646 6        36.521                  
  24981008.825 5 131276187.912 5     -1907.450 5        34.478                  
  20437097.459 5 107397692.123 5       859.122 5        35.335                  
 02  5 18 00 01 37.0000000  0  6G01G21G27G10G07G08                              
  23728813.418 5 124695672.659 5      3419.778 5        34.430                  
  21765363.959 5 114377769.926 5      1802.768 5        34.443                  
  20493626.059 5 107694742.277 5     -1421.783 5        34.974                  
  21321978.856 5 112047764.716 5      -842.490 5        35.142                  
  24981366.849 5 131278104.701 5     -1929.125 5        34.772                  
  20436931.187 5 107396827.693 5       864.841 5        35.161                  
 02  5 18 00 01 38.0000000  0  5G01G21G10G07G08                                 
  23728168.239 5 124692261.142 5      3401.621 5        34.429                  
  21765019.998 5 114375973.635 5      1784.813 5        34.599                  
  21322139.534 5 112048610.496 5      -854.733 5        34.762                  
  24981726.766 5 131280024.163 5     -1919.482 5        35.004                  
  20436763.505 5 107395963.918 5       864.974 5        35.347                  
 02  5 18 00 02  1.0000000  0  7G01G23G21G27G16G07G08                           
  23713341.774 6 124614448.245 6      3307.464 6        37.251                  
  23042996.331 6 121091762.958 6     -2776.908 6        38.455                  
  21757255.515 6 114335145.963 6      1709.262 6        38.327                  
  20500117.947 7 107728837.858 7     -1398.289 7        46.128                  
  23526042.339 8 123630179.658 8     -3730.652 8        48.105                  
  24990026.999 7 131323221.644 7     -1987.898 7        44.736                  
  20433047.230 7 107376388.885 7       822.011 7        44.114                  
 02  5 18 00 02  2.0000000  0  7G01G23G21G27G16G07G08                           
  23712715.626 6 124611139.245 6      3300.170 6        36.119                  
  23043523.986 6 121094534.452 6     -2771.996 6        39.817                  
  21756928.976 6 114333433.162 6      1707.768 6        37.605                  
  20500383.999 7 107730238.610 7     -1403.245 7        44.610                  
  23526752.239 8 123633912.474 8     -3731.483 8        49.000                  
  24990404.178 7 131325208.613 7     -1987.710 7        43.879                  
  20432893.217 7 107375566.601 7       823.229 7        42.937                  
 02  5 18 00 02  3.0000000  0  7G01G23G21G27G16G07G08                           
  23712081.579 5 124607827.427 5      3305.034 5        35.432                  
  23044049.371 6 121097306.457 6     -2770.385 6        41.331                  
  21756604.778 6 114331717.911 6      1716.790 6        36.854                  
  20500649.729 7 107731642.009 7     -1404.443 7        43.556                  
  23527462.622 8 123637649.534 8     -3739.861 8        49.188                  
  24990784.949 7 131327190.714 7     -1978.484 7        45.257                  
  20432731.324 7 107374743.073 7       823.094 7        42.224                  
 02  5 18 00 02  4.0000000  0  7G01G23G21G27G16G07G08                           
  23711447.229 5 124604512.953 5      3314.451 5        34.793                  
  23044579.062 7 121100079.201 7     -2772.228 7        43.996                  
  21756282.225 6 114330000.438 6      1719.204 6        36.241                  
  20500913.083 7 107733047.788 7     -1405.288 7        42.901                  
  23528174.899 8 123641390.057 8     -3740.205 8        48.391                  
  24991159.681 7 131329168.622 7     -1983.705 7        44.872                  
  20432576.614 6 107373918.507 6       826.101 6        41.634                  
 02  5 18 00 02  5.0000000  0  7G01G23G21G27G16G07G08                           
  23710816.435 5 124601199.931 5      3319.142 5        34.304                  
  23045105.645 7 121102852.116 7     -2776.949 7        45.782                  
  21755953.846 5 114328284.394 5      1715.726 5        35.550                  
  20501182.887 6 107734453.202 6     -1406.838 6        41.624                  
  23528886.676 8 123645129.310 8     -3737.410 8        48.239                  
  24991534.144 7 131331148.983 7     -1978.956 7        44.399                  
  20432417.258 6 107373095.114 6       820.200 6        40.371                  
 02  5 18 00 02  6.0000000  0  7G01G23G21G27G16G07G08                           
  23710190.751 5 124597888.852 5      3300.108 5        34.699                  
  23045633.442 7 121105625.178 7     -2773.085 7        46.825                  
  21755624.341 5 114326570.250 5      1715.344 5        35.175                  
  20501454.317 6 107735857.862 6     -1403.731 6        40.689                  
  23529597.560 7 123648866.638 7     -3738.921 7        47.575                  
  24991913.968 7 131333132.647 7     -1982.513 7        42.987                  
  20432261.083 6 107372273.133 6       822.489 6        39.593                  
 02  5 18 00 02  7.0000000  0  6G23G21G27G16G07G08                              
  23046160.024 7 121108398.586 7     -2774.406 7        47.159                  
  21755295.694 5 114324856.589 5      1721.873 5        34.842                  
  20501720.905 6 107737262.814 6     -1406.018 6        39.921                  
  23530308.157 7 123652603.852 7     -3739.650 7        47.358                  
  24992289.861 6 131335117.121 6     -1985.459 6        40.774                  
  20432102.138 6 107371451.793 6       819.024 6        39.238                  
 02  5 18 00 02  8.0000000  0  6G23G21G27G16G07G08                              
  23046691.610 7 121111173.622 7     -2775.160 7        45.231                  
  21754967.494 5 114323142.037 5      1726.344 5        34.653                  
  20501983.687 6 107738668.778 6     -1411.136 6        39.383                  
  23531019.326 7 123656341.067 7     -3735.205 7        46.351                  
  24992668.273 6 131337100.271 6     -1980.150 6        39.318                  
  20431947.571 6 107370630.500 6       822.576 6        38.797                  
 02  5 18 00 02  9.0000000  0  6G23G21G27G16G07G08                              
  23047221.355 8 121113966.238 8     -2804.473 8        49.132                  
  21754643.153 5 114321415.327 5      1725.360 5        34.705                  
  20502251.508 6 107740078.211 6     -1406.548 6        39.538                  
  23531730.638 7 123660068.325 7     -3724.412 7        45.988                  
  24993042.486 6 131339069.449 6     -1962.698 6        37.996                  
  20431792.932 6 107369807.024 6       823.440 6        39.057                  
 02  5 18 00 02 10.0000000  0  5G23G27G16G07G08                                 
  23047757.729 8 121116782.591 8     -2825.431 8        48.264                  
  20502522.867 6 107741492.099 6     -1415.243 6        39.801                  
  23532435.303 7 123663781.817 7     -3712.194 7        46.523                  
  24993416.771 6 131341019.701 6     -1949.290 6        37.410                  
  20431637.150 6 107368980.543 6       828.697 6        39.469                  
 02  5 18 00 02 11.0000000  0  5G23G27G16G07G08                                 
  23048295.283 7 121119604.574 7     -2816.142 7        47.744                  
  20502796.388 6 107742910.325 6     -1420.931 6        40.222                  
  23533142.970 7 123667498.107 7     -3726.362 7        45.963                  
  24993788.089 6 131342958.878 6     -1926.089 6        36.697                  
  20431478.902 6 107368151.411 6       831.282 6        39.859                  
 02  5 18 00 02 12.0000000  0  5G23G27G16G07G08                                 
  23048826.422 7 121122415.146 7     -2807.671 7        47.492                  
  20503065.853 6 107744334.982 6     -1427.246 6        41.812                  
  23533855.212 8 123671236.659 8     -3743.570 8        48.526                  
  24994153.689 6 131344889.614 6     -1921.289 6        36.059                  
  20431317.830 6 107367318.345 6       833.584 6        41.121                  
 02  5 18 00 02 13.0000000  0  5G23G27G16G07G08                                 
  23049362.904 8 121125222.875 8     -2809.566 8        48.681                  
  20503337.194 7 107745762.176 7     -1425.038 7        42.043                  
  23534568.114 7 123674982.410 7     -3743.090 7        47.126                  
  24994532.888 5 131346817.074 5     -1933.340 5        35.456                  
  20431168.017 6 107366483.992 6       832.859 6        41.871                  
 02  5 18 00 02 14.0000000  0  5G23G27G16G07G08                                 
  23049896.580 8 121128036.277 8     -2814.476 8        48.316                  
  20503604.801 7 107747186.502 7     -1423.461 7        43.117                  
  23535277.943 8 123678717.009 8     -3732.420 8        49.232                  
  24994888.696 5 131348750.619 5     -1933.082 5        35.348                  
  20431004.461 7 107365652.915 7       826.399 7        42.736                  
 02  5 18 00 02 15.0000000  0  5G23G27G16G07G08                                 
  23050433.365 8 121130840.442 8     -2797.650 8        48.320                  
  20503877.911 7 107748609.287 7     -1421.091 7        42.827                  
  23535989.827 8 123682456.676 8     -3749.250 8        49.258                  
  24995258.424 5 131350693.511 5     -1956.891 5        34.682                  
  20430851.145 7 107364824.008 7       824.260 7        42.439                  
 02  5 18 00 02 16.0000000  0  5G23G27G16G07G08                                 
  23050961.645 7 121133628.168 7     -2787.402 7        46.722                  
  20504147.179 7 107750032.626 7     -1428.660 7        42.692                  
  23536705.303 7 123686212.219 7     -3758.997 7        47.987                  
  24995632.154 5 131352643.665 5     -1952.327 5        34.904                  
  20430694.023 7 107363995.766 7       824.962 7        42.143                  
 02  5 18 00 02 17.0000000  0  5G23G27G16G07G08                                 
  23051492.248 7 121136414.449 7     -2784.198 7        47.583                  
  20504421.129 7 107751456.108 7     -1421.492 7        42.694                  
  23537420.225 7 123689968.937 7     -3757.473 7        47.743                  
  24996002.097 5 131354595.963 5     -1953.930 5        34.811                  
  20430539.938 7 107363168.327 7       822.252 7        42.470                  
 02  5 18 00 02 18.0000000  0  6G23G27G30G16G07G08                              
  23052021.189 8 121139200.697 8     -2788.438 8        49.452                  
  20504682.857 7 107752879.716 7     -1427.122 7        42.174                  
  25185729.825 7 132351916.783 7      -919.345 7        42.107                  
  23538133.842 7 123693725.592 7     -3756.271 7        47.799                  
  24996366.982 5 131356549.424 5     -1960.449 5        34.480                  
  20430383.406 6 107362341.656 6       823.451 6        41.967                  
 02  5 18 00 02 19.0000000  0  5G23G27G30G16G08                                 
  23052551.845 8 121141987.131 8     -2786.694 8        49.729                  
  20504954.519 6 107754303.694 6     -1427.282 6        40.452                  
  25185903.959 7 132352833.349 7      -918.727 7        42.066                  
  23538846.995 8 123697482.335 8     -3755.971 8        48.325                  
  20430223.406 6 107361515.559 6       821.822 6        40.417                  
 02  5 18 00 02 20.0000000  0  5G23G27G30G16G08                                 
  23053083.431 8 121144774.132 8     -2785.599 8        49.714                  
  20505229.810 6 107755728.275 6     -1427.537 6        40.491                  
  25186082.292 6 132353752.307 6      -920.517 6        41.847                  
  23539563.864 8 123701239.394 8     -3757.346 8        48.162                  
  20430067.463 6 107360689.814 6       822.386 6        40.742                  
 02  5 18 00 02 21.0000000  0  5G23G27G30G16G08                                 
  23053611.871 8 121147562.166 8     -2786.504 8        48.418                  
  20505501.472 6 107757153.973 6     -1427.668 6        40.960                  
  25186262.983 7 132354674.448 7      -920.652 7        43.536                  
  23540279.929 8 123704997.077 8     -3759.263 8        48.349                  
  20429906.464 6 107359864.230 6       827.355 6        40.894                  
 02  5 18 00 02 22.0000000  0  5G23G27G30G16G08                                 
  23054144.332 7 121150350.860 7     -2792.586 7        47.152                  
  20505773.153 6 107758580.307 6     -1429.675 6        41.513                  
  25186438.421 7 132355600.454 7      -931.783 7        42.691                  
  23540997.228 7 123708755.112 7     -3755.003 7        47.857                  
  20429751.628 7 107359038.771 7       829.630 7        42.097                  
 02  5 18 00 02 23.0000000  0  5G23G27G30G16G08                                 
  23054674.167 8 121153139.773 8     -2790.960 8        49.336                  
  20506042.654 6 107760007.020 6     -1429.002 6        41.928                  
  25186611.018 7 132356532.125 7      -933.878 7        43.537                  
  23541705.127 7 123712513.260 7     -3758.578 7        47.999                  
  20429586.554 7 107358214.027 7       820.762 7        42.215                  
 02  5 18 00 02 24.0000000  0  5G23G27G30G16G08                                 
  23055207.236 8 121155928.810 8     -2790.204 8        49.184                  
  20506312.422 7 107761434.034 7     -1427.870 7        42.233                  
  25186781.453 7 132357467.422 7      -939.024 7        43.539                  
  23542420.746 7 123716271.466 7     -3758.564 7        46.532                  
  20429431.183 7 107357389.805 7       821.256 7        42.829                  
 02  5 18 00 02 25.0000000  0  6G01G23G27G30G16G08                              
  23698114.079 7 124534433.055 7      3334.518 7        46.138                  
  23055735.908 8 121158718.656 8     -2791.837 8        48.639                  
  20506591.304 7 107762861.883 7     -1426.743 7        43.616                  
  25186967.112 7 132358407.822 7      -949.956 7        43.127                  
  23543138.276 8 123720030.079 8     -3758.721 8        48.910                  
  20429268.468 7 107356565.948 7       822.038 7        43.974                  
 02  5 18 00 02 26.0000000  0  6G01G23G27G30G16G08                              
  23697480.443 7 124531097.004 7      3338.211 7        46.085                  
  23056268.548 8 121161509.795 8     -2789.675 8        48.196                  
  20506861.502 7 107764290.989 7     -1431.388 7        45.548                  
  25187151.431 7 132359356.385 7      -950.876 7        42.095                  
  23543854.252 8 123723789.436 8     -3760.494 8        49.145                  
  20429112.775 7 107355741.886 7       824.564 7        45.447                  
 02  5 18 00 02 27.0000000  0  6G01G23G27G30G16G08                              
  23696847.183 7 124527760.613 7      3333.382 7        45.254                  
  23056799.205 7 121164301.568 7     -2789.810 7        47.341                  
  20507117.136 8 107765720.847 8     -1431.585 8        48.632                  
  25187323.617 6 132360313.336 6      -960.060 6        40.935                  
  23544570.961 8 123727549.103 8     -3757.672 8        48.304                  
  20428942.984 8 107354918.099 8       819.724 8        48.699                  
 02  5 18 00 02 29.0000000  0  6G01G23G27G30G16G08                              
  23695576.213 7 124521088.558 7      3343.296 7        46.341                  
  23057861.786 7 121169888.042 7     -2801.246 7        47.886                  
  20507680.421 8 107768580.555 8     -1427.445 8        51.426                  
  25187433.636 7 132362261.090 7      -983.420 7        45.661                  
  23546001.198 7 123735064.900 7     -3749.514 7        47.576                  
  20428659.992 9 107353273.164 9       820.545 9        54.194                  
 02  5 18 00 02 34.0000000  0  7G01G23G21G27G30G16G08                           
  23692380.839 8 124504301.396 8      3354.728 8        48.162                  
  23060554.844 7 121184044.345 7     -2833.573 7        47.276                  
  21746379.034 7 114277976.282 7      1736.987 7        45.303                  
  20509059.016 8 107775708.382 8     -1422.830 8        51.956                  
  25188378.675 7 132367248.355 7     -1013.839 7        45.277                  
  23549533.903 8 123753632.892 8     -3705.639 8        48.550                  
  20427885.513 8 107349188.544 8       811.187 8        52.960                  
 02  5 18 00 02 35.0000000  0  7G01G23G21G27G30G16G08                           
  23691742.039 7 124500939.484 7      3371.270 7        46.650                  
  23061095.096 8 121186890.484 8     -2852.873 8        49.675                  
  21746044.990 8 114276234.525 8      1745.993 8        48.308                  
  20509293.565 8 107777130.779 8     -1423.907 8        50.745                  
  25188573.769 7 132368262.072 7     -1014.870 7        46.188                  
  23550232.671 8 123757325.542 8     -3682.682 8        48.085                  
  20427696.995 8 107348376.729 8       810.860 8        49.676                  
 02  5 18 00 02 36.0000000  0  7G01G23G21G27G30G16G08                           
  23691102.310 7 124497577.044 7      3354.015 7        46.069                  
  23061640.959 8 121189744.566 8     -2853.890 8        50.265                  
  21745710.839 7 114274494.272 7      1738.889 7        47.083                  
  20509565.496 7 107778549.495 7     -1413.477 7        46.396                  
  25188763.002 7 132369288.784 7     -1039.594 7        46.573                  
  23550937.497 8 123761003.693 8     -3667.037 8        48.291                  
  20427560.261 7 107347568.101 7       806.492 7        46.766                  
 02  5 18 00 02 37.0000000  0  7G01G23G21G27G30G16G08                           
  23690467.066 8 124494221.028 8      3355.559 8        50.508                  
  23062183.016 8 121192605.221 8     -2863.706 8        50.371                  
  21745383.515 8 114272761.688 8      1728.885 8        53.061                  
  20509847.487 8 107779959.967 8     -1406.954 8        52.426                  
  25188972.803 7 132370341.276 7     -1062.607 7        47.063                  
  23551631.745 8 123764660.113 8     -3645.436 8        49.391                  
  20427410.769 9 107346766.463 9       798.775 9        55.141                  
 02  5 18 00 02 38.0000000  0  7G01G23G21G27G30G16G08                           
  23689825.890 8 124490871.241 8      3341.830 8        48.429                  
  23062730.809 8 121195471.956 8     -2868.987 8        51.161                  
  21745056.547 8 114271036.374 8      1719.947 8        52.393                  
  20510114.396 9 107781362.860 9     -1399.654 9        55.697                  
  25189171.327 7 132371418.037 7     -1089.342 7        47.493                  
  23552323.544 8 123768296.224 8     -3627.479 8        49.838                  
  20427260.240 9 107345971.455 9       791.455 9        55.601                  
 02  5 18 00 02 39.0000000  0  7G01G23G21G27G30G16G08                           
  23689189.234 8 124487526.876 8      3345.294 8        48.314                  
  23063276.815 8 121198340.031 8     -2869.025 8        49.184                  
  21744732.421 8 114269316.497 8      1719.130 8        52.607                  
  20510375.016 9 107782761.593 9     -1398.878 9        58.007                  
  25189378.251 7 132372508.590 7     -1090.223 7        46.582                  
  23553014.986 8 123771922.934 8     -3625.665 8        51.812                  
  20427109.390 9 107345180.417 9       791.194 9        55.395                  
 02  5 18 00 02 40.0000000  0  7G01G23G21G27G30G16G08                           
  23688553.830 8 124484180.647 8      3345.554 8        50.197                  
  23063822.964 8 121201210.688 8     -2874.183 8        49.901                  
  21744404.792 8 114267595.556 8      1723.206 8        52.749                  
  20510640.282 9 107784160.980 9     -1400.437 9        57.151                  
  25189592.518 7 132373599.200 7     -1091.480 7        47.380                  
  23553704.301 8 123775548.240 8     -3621.270 8        48.525                  
  20426958.861 9 107344389.615 9       792.050 9        54.675                  
 02  5 18 00 02 41.0000000  0  7G01G23G21G27G30G16G08                           
  23687914.494 7 124480828.903 7      3351.442 7        47.643                  
  23064370.238 8 121204087.362 8     -2877.887 8        50.237                  
  21744073.536 8 114265871.032 8      1724.053 8        52.275                  
  20510911.962 9 107785561.712 9     -1400.629 9        55.677                  
  25189790.150 7 132374688.297 7     -1087.705 7        47.133                  
  23554393.724 8 123779170.248 8     -3620.428 8        50.305                  
  20426808.511 8 107343598.485 8       790.085 8        53.214                  
 02  5 18 00 02 42.0000000  0  7G01G23G21G27G30G16G08                           
  23687275.551 8 124477479.370 8      3350.933 8        48.875                  
