$GPRMC,000030.00,A,4852.4663252,N,00217.5805417,E,1.19,0.00,180502,0.0,E,A*36
$GPGGA,000030.00,4852.4663252,N,00217.5805417,E,1,06,1.0,-8.483,M,0.000,M,0.0,*5B
$GPGSA,A,3,01,08,10,16,21,23,,,,,,,2.2,1.3,1.8,1*29
$GPGSV,2,1,06,01,15,255,47,08,73,299,56,10,56,076,54,16,27,182,50,1*66
$GPGSV,2,2,06,21,45,263,53,23,28,048,50,,,,,,,,,1*63
$GPRMC,000031.00,A,4852.4661187,N,00217.5818073,E,0.51,0.00,180502,0.0,E,A*39
$GPGGA,000031.00,4852.4661187,N,00217.5818073,E,1,06,1.0,-9.693,M,0.000,M,0.0,*5B
$GPGSA,A,3,01,08,10,16,21,23,,,,,,,2.2,1.3,1.8,1*29
$GPGSV,2,1,06,01,15,255,47,08,73,299,57,10,56,076,54,16,27,182,50,1*67
$GPGSV,2,2,06,21,45,263,54,23,28,048,50,,,,,,,,,1*64
$GPRMC,000032.00,A,4852.4667128,N,00217.5820963,E,1.28,0.00,180502,0.0,E,A*35
$GPGGA,000032.00,4852.4667128,N,00217.5820963,E,1,06,1.0,-15.247,M,0.000,M,0.0,*68
$GPGSA,A,3,01,08,10,16,21,23,,,,,,,2.2,1.3,1.8,1*29
$GPGSV,2,1,06,01,15,255,48,08,73,299,57,10,56,076,54,16,27,182,50,1*68
$GPGSV,2,2,06,21,45,263,53,23,28,048,51,,,,,,,,,1*62
$GPRMC,000033.00,A,4852.4665493,N,00217.5807033,E,1.53,0.00,180502,0.0,E,A*36
$GPGGA,000033.00,4852.4665493,N,00217.5807033,E,1,06,1.0,-15.275,M,0.000,M,0.0,*66
$GPGSA,A,3,01,08,10,16,21,23,,,,,,,2.2,1.3,1.8,1*29
$GPGSV,2,1,06,01,15,255,48,08,73,299,56,10,56,076,54,16,27,182,49,1*61
$GPGSV,2,2,06,21,45,263,54,23,28,048,50,,,,,,,,,1*64
$GPRMC,000034.00,A,4852.4669701,N,00217.5813461,E,1.86,0.00,180502,0.0,E,A*3B
$GPGGA,000034.00,4852.4669701,N,00217.5813461,E,1,06,1.0,-13.871,M,0.000,M,0.0,*6B
$GPGSA,A,3,01,08,10,16,21,23,,,,,,,2.2,1.3,1.8,1*29
$GPGSV,2,1,06,01,15,255,48,08,73,299,56,10,56,076,54,16,27,182,50,1*69
$GPGSV,2,2,06,21,45,263,52,23,28,048,50,,,,,,,,,1*62
$GPRMC,000035.00,A,4852.4661339,N,00217.5809296,E,0.37,0.00,180502,0.0,E,A*33
$GPGGA,000035.00,4852.4661339,N,00217.5809296,E,1,06,1.0,-7.628,M,0.000,M,0.0,*5F
$GPGSA,A,3,01,08,10,16,21,23,,,,,,,2.2,1.3,1.8,1*29
$GPGSV,2,1,06,01,15,255,47,08,73,299,58,10,56,076,57,16,27,182,50,1*6B
$GPGSV,2,2,06,21,45,263,52,23,27,048,51,,,,,,,,,1*6C
$GPRMC,000036.00,A,4852.4672666,N,00217.5796823,E,0.97,0.00,180502,0.0,E,A*3A
$GPGGA,000036.00,4852.4672666,N,00217.5796823,E,1,06,1.0,-8.340,M,0.000,M,0.0,*58
$GPGSA,A,3,01,08,10,16,21,23,,,,,,,2.2,1.3,1.8,1*29
$GPGSV,2,1,06,01,15,255,49,08,73,299,57,10,56,076,57,16,27,182,51,1*6B
$GPGSV,2,2,06,21,45,263,54,23,27,048,50,,,,,,,,,1*6B
$GPRMC,000037.00,A,4852.4677766,N,00217.5783881,E,0.60,0.00,180502,0.0,E,A*3B
$GPGGA,000037.00,4852.4677766,N,00217.5783881,E,1,06,1.0,-2.618,M,0.000,M,0.0,*53
$GPGSA,A,3,01,08,10,16,21,23,,,,,,,2.2,1.3,1.8,1*29
$GPGSV,2,1,06,01,15,255,47,08,73,299,59,10,56,076,56,16,27,182,49,1*63
$GPGSV,2,2,06,21,45,263,53,23,27,048,50,,,,,,,,,1*6C
$GPRMC,000038.00,A,4852.4663914,N,00217.5802217,E,0.52,0.00,180502,0.0,E,A*38
$GPGGA,000038.00,4852.4663914,N,00217.5802217,E,1,06,1.0,-2.084,M,0.000,M,0.0,*52
$GPGSA,A,3,01,08,10,16,21,23,,,,,,,2.2,1.3,1.8,1*29
$GPGSV,2,1,06,01,15,255,48,08,73,299,55,10,56,076,55,16,27,182,50,1*6B
$GPGSV,2,2,06,21,45,263,53,23,27,048,50,,,,,,,,,1*6C
$GPRMC,000039.00,A,4852.4669082,N,00217.5809152,E,0.81,0.00,180502,0.0,E,A*32
$GPGGA,000039.00,4852.4669082,N,00217.5809152,E,1,06,1.0,-7.800,M,0.000,M,0.0,*57
$GPGSA,A,3,01,08,10,16,21,23,,,,,,,2.2,1.3,1.8,1*29
$GPGSV,2,1,06,01,15,255,48,08,73,299,56,10,56,076,54,16,27,182,50,1*69
$GPGSV,2,2,06,21,45,263,52,23,27,048,52,,,,,,,,,1*6F
$GPRMC,000040.00,A,4852.4670744,N,00217.5786803,E,1.66,0.00,180502,0.0,E,A*34
$GPGGA,000040.00,4852.4670744,N,00217.5786803,E,1,06,1.0,-7.089,M,0.000,M,0.0,*50
$GPGSA,A,3,01,08,10,16,21,23,,,,,,,2.2,1.3,1.8,1*29
$GPGSV,2,1,06,01,15,255,48,08,73,299,57,10,56,076,55,16,27,182,50,1*69
$GPGSV,2,2,06,21,45,263,52,23,27,048,50,,,,,,,,,1*6D
$GPRMC,000041.00,A,4852.4665905,N,00217.5803957,E,0.56,0.00,180502,0.0,E,A*3A
$GPGGA,000041.00,4852.4665905,N,00217.5803957,E,1,06,1.0,-10.969,M,0.000,M,0.0,*6D
$GPGSA,A,3,01,08,10,16,21,23,,,,,,,2.2,1.3,1.8,1*29
$GPGSV,2,1,06,01,15,255,47,08,73,299,55,10,56,076,54,16,27,182,50,1*65
$GPGSV,2,2,06,21,45,263,54,23,27,048,50,,,,,,,,,1*6B
$GPRMC,000042.00,A,4852.4658212,N,00217.5821089,E,0.84,0.00,180502,0.0,E,A*3F
$GPGGA,000042.00,4852.4658212,N,00217.5821089,E,1,06,1.0,-14.049,M,0.000,M,0.0,*68
$GPGSA,A,3,01,08,10,16,21,23,,,,,,,2.2,1.3,1.8,1*29
$GPGSV,2,1,06,01,15,255,49,08,73,299,57,10,56,076,54,16,27,182,50,1*69
$GPGSV,2,2,06,21,45,263,53,23,27,048,50,,,,,,,,,1*6C
$GPRMC,000043.00,A,4852.4668102,N,00217.5812888,E,0.92,0.00,180502,0.0,E,A*31
$GPGGA,000043.00,4852.4668102,N,00217.5812888,E,1,06,1.0,-16.799,M,0.000,M,0.0,*69
$GPGSA,A,3,01,08,10,16,21,23,,,,,,,2.2,1.3,1.8,1*29
$GPGSV,2,1,06,01,15,255,47,08,73,299,56,10,56,076,54,16,27,182,48,1*6F
$GPGSV,2,2,06,21,45,263,54,23,27,048,52,,,,,,,,,1*69
$GPRMC,000044.00,A,4852.4663816,N,00217.5806585,E,0.70,0.00,180502,0.0,E,A*38
$GPGGA,000044.00,4852.4663816,N,00217.5806585,E,1,06,1.0,-13.113,M,0.000,M,0.0,*6D
$GPGSA,A,3,01,08,10,16,21,23,,,,,,,2.2,1.3,1.8,1*29
$GPGSV,2,1,06,01,15,255,49,08,73,299,58,10,56,076,56,16,27,182,48,1*6D
$GPGSV,2,2,06,21,45,263,52,23,27,048,51,,,,,,,,,1*6C
$GPRMC,000045.00,A,4852.4664186,N,00217.5802643,E,0.42,0.00,180502,0.0,E,A*32
$GPGGA,000045.00,4852.4664186,N,00217.5802643,E,1,06,1.0,-10.446,M,0.000,M,0.0,*60
$GPGSA,A,3,01,08,10,16,21,23,,,,,,,2.2,1.3,1.8,1*29
$GPGSV,2,1,06,01,15,255,48,08,73,299,57,10,56,076,56,16,27,182,48,1*63
$GPGSV,2,2,06,21,45,263,52,23,27,048,50,,,,,,,,,1*6D
$GPRMC,000046.00,A,4852.4673148,N,00217.5808539,E,0.48,0.00,180502,0.0,E,A*3B
$GPGGA,000046.00,4852.4673148,N,00217.5808539,E,1,06,1.0,-11.082,M,0.000,M,0.0,*6E
$GPGSA,A,3,01,08,10,16,21,23,,,,,,,2.2,1.3,1.8,1*29
$GPGSV,2,1,06,01,15,255,49,08,73,299,55,10,56,076,56,16,27,182,48,1*60
$GPGSV,2,2,06,21,45,263,51,23,27,048,50,,,,,,,,,1*6E
$GPRMC,000047.00,A,4852.4662581,N,00217.5797025,E,1.50,0.00,180502,0.0,E,A*32
$GPGGA,000047.00,4852.4662581,N,00217.5797025,E,1,06,1.0,-4.129,M,0.000,M,0.0,*5B
$GPGSA,A,3,01,08,10,16,21,23,,,,,,,2.2,1.3,1.8,1*29
$GPGSV,2,1,06,01,15,255,50,08,73,299,57,10,56,076,58,16,27,182,49,1*65
$GPGSV,2,2,06,21,45,263,52,23,27,048,52,,,,,,,,,1*6F
$GPRMC,000048.00,A,4852.4673819,N,00217.5779807,E,1.28,0.00,180502,0.0,E,A*36
$GPGGA,000048.00,4852.4673819,N,00217.5779807,E,1,06,1.0,-2.688,M,0.000,M,0.0,*5A
$GPGSA,A,3,01,08,10,16,21,23,,,,,,,2.2,1.3,1.8,1*29
$GPGSV,2,1,06,01,15,255,50,08,73,299,57,10,56,076,55,16,27,182,49,1*68
$GPGSV,2,2,06,21,45,263,54,23,27,048,49,,,,,,,,,1*63
$GPRMC,000049.00,A,4852.4673326,N,00217.5791529,E,1.34,0.00,180502,0.0,E,A*3A
$GPGGA,000049.00,4852.4673326,N,00217.5791529,E,1,06,1.0,-5.443,M,0.000,M,0.0,*59
$GPGSA,A,3,01,08,10,16,21,23,,,,,,,2.2,1.3,1.8,1*29
$GPGSV,2,1,06,01,15,255,49,08,73,299,57,10,56,076,54,16,27,182,49,1*61
$GPGSV,2,2,06,21,45,263,51,23,27,048,50,,,,,,,,,1*6E
$GPRMC,000050.00,A,4852.4658736,N,00217.5810022,E,1.15,0.00,180502,0.0,E,A*35
$GPGGA,000050.00,4852.4658736,N,00217.5810022,E,1,06,1.0,-6.783,M,0.000,M,0.0,*59
$GPGSA,A,3,01,08,10,16,21,23,,,,,,,2.2,1.3,1.8,1*29
$GPGSV,2,1,06,01,15,255,49,08,73,299,56,10,56,076,55,16,27,182,51,1*68
$GPGSV,2,2,06,21,45,263,52,23,27,048,51,,,,,,,,,1*6C
$GPRMC,000051.00,A,4852.4672158,N,00217.5807687,E,1.18,0.00,180502,0.0,E,A*30
$GPGGA,000051.00,4852.4672158,N,00217.5807687,E,1,06,1.0,-9.614,M,0.000,M,0.0,*51
$GPGSA,A,3,01,08,10,16,21,23,,,,,,,2.2,1.3,1.8,1*29
$GPGSV,2,1,06,01,15,255,49,08,73,299,57,10,56,076,55,16,27,182,52,1*6A
$GPGSV,2,2,06,21,45,263,54,23,27,048,53,,,,,,,,,1*68
$GPRMC,000052.00,A,4852.4668063,N,00217.5797922,E,1.93,0.00,180502,0.0,E,A*34
$GPGGA,000052.00,4852.4668063,N,00217.5797922,E,1,06,1.0,-10.191,M,0.000,M,0.0,*64
$GPGSA,A,3,01,08,10,16,21,23,,,,,,,2.2,1.3,1.8,1*29
$GPGSV,2,1,06,01,15,255,48,08,73,299,56,10,56,076,56,16,27,182,49,1*63
$GPGSV,2,2,06,21,45,263,54,23,27,048,51,,,,,,,,,1*6A
$GPRMC,000053.00,A,4852.4657111,N,00217.5823583,E,1.39,0.00,180502,0.0,E,A*3A
$GPGGA,000053.00,4852.4657111,N,00217.5823583,E,1,07,1.0,-13.516,M,0.000,M,0.0,*63
$GPGSA,A,3,01,08,10,16,21,23,27,,,,,,2.0,1.2,1.6,1*21
$GPGSV,2,1,07,01,15,255,48,08,73,299,57,10,56,076,56,16,27,182,49,1*63
$GPGSV,2,2,07,21,45,263,52,23,27,048,49,27,70,121,57,,,,,1*56
$GPRMC,000054.00,A,4852.4662422,N,00217.5831128,E,0.39,0.00,180502,0.0,E,A*39
$GPGGA,000054.00,4852.4662422,N,00217.5831128,E,1,07,1.0,-15.612,M,0.000,M,0.0,*60
$GPGSA,A,3,01,08,10,16,21,23,27,,,,,,2.0,1.2,1.6,1*21
$GPGSV,2,1,07,01,15,255,49,08,73,299,57,10,56,076,55,16,27,182,50,1*69
$GPGSV,2,2,07,21,45,263,53,23,27,048,49,27,70,121,56,,,,,1*56
$GPRMC,000055.00,A,4852.4659741,N,00217.5814913,E,0.57,0.00,180502,0.0,E,A*39
$GPGGA,000055.00,4852.4659741,N,00217.5814913,E,1,07,1.0,-10.433,M,0.000,M,0.0,*6C
$GPGSA,A,3,01,08,10,16,21,23,27,,,,,,2.0,1.2,1.6,1*21
$GPGSV,2,1,07,01,15,255,49,08,73,299,59,10,56,076,58,16,27,182,51,1*6B
$GPGSV,2,2,07,21,45,263,52,23,27,048,50,27,70,121,56,,,,,1*5F
$GPRMC,000056.00,A,4852.4656947,N,00217.5816686,E,0.74,0.00,180502,0.0,E,A*3D
$GPGGA,000056.00,4852.4656947,N,00217.5816686,E,1,07,1.0,-7.621,M,0.000,M,0.0,*5E
$GPGSA,A,3,01,08,10,16,21,23,27,,,,,,2.0,1.2,1.6,1*21
$GPGSV,2,1,07,01,15,255,48,08,73,299,58,10,56,076,56,16,27,182,48,1*6D
$GPGSV,2,2,07,21,45,263,54,23,27,048,50,27,70,121,56,,,,,1*59
$GPRMC,000057.00,A,4852.4662082,N,00217.5815070,E,1.53,0.00,180502,0.0,E,A*33
$GPGGA,000057.00,4852.4662082,N,00217.5815070,E,1,07,1.0,-5.726,M,0.000,M,0.0,*50
$GPGSA,A,3,01,08,10,16,21,23,27,,,,,,2.0,1.2,1.6,1*21
$GPGSV,2,1,07,01,16,255,50,08,73,299,57,10,56,076,55,16,27,182,50,1*62
$GPGSV,2,2,07,21,45,263,53,23,27,048,50,27,70,121,56,,,,,1*5E
$GPRMC,000058.00,A,4852.4674215,N,00217.5810768,E,1.12,0.00,180502,0.0,E,A*39
$GPGGA,000058.00,4852.4674215,N,00217.5810768,E,1,07,1.0,-8.075,M,0.000,M,0.0,*53
$GPGSA,A,3,01,08,10,16,21,23,27,,,,,,2.0,1.2,1.6,1*21
$GPGSV,2,1,07,01,16,255,48,08,73,299,57,10,56,076,56,16,27,182,51,1*69
$GPGSV,2,2,07,21,45,263,52,23,27,048,50,27,70,121,57,,,,,1*5E
$GPRMC,000059.00,A,4852.4673844,N,00217.5792344,E,0.44,0.00,180502,0.0,E,A*3C
$GPGGA,000059.00,4852.4673844,N,00217.5792344,E,1,07,1.0,-3.126,M,0.000,M,0.0,*58
$GPGSA,A,3,01,08,10,16,21,23,27,,,,,,2.0,1.2,1.6,1*21
$GPGSV,2,1,07,01,16,255,50,08,73,299,57,10,56,076,57,16,26,182,52,1*63
$GPGSV,2,2,07,21,45,263,53,23,27,048,51,27,70,121,56,,,,,1*5F
$GPRMC,000100.00,A,4852.4666480,N,00217.5794568,E,0.70,0.00,180502,0.0,E,A*38
$GPGGA,000100.00,4852.4666480,N,00217.5794568,E,1,07,1.0,1.012,M,0.000,M,0.0,*72
$GPGSA,A,3,01,08,10,16,21,23,27,,,,,,2.0,1.2,1.6,1*21
$GPGSV,2,1,07,01,16,255,49,08,73,299,56,10,56,076,57,16,26,182,50,1*68
$GPGSV,2,2,07,21,45,263,53,23,27,048,50,27,70,121,57,,,,,1*5F
$GPRMC,000101.00,A,4852.4665295,N,00217.5818063,E,0.64,0.00,180502,0.0,E,A*38
$GPGGA,000101.00,4852.4665295,N,00217.5818063,E,1,07,1.0,-4.504,M,0.000,M,0.0,*5D
$GPGSA,A,3,01,08,10,16,21,23,27,,,,,,2.0,1.2,1.6,1*21
$GPGSV,2,1,07,01,16,255,48,08,73,299,55,10,56,076,55,16,26,182,50,1*68
$GPGSV,2,2,07,21,45,263,52,23,27,048,51,27,70,121,57,,,,,1*5F
$GPRMC,000102.00,A,4852.4661953,N,00217.5806211,E,0.36,0.00,180502,0.0,E,A*31
$GPGGA,000102.00,4852.4661953,N,00217.5806211,E,1,07,1.0,-7.984,M,0.000,M,0.0,*54
$GPGSA,A,3,01,08,10,16,21,23,27,,,,,,2.0,1.2,1.6,1*21
$GPGSV,2,1,07,01,16,255,49,08,73,299,56,10,56,076,55,16,26,182,49,1*62
$GPGSV,2,2,07,21,45,263,53,23,27,048,50,27,70,121,56,,,,,1*5E
$GPRMC,000103.00,A,4852.4674606,N,00217.5806953,E,1.30,0.00,180502,0.0,E,A*31
$GPGGA,000103.00,4852.4674606,N,00217.5806953,E,1,07,1.0,-10.230,M,0.000,M,0.0,*61
$GPGSA,A,3,01,08,10,16,21,23,27,,,,,,2.0,1.2,1.6,1*21
$GPGSV,2,1,07,01,16,255,48,08,73,299,56,10,56,076,56,16,26,182,50,1*68
$GPGSV,2,2,07,21,45,263,53,23,27,048,51,27,70,121,58,,,,,1*51
$GPRMC,000104.00,A,4852.4657577,N,00217.5820705,E,1.53,0.00,180502,0.0,E,A*3E
$GPGGA,000104.00,4852.4657577,N,00217.5820705,E,1,07,1.0,-7.139,M,0.000,M,0.0,*57
$GPGSA,A,3,01,08,10,16,21,23,27,,,,,,2.0,1.2,1.6,1*21
$GPGSV,2,1,07,01,16,255,47,08,73,299,58,10,56,076,56,16,26,182,50,1*69
$GPGSV,2,2,07,21,45,263,54,23,27,048,50,27,70,121,58,,,,,1*57
$GPRMC,000105.00,A,4852.4648767,N,00217.5837054,E,1.51,0.00,180502,0.0,E,A*35
$GPGGA,000105.00,4852.4648767,N,00217.5837054,E,1,07,1.0,-9.746,M,0.000,M,0.0,*5E
$GPGSA,A,3,01,08,10,16,21,23,27,,,,,,2.0,1.2,1.6,1*21
$GPGSV,2,1,07,01,16,255,48,08,73,299,58,10,56,076,56,16,26,182,50,1*66
$GPGSV,2,2,07,21,45,263,53,23,27,048,50,27,70,121,57,,,,,1*5F
$GPRMC,000106.00,A,4852.4665948,N,00217.5828413,E,0.92,0.00,180502,0.0,E,A*3D
$GPGGA,000106.00,4852.4665948,N,00217.5828413,E,1,07,1.0,-16.903,M,0.000,M,0.0,*69
$GPGSA,A,3,01,08,10,16,21,23,27,,,,,,2.0,1.2,1.6,1*21
$GPGSV,2,1,07,01,16,255,48,08,73,299,56,10,56,076,55,16,26,182,51,1*6A
$GPGSV,2,2,07,21,45,263,53,23,27,048,50,27,70,121,57,,,,,1*5F
$GPRMC,000107.00,A,4852.4664696,N,00217.5808028,E,0.85,0.00,180502,0.0,E,A*39
$GPGGA,000107.00,4852.4664696,N,00217.5808028,E,1,07,1.0,-12.261,M,0.000,M,0.0,*60
$GPGSA,A,3,01,08,10,16,21,23,27,,,,,,2.0,1.2,1.6,1*21
$GPGSV,2,1,07,01,16,255,47,08,73,299,56,10,56,076,54,16,26,182,50,1*65
$GPGSV,2,2,07,21,45,263,51,23,27,048,51,27,70,121,56,,,,,1*5D
$GPRMC,000108.00,A,4852.4638945,N,00217.5861233,E,9.78,114.42,180502,0.0,E,A*30
$GPGGA,000108.00,4852.4638945,N,00217.5861233,E,1,07,1.0,1.077,M,0.000,M,0.0,*7A
$GPGSA,A,3,01,08,10,16,21,23,27,,,,,,2.0,1.2,1.6,1*21
$GPGSV,2,1,07,01,16,255,41,08,73,299,58,10,56,076,53,16,26,182,52,1*68
$GPGSV,2,2,07,21,45,263,48,23,27,048,47,27,70,121,58,,,,,1*5C
$GPRMC,000109.00,A,4852.4615587,N,00217.5912469,E,20.96,109.38,180502,0.0,E,A*0A
$GPGGA,000109.00,4852.4615587,N,00217.5912469,E,1,07,1.0,5.283,M,0.000,M,0.0,*77
$GPGSA,A,3,01,08,10,16,21,23,27,,,,,,2.0,1.2,1.6,1*21
$GPGSV,2,1,07,01,16,255,43,08,73,299,58,10,56,076,50,16,26,182,48,1*62
$GPGSV,2,2,07,21,45,263,53,23,27,048,48,27,70,121,57,,,,,1*56
$GPRMC,000110.00,A,4852.4613248,N,00217.5987020,E,29.93,115.38,180502,0.0,E,A*04
$GPGGA,000110.00,4852.4613248,N,00217.5987020,E,1,07,1.0,-8.053,M,0.000,M,0.0,*57
$GPGSA,A,3,01,08,10,16,21,23,27,,,,,,2.0,1.2,1.6,1*21
$GPGSV,2,1,07,01,16,255,47,08,73,299,58,10,56,076,51,16,26,182,49,1*66
$GPGSV,2,2,07,21,45,263,51,23,27,048,48,27,70,121,54,,,,,1*57
$GPRMC,000111.00,A,4852.4572237,N,00217.6102177,E,31.79,113.68,180502,0.0,E,A*02
$GPGGA,000111.00,4852.4572237,N,00217.6102177,E,1,07,1.0,-8.822,M,0.000,M,0.0,*51
$GPGSA,A,3,01,08,10,16,21,23,27,,,,,,2.0,1.2,1.6,1*21
$GPGSV,2,1,07,01,16,255,46,08,73,299,54,10,56,076,53,16,26,182,50,1*61
$GPGSV,2,2,07,21,45,263,53,23,27,048,50,27,70,121,54,,,,,1*5C
$GPRMC,000112.00,A,4852.4545049,N,00217.6208318,E,26.34,104.86,180502,0.0,E,A*05
$GPGGA,000112.00,4852.4545049,N,00217.6208318,E,1,07,1.0,0.247,M,0.000,M,0.0,*73
$GPGSA,A,3,01,08,10,16,21,23,27,,,,,,2.0,1.2,1.6,1*21
$GPGSV,2,1,07,01,16,255,48,08,73,299,56,10,56,076,48,16,26,182,46,1*60
$GPGSV,2,2,07,21,45,263,51,23,27,048,47,27,70,121,53,,,,,1*5F
$GPRMC,000113.00,A,4852.4518108,N,00217.6318991,E,22.34,111.08,180502,0.0,E,A*05
$GPGGA,000113.00,4852.4518108,N,00217.6318991,E,1,07,1.0,-0.242,M,0.000,M,0.0,*5D
$GPGSA,A,3,01,08,10,16,21,23,27,,,,,,2.0,1.2,1.6,1*21
$GPGSV,2,1,07,01,16,255,41,08,73,299,47,10,56,076,46,16,26,182,39,1*6F
$GPGSV,2,2,07,21,45,263,42,23,27,048,50,27,70,121,44,,,,,1*5D
$GPRMC,000114.00,A,4852.4519069,N,00217.6388724,E,20.46,109.40,180502,0.0,E,A*0E
$GPGGA,000114.00,4852.4519069,N,00217.6388724,E,1,07,1.0,-9.499,M,0.000,M,0.0,*5D
$GPGSA,A,3,01,08,10,16,21,23,27,,,,,,2.0,1.2,1.6,1*21
$GPGSV,2,1,07,01,16,255,44,08,73,299,46,10,56,076,47,16,26,182,36,1*65
$GPGSV,2,2,07,21,45,263,49,23,27,048,44,27,70,121,45,,,,,1*52
$GPRMC,000115.00,A,4852.4523346,N,00217.6480619,E,21.60,87.56,180502,0.0,E,A*3D
$GPGGA,000115.00,4852.4523346,N,00217.6480619,E,1,07,1.0,-10.015,M,0.000,M,0.0,*63
$GPGSA,A,3,01,08,10,16,21,23,27,,,,,,2.0,1.2,1.6,1*21
$GPGSV,2,1,07,01,16,255,37,08,73,299,51,10,56,076,42,16,26,182,36,1*62
$GPGSV,2,2,07,21,45,263,41,23,27,048,37,27,70,121,52,,,,,1*58
$GPRMC,000116.00,A,4852.4508250,N,00217.6556297,E,17.41,63.03,180502,0.0,E,A*35
$GPGGA,000116.00,4852.4508250,N,00217.6556297,E,1,07,1.0,-8.421,M,0.000,M,0.0,*5D
$GPGSA,A,3,01,08,10,16,21,23,27,,,,,,2.0,1.2,1.6,1*21
$GPGSV,2,1,07,01,16,255,35,08,73,298,50,10,56,076,38,16,26,182,36,1*6D
$GPGSV,2,2,07,21,45,263,37,23,27,048,35,27,70,121,51,,,,,1*58
$GPRMC,000117.00,A,4852.4527648,N,00217.6571645,E,4.88,47.51,180502,0.0,E,A*0C
$GPGGA,000117.00,4852.4527648,N,00217.6571645,E,1,07,1.0,-9.733,M,0.000,M,0.0,*53
$GPGSA,A,3,01,08,10,16,21,23,27,,,,,,2.0,1.2,1.6,1*21
$GPGSV,2,1,07,01,16,255,35,08,73,298,49,10,56,076,39,16,26,182,35,1*67
$GPGSV,2,2,07,21,45,263,39,23,27,048,35,27,70,121,48,,,,,1*5E
$GPRMC,000118.00,A,4852.4545626,N,00217.6609233,E,15.18,21.97,180502,0.0,E,A*35
$GPGGA,000118.00,4852.4545626,N,00217.6609233,E,1,07,1.0,-8.721,M,0.000,M,0.0,*5B
$GPGSA,A,3,01,08,10,16,21,23,27,,,,,,2.0,1.2,1.6,1*21
$GPGSV,2,1,07,01,16,255,35,08,73,298,45,10,56,076,36,16,26,182,35,1*64
$GPGSV,2,2,07,21,45,263,37,23,27,048,35,27,70,121,43,,,,,1*5B
$GPRMC,000119.00,A,4852.4568884,N,00217.6676331,E,23.02,6.53,180502,0.0,E,A*05
$GPGGA,000119.00,4852.4568884,N,00217.6676331,E,1,07,1.0,-12.693,M,0.000,M,0.0,*6B
$GPGSA,A,3,01,08,10,16,21,23,27,,,,,,2.0,1.2,1.6,1*21
$GPGSV,2,1,07,01,16,255,35,08,74,298,41,10,56,076,37,16,26,182,35,1*66
$GPGSV,2,2,07,21,45,263,39,23,27,048,35,27,70,121,39,,,,,1*58
$GPRMC,000120.00,A,4852.4583543,N,00217.6640359,E,8.54,0.51,180502,0.0,E,A*39
$GPGGA,000120.00,4852.4583543,N,00217.6640359,E,1,06,1.0,-2.267,M,0.000,M,0.0,*56
$GPGSA,A,3,01,08,10,16,21,27,,,,,,,3.5,2.0,2.8,1*28
$GPGSV,2,1,06,01,16,255,40,08,74,298,40,10,56,076,44,16,26,182,36,1*63
$GPGSV,2,2,06,21,45,263,48,27,70,121,38,,,,,,,,,1*60
$GPRMC,000121.00,A,4852.4564944,N,00217.6686097,E,12.93,329.21,180502,0.0,E,A*0E
$GPGGA,000121.00,4852.4564944,N,00217.6686097,E,1,05,1.0,-9.518,M,0.000,M,0.0,*59
$GPGSA,A,3,01,08,10,21,27,,,,,,,,4.8,3.8,2.8,1*2C
$GPGSV,2,1,05,01,16,255,43,08,74,298,38,10,56,076,47,21,45,263,42,1*61
$GPGSV,2,2,05,27,70,121,37,,,,,,,,,,,,,1*55
$GPRMC,000122.00,A,4852.4692459,N,00217.6628347,E,32.44,332.62,180502,0.0,E,A*09
$GPGGA,000122.00,4852.4692459,N,00217.6628347,E,1,05,1.0,-17.358,M,0.000,M,0.0,*66
$GPGSA,A,3,01,08,10,21,27,,,,,,,,4.8,3.8,2.8,1*2C
$GPGSV,2,1,05,01,16,255,38,08,74,298,36,10,56,076,41,21,45,263,36,1*66
$GPGSV,2,2,05,27,70,121,36,,,,,,,,,,,,,1*54
$GPRMC,000123.00,A,4852.4797115,N,00217.6575606,E,29.28,319.18,180502,0.0,E,A*0E
$GPGGA,000123.00,4852.4797115,N,00217.6575606,E,1,05,1.0,-15.800,M,0.000,M,0.0,*61
$GPGSA,A,3,01,08,10,21,27,,,,,,,,4.8,3.8,2.8,1*2C
$GPGSV,2,1,05,01,16,255,35,08,74,298,35,10,56,076,36,21,45,263,35,1*6B
$GPGSV,2,2,05,27,70,121,35,,,,,,,,,,,,,1*57
$GPRMC,000124.00,A,4852.4887752,N,00217.6481892,E,31.08,326.95,180502,0.0,E,A*09
$GPGGA,000124.00,4852.4887752,N,00217.6481892,E,1,05,1.0,-10.312,M,0.000,M,0.0,*69
$GPGSA,A,3,01,08,10,21,27,,,,,,,,4.8,3.8,2.8,1*2C
$GPGSV,2,1,05,01,16,255,34,08,74,298,35,10,56,076,35,21,45,263,34,1*68
$GPGSV,2,2,05,27,70,121,35,,,,,,,,,,,,,1*57
$GPRMC,000125.00,A,4852.4857660,N,00217.6411251,E,96.36,344.42,180502,0.0,E,A*07
$GPGGA,000125.00,4852.4857660,N,00217.6411251,E,1,04,1.0,11.535,M,0.000,M,0.0,*47
$GPGSA,A,3,01,08,10,21,,,,,,,,,24.6,22.5,9.9,1*21
$GPGSV,1,1,04,01,16,255,34,08,74,298,35,10,56,076,35,21,45,263,34,1*6A
$GPRMC,000148.00,A,4852.6501538,N,00217.5756804,E,31.42,52.32,180502,0.0,E,A*3A
$GPGGA,000148.00,4852.6501538,N,00217.5756804,E,1,06,1.0,-7.245,M,0.000,M,0.0,*5F
$GPGSA,A,3,01,08,16,21,23,27,,,,,,,2.1,1.3,1.6,1*20
$GPGSV,2,1,06,01,16,255,37,08,74,298,44,16,26,182,48,21,45,263,38,1*63
$GPGSV,2,2,06,23,27,048,38,27,70,121,46,,,,,,,,,1*63
$GPRMC,000149.00,A,4852.6552911,N,00217.5872966,E,33.24,52.03,180502,0.0,E,A*36
$GPGGA,000149.00,4852.6552911,N,00217.5872966,E,1,06,1.0,-6.399,M,0.000,M,0.0,*52
$GPGSA,A,3,01,08,16,21,23,27,,,,,,,2.1,1.3,1.6,1*20
$GPGSV,2,1,06,01,16,255,36,08,74,298,43,16,26,182,49,21,45,263,38,1*64
$GPGSV,2,2,06,23,27,048,40,27,70,121,44,,,,,,,,,1*6E
$GPRMC,000150.00,A,4852.6624440,N,00217.5968396,E,33.49,44.25,180502,0.0,E,A*32
$GPGGA,000150.00,4852.6624440,N,00217.5968396,E,1,06,1.0,-5.917,M,0.000,M,0.0,*51
$GPGSA,A,3,01,08,16,21,23,27,,,,,,,2.1,1.3,1.6,1*20
$GPGSV,2,1,06,01,16,255,36,08,74,298,42,16,26,182,49,21,45,263,37,1*6A
$GPGSV,2,2,06,23,27,048,41,27,70,121,44,,,,,,,,,1*6F
$GPRMC,000151.00,A,4852.6677444,N,00217.6070017,E,32.43,40.47,180502,0.0,E,A*33
$GPGGA,000151.00,4852.6677444,N,00217.6070017,E,1,06,1.0,-6.144,M,0.000,M,0.0,*56
$GPGSA,A,3,01,08,16,21,23,27,,,,,,,2.1,1.3,1.6,1*20
$GPGSV,2,1,06,01,16,255,35,08,74,298,42,16,26,182,48,21,45,263,36,1*69
$GPGSV,2,2,06,23,27,048,44,27,70,121,43,,,,,,,,,1*6D
$GPRMC,000152.00,A,4852.6756477,N,00217.6146765,E,30.94,42.36,180502,0.0,E,A*38
$GPGGA,000152.00,4852.6756477,N,00217.6146765,E,1,06,1.0,-6.305,M,0.000,M,0.0,*56
$GPGSA,A,3,01,08,16,21,23,27,,,,,,,2.1,1.3,1.6,1*20
$GPGSV,2,1,06,01,16,255,34,08,74,298,40,16,26,182,48,21,45,263,36,1*6A
$GPGSV,2,2,06,23,27,048,46,27,70,121,42,,,,,,,,,1*6E
$GPRMC,000153.00,A,4852.6825375,N,00217.6233576,E,33.49,46.66,180502,0.0,E,A*34
$GPGGA,000153.00,4852.6825375,N,00217.6233576,E,1,06,1.0,-6.073,M,0.000,M,0.0,*5A
$GPGSA,A,3,01,08,16,21,23,27,,,,,,,2.1,1.3,1.6,1*20
$GPGSV,2,1,06,01,16,255,35,08,74,298,40,16,26,182,48,21,45,263,35,1*68
$GPGSV,2,2,06,23,27,048,47,27,70,121,41,,,,,,,,,1*6C
$GPRMC,000154.00,A,4852.6896101,N,00217.6314221,E,31.54,39.77,180502,0.0,E,A*3D
$GPGGA,000154.00,4852.6896101,N,00217.6314221,E,1,05,1.0,-6.139,M,0.000,M,0.0,*59
$GPGSA,A,3,08,16,21,23,27,,,,,,,,2.6,1.5,2.2,1*27
$GPGSV,2,1,05,08,74,298,39,16,26,182,47,21,45,263,35,23,27,048,47,1*63
$GPGSV,2,2,05,27,70,121,40,,,,,,,,,,,,,1*55
$GPRMC,000155.00,A,4852.6939400,N,00217.6415114,E,30.52,35.55,180502,0.0,E,A*34
$GPGGA,000155.00,4852.6939400,N,00217.6415114,E,1,05,1.0,1.371,M,0.000,M,0.0,*7F
$GPGSA,A,3,08,16,21,23,27,,,,,,,,2.6,1.5,2.2,1*27
$GPGSV,2,1,05,08,74,298,39,16,26,182,46,21,45,263,35,23,27,048,45,1*60
$GPGSV,2,2,05,27,70,121,40,,,,,,,,,,,,,1*55
$GPRMC,000156.00,A,4852.6993718,N,00217.6519788,E,22.88,47.10,180502,0.0,E,A*33
$GPGGA,000156.00,4852.6993718,N,00217.6519788,E,1,05,1.0,2.456,M,0.000,M,0.0,*79
$GPGSA,A,3,08,16,21,23,27,,,,,,,,2.6,1.5,2.2,1*27
$GPGSV,2,1,05,08,74,298,39,16,26,182,46,21,45,263,35,23,27,048,49,1*6C
$GPGSV,2,2,05,27,70,121,40,,,,,,,,,,,,,1*55
$GPRMC,000157.00,A,4852.7023370,N,00217.6555138,E,13.37,22.47,180502,0.0,E,A*39
$GPGGA,000157.00,4852.7023370,N,00217.6555138,E,1,04,1.0,-2.331,M,0.000,M,0.0,*5E
$GPGSA,A,3,08,16,23,27,,,,,,,,,3.5,2.5,2.5,1*22
$GPGSV,1,1,04,08,74,298,40,16,26,182,46,23,27,048,48,27,70,121,40,1*66
$GPRMC,000158.00,A,4852.7079431,N,00217.6521630,E,19.22,9.63,180502,0.0,E,A*06
$GPGGA,000158.00,4852.7079431,N,00217.6521630,E,1,04,1.0,-8.657,M,0.000,M,0.0,*5F
$GPGSA,A,3,08,16,23,27,,,,,,,,,3.5,2.5,2.5,1*22
$GPGSV,1,1,04,08,74,298,40,16,26,182,46,23,27,048,48,27,70,121,40,1*66
$GPRMC,000159.00,A,4852.7161494,N,00217.6531734,E,26.20,3.21,180502,0.0,E,A*06
$GPGGA,000159.00,4852.7161494,N,00217.6531734,E,1,04,1.0,-8.058,M,0.000,M,0.0,*54
$GPGSA,A,3,08,16,23,27,,,,,,,,,3.5,2.5,2.5,1*22
$GPGSV,1,1,04,08,74,298,41,16,26,182,48,23,27,048,48,27,70,121,42,1*6B
$GPRMC,000200.00,A,4852.7196128,N,00217.6642195,E,25.13,6.56,180502,0.0,E,A*0F
$GPGGA,000200.00,4852.7196128,N,00217.6642195,E,1,04,1.0,-5.386,M,0.000,M,0.0,*56
$GPGSA,A,3,08,16,23,27,,,,,,,,,3.5,2.5,2.5,1*22
$GPGSV,1,1,04,08,74,298,42,16,26,182,47,23,27,048,49,27,70,121,42,1*66
$GPRMC,000201.00,A,4852.7266082,N,00217.6633758,E,20.69,15.21,180502,0.0,E,A*38
$GPGGA,000201.00,4852.7266082,N,00217.6633758,E,1,04,1.0,-0.921,M,0.000,M,0.0,*59
$GPGSA,A,3,08,16,23,27,,,,,,,,,3.5,2.5,2.5,1*22
$GPGSV,1,1,04,08,74,298,43,16,26,182,49,23,27,048,48,27,70,121,43,1*69
$GPRMC,000202.00,A,4852.7316757,N,00217.6677571,E,28.08,24.78,180502,0.0,E,A*3A
$GPGGA,000202.00,4852.7316757,N,00217.6677571,E,1,04,1.0,-2.421,M,0.000,M,0.0,*55
$GPGSA,A,3,08,16,23,27,,,,,,,,,3.5,2.5,2.5,1*22
$GPGSV,1,1,04,08,74,298,42,16,26,182,49,23,27,048,48,27,70,121,43,1*68
$GPRMC,000203.00,A,4852.7401338,N,00217.6752713,E,32.96,16.59,180502,0.0,E,A*39
$GPGGA,000203.00,4852.7401338,N,00217.6752713,E,1,04,1.0,-0.505,M,0.000,M,0.0,*5D
$GPGSA,A,3,08,16,23,27,,,,,,,,,3.5,2.5,2.5,1*22
$GPGSV,1,1,04,08,74,298,42,16,26,182,48,23,27,048,47,27,70,121,43,1*66
$GPRMC,000204.00,A,4852.7484778,N,00217.6799414,E,32.94,27.11,180502,0.0,E,A*3C
$GPGGA,000204.00,4852.7484778,N,00217.6799414,E,1,04,1.0,-6.340,M,0.000,M,0.0,*55
$GPGSA,A,3,08,16,23,27,,,,,,,,,3.5,2.5,2.5,1*22
$GPGSV,1,1,04,08,74,298,42,16,26,182,48,23,27,048,48,27,70,121,43,1*69
$GPRMC,000205.00,A,4852.7531157,N,00217.6968513,E,31.94,19.55,180502,0.0,E,A*31
$GPGGA,000205.00,4852.7531157,N,00217.6968513,E,1,04,1.0,9.658,M,0.000,M,0.0,*78
$GPGSA,A,3,08,16,23,27,,,,,,,,,3.5,2.5,2.5,1*22
$GPGSV,1,1,04,08,74,298,42,16,26,182,48,23,27,048,50,27,70,121,42,1*61
$GPRMC,000206.00,A,4852.7622337,N,00217.6968589,E,32.29,21.16,180502,0.0,E,A*3D
$GPGGA,000206.00,4852.7622337,N,00217.6968589,E,1,04,1.0,6.857,M,0.000,M,0.0,*73
$GPGSA,A,3,08,16,23,27,,,,,,,,,3.5,2.5,2.5,1*22
$GPGSV,1,1,04,08,74,298,40,16,26,182,48,23,27,047,50,27,69,121,40,1*66
$GPRMC,000207.00,A,4852.7720295,N,00217.6980145,E,32.90,20.49,180502,0.0,E,A*3D
$GPGGA,000207.00,4852.7720295,N,00217.6980145,E,1,04,1.0,1.600,M,0.000,M,0.0,*71
$GPGSA,A,3,08,16,23,27,,,,,,,,,3.5,2.5,2.5,1*22
$GPGSV,1,1,04,08,74,298,41,16,26,182,48,23,27,047,50,27,69,121,40,1*67
$GPRMC,000208.00,A,4852.7829703,N,00217.6981508,E,33.43,15.48,180502,0.0,E,A*3A
$GPGGA,000208.00,4852.7829703,N,00217.6981508,E,1,04,1.0,-0.086,M,0.000,M,0.0,*5A
$GPGSA,A,3,08,16,23,27,,,,,,,,,3.5,2.5,2.5,1*22
$GPGSV,1,1,04,08,74,298,41,16,26,182,48,23,27,047,48,27,69,121,41,1*6F
$GPRMC,000209.00,A,4852.7908375,N,00217.7050341,E,31.84,9.89,180502,0.0,E,A*0A
$GPGGA,000209.00,4852.7908375,N,00217.7050341,E,1,04,1.0,3.415,M,0.000,M,0.0,*73
$GPGSA,A,3,08,16,23,27,,,,,,,,,3.5,2.5,2.5,1*22
$GPGSV,1,1,04,08,74,298,42,16,26,182,48,23,27,047,47,27,69,121,42,1*60
$GPRMC,000210.00,A,4852.7998085,N,00217.7004827,E,31.98,20.56,180502,0.0,E,A*39
$GPGGA,000210.00,4852.7998085,N,00217.7004827,E,1,04,1.0,-0.981,M,0.000,M,0.0,*5A
$GPGSA,A,3,08,16,23,27,,,,,,,,,3.5,2.5,2.5,1*22
$GPGSV,1,1,04,08,74,298,42,16,26,182,48,23,27,047,49,27,69,121,42,1*6E
$GPRMC,000211.00,A,4852.8065098,N,00217.7085251,E,32.15,21.35,180502,0.0,E,A*30
$GPGGA,000211.00,4852.8065098,N,00217.7085251,E,1,04,1.0,5.362,M,0.000,M,0.0,*7E
$GPGSA,A,3,08,16,23,27,,,,,,,,,3.5,2.5,2.5,1*22
$GPGSV,1,1,04,08,74,298,43,16,26,182,46,23,27,047,49,27,69,121,42,1*61
$GPRMC,000212.00,A,4852.8202451,N,00217.7023388,E,31.83,18.97,180502,0.0,E,A*36
$GPGGA,000212.00,4852.8202451,N,00217.7023388,E,1,05,1.0,-3.520,M,0.000,M,0.0,*5C
$GPGSA,A,3,01,08,16,23,27,,,,,,,,2.2,1.4,1.7,1*26
$GPGSV,2,1,05,01,16,255,46,08,74,298,44,16,26,182,49,23,27,047,49,1*63
$GPGSV,2,2,05,27,69,121,44,,,,,,,,,,,,,1*59
$GPRMC,000213.00,A,4852.8280680,N,00217.7070994,E,33.23,15.57,180502,0.0,E,A*3B
$GPGGA,000213.00,4852.8280680,N,00217.7070994,E,1,05,1.0,-1.096,M,0.000,M,0.0,*52
$GPGSA,A,3,01,08,16,23,27,,,,,,,,2.2,1.4,1.7,1*26
$GPGSV,2,1,05,01,16,255,46,08,74,298,46,16,26,182,49,23,27,047,48,1*60
$GPGSV,2,2,05,27,69,121,46,,,,,,,,,,,,,1*5B
$GPRMC,000214.00,A,4852.8368591,N,00217.7106612,E,32.35,20.09,180502,0.0,E,A*32
$GPGGA,000214.00,4852.8368591,N,00217.7106612,E,1,05,1.0,25.982,M,0.000,M,0.0,*47
$GPGSA,A,3,01,08,16,23,27,,,,,,,,2.2,1.4,1.7,1*26
$GPGSV,2,1,05,01,16,255,45,08,74,298,49,16,26,182,48,23,27,047,47,1*62
$GPGSV,2,2,05,27,69,121,49,,,,,,,,,,,,,1*54
$GPRMC,000216.00,A,4852.8516170,N,00217.7252533,E,27.87,17.36,180502,0.0,E,A*33
$GPGGA,000216.00,4852.8516170,N,00217.7252533,E,1,05,1.0,-20.397,M,0.000,M,0.0,*65
$GPGSA,A,3,01,08,16,23,27,,,,,,,,2.2,1.4,1.7,1*26
$GPGSV,2,1,05,01,16,255,46,08,74,298,54,16,26,182,48,23,27,047,48,1*62
$GPGSV,2,2,05,27,69,121,52,,,,,,,,,,,,,1*5E
$GPRMC,000221.00,A,4852.8717715,N,00217.7304281,E,11.61,44.78,180502,0.0,E,A*3C
$GPGGA,000221.00,4852.8717715,N,00217.7304281,E,1,06,1.0,-40.488,M,0.000,M,0.0,*67
$GPGSA,A,3,01,08,16,21,23,27,,,,,,,2.1,1.3,1.6,1*20
$GPGSV,2,1,06,01,16,255,48,08,74,298,53,16,26,182,48,21,45,263,45,1*67
$GPGSV,2,2,06,23,27,047,47,27,69,121,52,,,,,,,,,1*69
$GPRMC,000222.00,A,4852.8697805,N,00217.7377237,E,4.97,93.27,180502,0.0,E,A*0C
$GPGGA,000222.00,4852.8697805,N,00217.7377237,E,1,06,1.0,15.676,M,0.000,M,0.0,*44
$GPGSA,A,3,01,08,16,21,23,27,,,,,,,2.1,1.3,1.6,1*20
$GPGSV,2,1,06,01,16,255,47,08,74,298,50,16,26,182,48,21,45,263,48,1*66
$GPGSV,2,2,06,23,27,047,50,27,69,121,51,,,,,,,,,1*6C
$GPRMC,000223.00,A,4852.8685572,N,00217.7402634,E,13.29,123.59,180502,0.0,E,A*01
$GPGGA,000223.00,4852.8685572,N,00217.7402634,E,1,06,1.0,4.114,M,0.000,M,0.0,*7A
$GPGSA,A,3,01,08,16,21,23,27,,,,,,,2.1,1.3,1.6,1*20
$GPGSV,2,1,06,01,16,255,46,08,74,298,47,16,26,182,48,21,45,263,47,1*6E
$GPGSV,2,2,06,23,27,047,50,27,69,121,46,,,,,,,,,1*6A
$GPRMC,000224.00,A,4852.8666165,N,00217.7452464,E,22.15,138.98,180502,0.0,E,A*01
$GPGGA,000224.00,4852.8666165,N,00217.7452464,E,1,06,1.0,-9.732,M,0.000,M,0.0,*52
$GPGSA,A,3,01,08,16,21,23,27,,,,,,,2.1,1.3,1.6,1*20
$GPGSV,2,1,06,01,16,255,50,08,74,298,55,16,26,182,50,21,45,263,53,1*66
$GPGSV,2,2,06,23,27,047,50,27,69,121,52,,,,,,,,,1*6F
$GPRMC,000225.00,A,4852.8601185,N,00217.7514029,E,32.33,140.77,180502,0.0,E,A*0A
$GPGGA,000225.00,4852.8601185,N,00217.7514029,E,1,06,1.0,-11.442,M,0.000,M,0.0,*6F
$GPGSA,A,3,01,08,16,21,23,27,,,,,,,2.1,1.3,1.6,1*20
$GPGSV,2,1,06,01,16,255,48,08,74,298,56,16,26,182,50,21,45,263,52,1*6D
$GPGSV,2,2,06,23,27,047,51,27,69,121,56,,,,,,,,,1*6A
$GPRMC,000226.00,A,4852.8524690,N,00217.7621000,E,32.59,141.34,180502,0.0,E,A*0A
$GPGGA,000226.00,4852.8524690,N,00217.7621000,E,1,06,1.0,-7.013,M,0.000,M,0.0,*52
$GPGSA,A,3,01,08,16,21,23,27,,,,,,,2.1,1.3,1.6,1*20
$GPGSV,2,1,06,01,16,255,48,08,74,298,56,16,26,182,52,21,45,263,52,1*6F
$GPGSV,2,2,06,23,27,047,49,27,69,121,58,,,,,,,,,1*6D
$GPRMC,000227.00,A,4852.8449294,N,00217.7711917,E,33.35,144.50,180502,0.0,E,A*00
$GPGGA,000227.00,4852.8449294,N,00217.7711917,E,1,06,1.0,-5.532,M,0.000,M,0.0,*50
$GPGSA,A,3,01,08,16,21,23,27,,,,,,,2.1,1.3,1.6,1*20
$GPGSV,2,1,06,01,16,255,50,08,74,298,55,16,26,182,48,21,45,263,53,1*6F
$GPGSV,2,2,06,23,27,047,50,27,69,121,57,,,,,,,,,1*6A
$GPRMC,000228.00,A,4852.8387246,N,00217.7758500,E,33.15,146.96,180502,0.0,E,A*08
$GPGGA,000228.00,4852.8387246,N,00217.7758500,E,1,06,1.0,-10.087,M,0.000,M,0.0,*6D
$GPGSA,A,3,01,08,16,21,23,27,,,,,,,2.1,1.3,1.6,1*20
$GPGSV,2,1,06,01,16,255,48,08,74,298,53,16,26,182,50,21,45,263,52,1*68
$GPGSV,2,2,06,23,27,047,50,27,69,121,56,,,,,,,,,1*6B
$GPRMC,000229.00,A,4852.8324738,N,00217.7817130,E,31.69,143.76,180502,0.0,E,A*0D
$GPGGA,000229.00,4852.8324738,N,00217.7817130,E,1,06,1.0,-12.393,M,0.000,M,0.0,*6E
$GPGSA,A,3,01,08,16,21,23,27,,,,,,,2.1,1.3,1.6,1*20
$GPGSV,2,1,06,01,16,255,49,08,74,298,55,16,26,182,50,21,45,263,54,1*69
$GPGSV,2,2,06,23,27,047,49,27,69,121,57,,,,,,,,,1*62
$GPRMC,000230.00,A,4852.8238752,N,00217.7934948,E,31.70,140.13,180502,0.0,E,A*0A
$GPGGA,000230.00,4852.8238752,N,00217.7934948,E,1,07,1.0,-9.244,M,0.000,M,0.0,*51
$GPGSA,A,3,01,08,10,16,21,23,27,,,,,,2.0,1.2,1.6,1*21
$GPGSV,2,1,07,01,16,255,47,08,74,298,55,10,55,075,54,16,26,182,50,1*60
$GPGSV,2,2,07,21,45,263,51,23,27,047,51,27,69,121,57,,,,,1*5B
$GPRMC,000231.00,A,4852.8161501,N,00217.8033653,E,33.61,140.71,180502,0.0,E,A*02
$GPGGA,000231.00,4852.8161501,N,00217.8033653,E,1,07,1.0,-4.921,M,0.000,M,0.0,*5A
$GPGSA,A,3,01,08,10,16,21,23,27,,,,,,2.0,1.2,1.6,1*21
$GPGSV,2,1,07,01,16,255,46,08,74,298,57,10,55,075,54,16,26,182,51,1*62
$GPGSV,2,2,07,21,45,263,51,23,27,047,51,27,69,121,56,,,,,1*5A
$GPRMC,000232.00,A,4852.8099896,N,00217.8121128,E,31.80,140.49,180502,0.0,E,A*0B
$GPGGA,000232.00,4852.8099896,N,00217.8121128,E,1,07,1.0,-9.454,M,0.000,M,0.0,*57
$GPGSA,A,3,01,08,10,16,21,23,27,,,,,,2.0,1.2,1.6,1*21
$GPGSV,2,1,07,01,16,255,47,08,74,298,59,10,55,075,54,16,26,182,50,1*6C
$GPGSV,2,2,07,21,45,263,52,23,27,047,50,27,69,121,57,,,,,1*59
$GPRMC,000233.00,A,4852.8045152,N,00217.8200688,E,32.06,138.72,180502,0.0,E,A*0D
$GPGGA,000233.00,4852.8045152,N,00217.8200688,E,1,07,1.0,-14.018,M,0.000,M,0.0,*6B
$GPGSA,A,3,01,08,10,16,21,23,27,,,,,,2.0,1.2,1.6,1*21
$GPGSV,2,1,07,01,16,255,49,08,74,298,55,10,55,075,54,16,26,182,49,1*66
$GPGSV,2,2,07,21,45,263,51,23,27,047,50,27,69,121,56,,,,,1*5B
$GPRMC,000234.00,A,4852.7973422,N,00217.8276344,E,32.13,138.90,180502,0.0,E,A*07
$GPGGA,000234.00,4852.7973422,N,00217.8276344,E,1,07,1.0,-9.331,M,0.000,M,0.0,*5D
$GPGSA,A,3,01,08,10,16,21,23,27,,,,,,2.0,1.2,1.6,1*21
$GPGSV,2,1,07,01,16,255,48,08,74,298,55,10,55,075,54,16,26,182,50,1*6F
$GPGSV,2,2,07,21,45,263,53,23,27,047,50,27,69,121,55,,,,,1*5A
$GPRMC,000235.00,A,4852.7891687,N,00217.8373644,E,32.57,138.63,180502,0.0,E,A*0B
$GPGGA,000235.00,4852.7891687,N,00217.8373644,E,1,07,1.0,-6.931,M,0.000,M,0.0,*58
$GPGSA,A,3,01,08,10,16,21,23,27,,,,,,2.0,1.2,1.6,1*21
$GPGSV,2,1,07,01,16,255,49,08,74,298,56,10,55,075,52,16,26,182,51,1*6A
$GPGSV,2,2,07,21,45,263,52,23,27,047,50,27,69,121,52,,,,,1*5C
$GPRMC,000236.00,A,4852.7829117,N,00217.8468802,E,32.61,137.05,180502,0.0,E,A*0E
$GPGGA,000236.00,4852.7829117,N,00217.8468802,E,1,07,1.0,-7.164,M,0.000,M,0.0,*5E
$GPGSA,A,3,01,08,10,16,21,23,27,,,,,,2.0,1.2,1.6,1*21
$GPGSV,2,1,07,01,16,255,48,08,74,298,55,10,55,075,53,16,26,182,51,1*69
$GPGSV,2,2,07,21,45,263,53,23,27,047,51,27,69,122,54,,,,,1*59
$GPRMC,000237.00,A,4852.7767847,N,00217.8553948,E,27.04,133.52,180502,0.0,E,A*01
$GPGGA,000237.00,4852.7767847,N,00217.8553948,E,1,07,1.0,-10.304,M,0.000,M,0.0,*62
$GPGSA,A,3,01,08,10,16,21,23,27,,,,,,2.0,1.2,1.6,1*21
$GPGSV,2,1,07,01,16,255,48,08,74,298,56,10,55,075,53,16,26,182,49,1*63
$GPGSV,2,2,07,21,45,263,54,23,27,047,50,27,69,122,56,,,,,1*5D
$GPRMC,000238.00,A,4852.7734882,N,00217.8626931,E,18.05,125.95,180502,0.0,E,A*0F
$GPGGA,000238.00,4852.7734882,N,00217.8626931,E,1,07,1.0,-13.509,M,0.000,M,0.0,*65
$GPGSA,A,3,01,08,10,16,21,23,27,,,,,,2.0,1.2,1.6,1*21
$GPGSV,2,1,07,01,16,255,49,08,74,298,56,10,55,075,54,16,26,182,50,1*6D
$GPGSV,2,2,07,21,45,263,54,23,27,047,50,27,69,122,56,,,,,1*5D
$GPRMC,000239.00,A,4852.7719804,N,00217.8664112,E,7.94,96.07,180502,0.0,E,A*04
$GPGGA,000239.00,4852.7719804,N,00217.8664112,E,1,07,1.0,-9.067,M,0.000,M,0.0,*5C
$GPGSA,A,3,01,08,10,16,21,23,27,,,,,,2.0,1.2,1.6,1*21
$GPGSV,2,1,07,01,16,255,49,08,74,298,58,10,55,075,56,16,26,182,49,1*69
$GPGSV,2,2,07,21,45,263,53,23,27,047,50,27,69,122,56,,,,,1*5A
$GPRMC,000240.00,A,4852.7714988,N,00217.8700380,E,10.90,71.25,180502,0.0,E,A*33
$GPGGA,000240.00,4852.7714988,N,00217.8700380,E,1,07,1.0,-7.718,M,0.000,M,0.0,*51
$GPGSA,A,3,01,08,10,16,21,23,27,,,,,,2.0,1.2,1.6,1*21
$GPGSV,2,1,07,01,16,255,50,08,74,298,58,10,55,075,56,16,26,182,51,1*68
$GPGSV,2,2,07,21,45,263,53,23,27,047,50,27,69,122,58,,,,,1*54
$GPRMC,000241.00,A,4852.7736129,N,00217.8772007,E,20.62,55.00,180502,0.0,E,A*37
$GPGGA,000241.00,4852.7736129,N,00217.8772007,E,1,07,1.0,-8.498,M,0.000,M,0.0,*5E
$GPGSA,A,3,01,08,10,16,21,23,27,,,,,,2.0,1.2,1.6,1*21
$GPGSV,2,1,07,01,16,255,49,08,74,298,54,10,55,075,52,16,26,182,52,1*6B
$GPGSV,2,2,07,21,45,263,53,23,27,047,50,27,69,122,56,,,,,1*5A
$GPRMC,000242.00,A,4852.7785372,N,00217.8865123,E,30.06,51.45,180502,0.0,E,A*38
$GPGGA,000242.00,4852.7785372,N,00217.8865123,E,1,07,1.0,-10.620,M,0.000,M,0.0,*6F
$GPGSA,A,3,01,08,10,16,21,23,27,,,,,,2.0,1.2,1.6,1*21
$GPGSV,2,1,07,01,16,255,50,08,74,298,54,10,55,075,52,16,26,182,50,1*61
$GPGSV,2,2,07,21,45,263,53,23,27,047,50,27,69,122,58,,,,,1*54
$GPRMC,000243.00,A,4852.7844527,N,00217.8975316,E,32.70,51.28,180502,0.0,E,A*31
$GPGGA,000243.00,4852.7844527,N,00217.8975316,E,1,07,1.0,-13.744,M,0.000,M,0.0,*6E
$GPGSA,A,3,01,08,10,16,21,23,27,,,,,,2.0,1.2,1.6,1*21
$GPGSV,2,1,07,01,16,255,48,08,74,298,56,10,55,075,52,16,26,182,51,1*6B
$GPGSV,2,2,07,21,45,263,54,23,27,047,49,27,69,122,58,,,,,1*5B
$GPRMC,000244.00,A,4852.7888798,N,00217.9077799,E,32.46,52.22,180502,0.0,E,A*35
$GPGGA,000244.00,4852.7888798,N,00217.9077799,E,1,07,1.0,-11.335,M,0.000,M,0.0,*66
$GPGSA,A,3,01,08,10,16,21,23,27,,,,,,2.0,1.2,1.6,1*21
$GPGSV,2,1,07,01,16,255,50,08,74,298,56,10,55,075,52,16,26,182,48,1*6A
$GPGSV,2,2,07,21,45,263,55,23,27,047,50,27,69,122,54,,,,,1*5E
$GPRMC,000245.00,A,4852.7946488,N,00217.9185813,E,30.60,54.16,180502,0.0,E,A*33
$GPGGA,000245.00,4852.7946488,N,00217.9185813,E,1,07,1.0,-10.564,M,0.000,M,0.0,*64
$GPGSA,A,3,01,08,10,16,21,23,27,,,,,,2.0,1.2,1.6,1*21
$GPGSV,2,1,07,01,16,255,48,08,74,298,56,10,55,075,54,16,26,182,49,1*64
$GPGSV,2,2,07,21,45,263,54,23,27,047,49,27,69,122,53,,,,,1*50
$GPRMC,000246.00,A,4852.7982202,N,00217.9272311,E,21.72,61.00,180502,0.0,E,A*3C
$GPGGA,000246.00,4852.7982202,N,00217.9272311,E,1,07,1.0,-7.625,M,0.000,M,0.0,*59
$GPGSA,A,3,01,08,10,16,21,23,27,,,,,,2.0,1.2,1.6,1*21
$GPGSV,2,1,07,01,16,255,49,08,74,298,57,10,55,075,54,16,26,182,48,1*65
$GPGSV,2,2,07,21,45,263,51,23,27,047,50,27,69,122,52,,,,,1*5C
$GPRMC,000247.00,A,4852.8001566,N,00217.9342575,E,12.00,78.71,180502,0.0,E,A*38
$GPGGA,000247.00,4852.8001566,N,00217.9342575,E,1,07,1.0,-10.549,M,0.000,M,0.0,*69
$GPGSA,A,3,01,08,10,16,21,23,27,,,,,,2.0,1.2,1.6,1*21
$GPGSV,2,1,07,01,16,255,49,08,74,298,56,10,55,075,54,16,26,182,50,1*6D
$GPGSV,2,2,07,21,45,263,52,23,27,047,52,27,69,122,53,,,,,1*5C
$GPRMC,000248.00,A,4852.8001354,N,00217.9387155,E,7.92,102.70,180502,0.0,E,A*3D
$GPGGA,000248.00,4852.8001354,N,00217.9387155,E,1,07,1.0,-13.535,M,0.000,M,0.0,*66
$GPGSA,A,3,01,08,10,16,21,23,27,,,,,,2.0,1.2,1.6,1*21
$GPGSV,2,1,07,01,16,255,48,08,74,298,58,10,55,075,55,16,26,182,51,1*62
$GPGSV,2,2,07,21,45,263,54,23,27,047,52,27,69,122,56,,,,,1*5F
$GPRMC,000249.00,A,4852.7979151,N,00217.9424173,E,16.85,127.49,180502,0.0,E,A*03
$GPGGA,000249.00,4852.7979151,N,00217.9424173,E,1,07,1.0,-11.338,M,0.000,M,0.0,*6A
$GPGSA,A,3,01,08,10,16,21,23,27,,,,,,2.0,1.2,1.6,1*21
$GPGSV,2,1,07,01,16,255,49,08,74,298,58,10,55,075,55,16,26,182,50,1*62
$GPGSV,2,2,07,21,45,263,54,23,27,047,51,27,69,122,58,,,,,1*52
$GPRMC,000250.00,A,4852.7940777,N,00217.9493830,E,27.42,139.54,180502,0.0,E,A*0B
$GPGGA,000250.00,4852.7940777,N,00217.9493830,E,1,07,1.0,-13.336,M,0.000,M,0.0,*64
$GPGSA,A,3,01,08,10,16,21,23,27,,,,,,2.0,1.2,1.6,1*21
$GPGSV,2,1,07,01,16,255,48,08,74,298,59,10,55,075,56,16,26,182,50,1*61
$GPGSV,2,2,07,21,45,263,55,23,27,047,48,27,69,122,58,,,,,1*5B
$GPRMC,000251.00,A,4852.7873448,N,00217.9574023,E,32.12,139.82,180502,0.0,E,A*0C
$GPGGA,000251.00,4852.7873448,N,00217.9574023,E,1,07,1.0,-10.195,M,0.000,M,0.0,*61
$GPGSA,A,3,01,08,10,16,21,23,27,,,,,,2.0,1.2,1.6,1*21
$GPGSV,2,1,07,01,16,255,48,08,74,298,58,10,55,075,56,16,26,182,52,1*62
$GPGSV,2,2,07,21,46,264,53,23,27,047,49,27,69,122,58,,,,,1*58
$GPRMC,000252.00,A,4852.7815178,N,00217.9655908,E,31.89,132.95,180502,0.0,E,A*05
$GPGGA,000252.00,4852.7815178,N,00217.9655908,E,1,07,1.0,-9.604,M,0.000,M,0.0,*53
$GPGSA,A,3,01,08,10,16,21,23,27,,,,,,2.0,1.2,1.6,1*21
$GPGSV,2,1,07,01,16,255,48,08,74,298,56,10,55,075,56,16,26,182,51,1*6F
$GPGSV,2,2,07,21,46,264,52,23,27,047,50,27,69,122,58,,,,,1*51
$GPRMC,000253.00,A,4852.7753863,N,00217.9765581,E,32.84,132.81,180502,0.0,E,A*0E
$GPGGA,000253.00,4852.7753863,N,00217.9765581,E,1,07,1.0,-13.091,M,0.000,M,0.0,*62
$GPGSA,A,3,01,08,10,16,21,23,27,,,,,,2.0,1.2,1.6,1*21
$GPGSV,2,1,07,01,16,255,48,08,74,298,58,10,55,075,56,16,26,182,50,1*60
$GPGSV,2,2,07,21,46,264,53,23,27,047,49,27,69,122,58,,,,,1*58
$GPRMC,000254.00,A,4852.7693358,N,00217.9865788,E,32.35,136.18,180502,0.0,E,A*0D
$GPGGA,000254.00,4852.7693358,N,00217.9865788,E,1,07,1.0,-13.462,M,0.000,M,0.0,*67
$GPGSA,A,3,01,08,10,16,21,23,27,,,,,,2.0,1.2,1.6,1*21
$GPGSV,2,1,07,01,16,255,49,08,74,298,57,10,55,075,55,16,26,182,51,1*6C
$GPGSV,2,2,07,21,46,264,54,23,27,047,50,27,69,122,58,,,,,1*57
$GPRMC,000255.00,A,4852.7623771,N,00217.9976155,E,32.71,136.81,180502,0.0,E,A*0D
$GPGGA,000255.00,4852.7623771,N,00217.9976155,E,1,07,1.0,-9.802,M,0.000,M,0.0,*56
$GPGSA,A,3,01,08,10,16,21,23,27,,,,,,2.0,1.2,1.6,1*21
$GPGSV,2,1,07,01,16,255,48,08,74,298,56,10,55,075,56,16,26,182,50,1*6E
$GPGSV,2,2,07,21,46,264,54,23,27,047,50,27,69,122,56,,,,,1*59
$GPRMC,000256.00,A,4852.7549350,N,00218.0070816,E,32.60,139.84,180502,0.0,E,A*0B
$GPGGA,000256.00,4852.7549350,N,00218.0070816,E,1,07,1.0,-8.054,M,0.000,M,0.0,*50
$GPGSA,A,3,01,08,10,16,21,23,27,,,,,,2.0,1.2,1.6,1*21
$GPGSV,2,1,07,01,16,255,48,08,74,298,56,10,55,075,56,16,26,182,49,1*66
$GPGSV,2,2,07,21,46,264,53,23,27,047,50,27,69,122,56,,,,,1*5E
$GPRMC,000257.00,A,4852.7497217,N,00218.0132139,E,32.15,138.89,180502,0.0,E,A*07
$GPGGA,000257.00,4852.7497217,N,00218.0132139,E,1,07,1.0,-8.012,M,0.000,M,0.0,*50
$GPGSA,A,3,01,08,10,16,21,23,27,,,,,,2.0,1.2,1.6,1*21
$GPGSV,2,1,07,01,16,255,48,08,74,298,55,10,55,075,56,16,26,182,50,1*6D
$GPGSV,2,2,07,21,46,264,52,23,27,047,50,27,69,122,56,,,,,1*5F
$GPRMC,000258.00,A,4852.7432045,N,00218.0215398,E,32.06,135.04,180502,0.0,E,A*07
$GPGGA,000258.00,4852.7432045,N,00218.0215398,E,1,07,1.0,-11.519,M,0.000,M,0.0,*6C
$GPGSA,A,3,01,08,10,16,21,23,27,,,,,,2.0,1.2,1.6,1*21
$GPGSV,2,1,07,01,16,255,49,08,74,298,56,10,55,075,56,16,26,182,50,1*6F
$GPGSV,2,2,07,21,46,264,51,23,27,047,50,27,69,122,56,,,,,1*5C
$GPRMC,000259.00,A,4852.7368958,N,00218.0326246,E,33.19,133.87,180502,0.0,E,A*0A
$GPGGA,000259.00,4852.7368958,N,00218.0326246,E,1,07,1.0,-12.861,M,0.000,M,0.0,*62
$GPGSA,A,3,01,08,10,16,21,23,27,,,,,,2.0,1.2,1.6,1*21
$GPGSV,2,1,07,01,16,255,48,08,74,298,58,10,55,075,55,16,26,182,49,1*6B
$GPGSV,2,2,07,21,46,264,52,23,27,047,50,27,69,122,56,,,,,1*5F
$GPRMC,000300.00,A,4852.7300649,N,00218.0434351,E,30.61,134.44,180502,0.0,E,A*01
$GPGGA,000300.00,4852.7300649,N,00218.0434351,E,1,07,1.0,-8.837,M,0.000,M,0.0,*55
$GPGSA,A,3,01,08,10,16,21,23,27,,,,,,2.0,1.2,1.6,1*21
$GPGSV,2,1,07,01,16,255,48,08,74,298,57,10,55,075,56,16,26,182,48,1*66
$GPGSV,2,2,07,21,46,264,53,23,27,047,48,27,69,122,55,,,,,1*54
$GPRMC,000301.00,A,4852.7238464,N,00218.0514978,E,22.04,139.65,180502,0.0,E,A*0B
$GPGGA,000301.00,4852.7238464,N,00218.0514978,E,1,07,1.0,-7.658,M,0.000,M,0.0,*59
$GPGSA,A,3,01,08,10,16,21,23,27,,,,,,2.0,1.2,1.6,1*21
$GPGSV,2,1,07,01,16,255,49,08,74,298,56,10,55,075,55,16,26,182,50,1*6C
$GPGSV,2,2,07,21,46,264,55,23,27,047,49,27,69,122,57,,,,,1*51
$GPRMC,000302.00,A,4852.7204548,N,00218.0556343,E,28.11,146.84,180502,0.0,E,A*05
$GPGGA,000302.00,4852.7204548,N,00218.0556343,E,1,07,1.0,-10.715,M,0.000,M,0.0,*60
$GPGSA,A,3,01,08,10,16,21,23,27,,,,,,2.0,1.2,1.6,1*21
$GPGSV,2,1,07,01,16,255,49,08,74,298,58,10,55,075,57,16,26,182,50,1*60
$GPGSV,2,2,07,21,46,264,52,23,27,047,50,27,69,122,57,,,,,1*5E
$GPRMC,000303.00,A,4852.7144955,N,00218.0608237,E,33.23,149.72,180502,0.0,E,A*04
$GPGGA,000303.00,4852.7144955,N,00218.0608237,E,1,07,1.0,-12.987,M,0.000,M,0.0,*6B
$GPGSA,A,3,01,08,10,16,21,23,27,,,,,,2.0,1.2,1.6,1*21
$GPGSV,2,1,07,01,16,255,48,08,74,298,58,10,55,075,56,16,26,182,51,1*61
$GPGSV,2,2,07,21,46,264,53,23,27,047,49,27,69,122,56,,,,,1*56
$GPRMC,000304.00,A,4852.7055026,N,00218.0685056,E,32.43,150.20,180502,0.0,E,A*07
$GPGGA,000304.00,4852.7055026,N,00218.0685056,E,1,07,1.0,-7.234,M,0.000,M,0.0,*57
$GPGSA,A,3,01,08,10,16,21,23,27,,,,,,2.0,1.2,1.6,1*21
$GPGSV,2,1,07,01,16,255,47,08,74,298,60,10,55,075,57,16,26,182,49,1*6D
$GPGSV,2,2,07,21,46,264,54,23,27,047,50,27,69,122,57,,,,,1*58
$GPRMC,000305.00,A,4852.6975087,N,00218.0777300,E,32.05,149.55,180502,0.0,E,A*03
$GPGGA,000305.00,4852.6975087,N,00218.0777300,E,1,07,1.0,-6.032,M,0.000,M,0.0,*5E
$GPGSA,A,3,01,08,10,16,21,23,27,,,,,,2.0,1.2,1.6,1*21
$GPGSV,2,1,07,01,16,255,47,08,74,298,56,10,55,075,56,16,26,182,49,1*69
$GPGSV,2,2,07,21,46,264,54,23,27,047,50,27,69,122,55,,,,,1*5A
$GPRMC,000306.00,A,4852.6885060,N,00218.0844841,E,32.95,150.90,180502,0.0,E,A*0E
$GPGGA,000306.00,4852.6885060,N,00218.0844841,E,1,07,1.0,-4.614,M,0.000,M,0.0,*5B
$GPGSA,A,3,01,08,10,16,21,23,27,,,,,,2.0,1.2,1.6,1*21
$GPGSV,2,1,07,01,16,255,47,08,74,298,58,10,55,075,54,16,26,182,51,1*6C
$GPGSV,2,2,07,21,46,264,54,23,27,047,51,27,69,122,57,,,,,1*59
$GPRMC,000307.00,A,4852.6818878,N,00218.0898890,E,29.43,153.17,180502,0.0,E,A*0A
$GPGGA,000307.00,4852.6818878,N,00218.0898890,E,1,07,1.0,-7.722,M,0.000,M,0.0,*55
$GPGSA,A,3,01,08,10,16,21,23,27,,,,,,2.0,1.2,1.6,1*21
$GPGSV,2,1,07,01,16,255,47,08,74,298,57,10,55,075,55,16,26,182,50,1*63
$GPGSV,2,2,07,21,46,264,54,23,27,047,51,27,69,122,56,,,,,1*58
$GPRMC,000308.00,A,4852.6765666,N,00218.0925998,E,18.97,159.29,180502,0.0,E,A*03
$GPGGA,000308.00,4852.6765666,N,00218.0925998,E,1,07,1.0,-8.467,M,0.000,M,0.0,*5D
$GPGSA,A,3,01,08,10,16,21,23,27,,,,,,2.0,1.2,1.6,1*21
$GPGSV,2,1,07,01,16,255,49,08,74,298,55,10,55,075,54,16,26,182,50,1*6E
$GPGSV,2,2,07,21,46,264,52,23,27,047,51,27,69,122,55,,,,,1*5D
$GPRMC,000309.00,A,4852.6737809,N,00218.0936258,E,10.84,180.54,180502,0.0,E,A*03
$GPGGA,000309.00,4852.6737809,N,00218.0936258,E,1,07,1.0,-12.476,M,0.000,M,0.0,*62
$GPGSA,A,3,01,08,10,16,21,23,27,,,,,,2.0,1.2,1.6,1*21
$GPGSV,2,1,07,01,16,255,48,08,74,298,56,10,55,075,53,16,26,182,52,1*69
$GPGSV,2,2,07,21,46,264,53,23,27,047,50,27,69,122,56,,,,,1*5E
$GPRMC,000310.00,A,4852.6703359,N,00218.0930783,E,11.39,203.55,180502,0.0,E,A*09
$GPGGA,000310.00,4852.6703359,N,00218.0930783,E,1,07,1.0,-9.205,M,0.000,M,0.0,*5E
$GPGSA,A,3,01,08,10,16,21,23,27,,,,,,2.0,1.2,1.6,1*21
$GPGSV,2,1,07,01,16,255,49,08,74,298,58,10,55,075,56,16,26,182,51,1*60
$GPGSV,2,2,07,21,46,264,53,23,27,047,51,27,69,122,58,,,,,1*51
$GPRMC,000311.00,A,4852.6652334,N,00218.0909069,E,20.05,225.81,180502,0.0,E,A*0F
$GPGGA,000311.00,4852.6652334,N,00218.0909069,E,1,07,1.0,-4.030,M,0.000,M,0.0,*51
$GPGSA,A,3,01,08,10,16,21,23,27,,,,,,2.0,1.2,1.6,1*21
$GPGSV,2,1,07,01,16,255,46,08,74,298,57,10,55,075,56,16,25,182,50,1*62
$GPGSV,2,2,07,21,46,264,53,23,27,047,51,27,69,122,58,,,,,1*51
$GPRMC,000312.00,A,4852.6610442,N,00218.0836589,E,28.81,232.28,180502,0.0,E,A*0B
$GPGGA,000312.00,4852.6610442,N,00218.0836589,E,1,07,1.0,-5.535,M,0.000,M,0.0,*55
$GPGSA,A,3,01,08,10,16,21,23,27,,,,,,2.0,1.2,1.6,1*21
$GPGSV,2,1,07,01,16,255,47,08,74,298,56,10,55,075,54,16,25,182,50,1*60
$GPGSV,2,2,07,21,46,264,52,23,27,047,49,27,69,122,58,,,,,1*59
$GPRMC,000313.00,A,4852.6564537,N,00218.0702610,E,32.93,233.58,180502,0.0,E,A*0C
$GPGGA,000313.00,4852.6564537,N,00218.0702610,E,1,07,1.0,-5.359,M,0.000,M,0.0,*50
$GPGSA,A,3,01,08,10,16,21,23,27,,,,,,2.0,1.2,1.6,1*21
$GPGSV,2,1,07,01,16,255,49,08,74,298,56,10,55,075,54,16,25,182,50,1*6E
$GPGSV,2,2,07,21,46,264,53,23,27,047,50,27,69,122,56,,,,,1*5E
$GPRMC,000314.00,A,4852.6510544,N,00218.0604852,E,32.17,233.59,180502,0.0,E,A*0E
$GPGGA,000314.00,4852.6510544,N,00218.0604852,E,1,07,1.0,-9.137,M,0.000,M,0.0,*59
$GPGSA,A,3,01,08,10,16,21,23,27,,,,,,2.0,1.2,1.6,1*21
$GPGSV,2,1,07,01,16,255,50,08,74,298,58,10,55,075,56,16,25,182,50,1*6A
$GPGSV,2,2,07,21,46,264,54,23,27,047,51,27,69,122,57,,,,,1*59
$GPRMC,000315.00,A,4852.6456805,N,00218.0505180,E,31.41,231.94,180502,0.0,E,A*03
$GPGGA,000315.00,4852.6456805,N,00218.0505180,E,1,07,1.0,-12.027,M,0.000,M,0.0,*6D
$GPGSA,A,3,01,08,10,16,21,23,27,,,,,,2.0,1.2,1.6,1*21
$GPGSV,2,1,07,01,16,255,49,08,74,298,57,10,55,075,56,16,25,182,50,1*6D
$GPGSV,2,2,07,21,46,264,54,23,27,047,52,27,69,122,57,,,,,1*5A
$GPRMC,000316.00,A,4852.6415603,N,00218.0399121,E,23.12,227.43,180502,0.0,E,A*0F
$GPGGA,000316.00,4852.6415603,N,00218.0399121,E,1,07,1.0,-11.444,M,0.000,M,0.0,*6B
$GPGSA,A,3,01,08,10,16,21,23,27,,,,,,2.0,1.2,1.6,1*21
$GPGSV,2,1,07,01,16,255,48,08,74,298,56,10,55,074,56,16,25,182,50,1*6C
$GPGSV,2,2,07,21,46,264,54,23,27,047,52,27,69,122,58,,,,,1*55
$GPRMC,000317.00,A,4852.6340121,N,00218.0353254,E,13.37,215.22,180502,0.0,E,A*0B
$GPGGA,000317.00,4852.6340121,N,00218.0353254,E,1,07,1.0,1.034,M,0.000,M,0.0,*72
$GPGSA,A,3,01,08,10,16,21,23,27,,,,,,2.0,1.2,1.6,1*21
$GPGSV,2,1,07,01,16,255,49,08,74,298,56,10,55,074,57,16,25,182,51,1*6D
$GPGSV,2,2,07,21,46,264,53,23,26,047,50,27,69,122,56,,,,,1*5F
$GPRMC,000318.00,A,4852.6334827,N,00218.0363163,E,7.79,185.37,180502,0.0,E,A*3D
$GPGGA,000318.00,4852.6334827,N,00218.0363163,E,1,07,1.0,-5.833,M,0.000,M,0.0,*53
$GPGSA,A,3,01,08,10,16,21,23,27,,,,,,2.0,1.2,1.6,1*21
$GPGSV,2,1,07,01,16,255,49,08,74,298,58,10,55,074,56,16,25,182,50,1*63
$GPGSV,2,2,07,21,46,264,54,23,26,047,50,27,69,122,57,,,,,1*59
$GPRMC,000319.00,A,4852.6319674,N,00218.0378107,E,15.60,158.40,180502,0.0,E,A*08
$GPGGA,000319.00,4852.6319674,N,00218.0378107,E,1,07,1.0,-11.031,M,0.000,M,0.0,*62
$GPGSA,A,3,01,08,10,16,21,23,27,,,,,,2.0,1.2,1.6,1*21
$GPGSV,2,1,07,01,16,255,48,08,74,298,56,10,55,074,57,16,25,182,51,1*6C
$GPGSV,2,2,07,21,46,264,54,23,26,047,49,27,69,122,56,,,,,1*50
$GPRMC,000320.00,A,4852.6260560,N,00218.0407184,E,23.75,145.16,180502,0.0,E,A*01
$GPGGA,000320.00,4852.6260560,N,00218.0407184,E,1,07,1.0,-12.014,M,0.000,M,0.0,*61
$GPGSA,A,3,01,08,10,16,21,23,27,,,,,,2.0,1.2,1.6,1*21
$GPGSV,2,1,07,01,16,255,48,08,74,298,57,10,55,074,56,16,25,182,50,1*6D
$GPGSV,2,2,07,21,46,264,54,23,26,047,50,27,69,122,55,,,,,1*5B
$GPRMC,000321.00,A,4852.6226792,N,00218.0438335,E,21.71,137.20,180502,0.0,E,A*0F
$GPGGA,000321.00,4852.6226792,N,00218.0438335,E,1,07,1.0,-10.899,M,0.000,M,0.0,*66
$GPGSA,A,3,01,08,10,16,21,23,27,,,,,,2.0,1.2,1.6,1*21
$GPGSV,2,1,07,01,16,255,48,08,74,298,56,10,55,074,57,16,25,182,49,1*65
$GPGSV,2,2,07,21,46,264,55,23,26,047,49,27,69,122,56,,,,,1*51
$GPRMC,000322.00,A,4852.6176768,N,00218.0515870,E,23.75,130.16,180502,0.0,E,A*0F
$GPGGA,000322.00,4852.6176768,N,00218.0515870,E,1,07,1.0,-7.958,M,0.000,M,0.0,*58
$GPGSA,A,3,01,08,10,16,21,23,27,,,,,,2.0,1.2,1.6,1*21
$GPGSV,2,1,07,01,16,255,50,08,74,298,58,10,55,074,55,16,25,182,52,1*6A
$GPGSV,2,2,07,21,46,264,54,23,26,047,48,27,69,122,56,,,,,1*51
$GPRMC,000323.00,A,4852.6116794,N,00218.0614618,E,31.66,125.90,180502,0.0,E,A*02
$GPGGA,000323.00,4852.6116794,N,00218.0614618,E,1,07,1.0,-4.725,M,0.000,M,0.0,*59
$GPGSA,A,3,01,08,10,16,21,23,27,,,,,,2.0,1.2,1.6,1*21
$GPGSV,2,1,07,01,16,255,49,08,74,298,56,10,55,074,53,16,25,182,51,1*69
$GPGSV,2,2,07,21,46,264,52,23,26,047,50,27,69,122,55,,,,,1*5D
$GPRMC,000324.00,A,4852.6064629,N,00218.0737347,E,32.74,126.25,180502,0.0,E,A*04
$GPGGA,000324.00,4852.6064629,N,00218.0737347,E,1,07,1.0,-2.135,M,0.000,M,0.0,*53
$GPGSA,A,3,01,08,10,16,21,23,27,,,,,,2.0,1.2,1.6,1*21
$GPGSV,2,1,07,01,16,255,48,08,74,298,55,10,55,074,54,16,25,182,49,1*65
$GPGSV,2,2,07,21,46,264,52,23,26,047,52,27,69,122,56,,,,,1*5C
$GPRMC,000325.00,A,4852.6026577,N,00218.0863766,E,29.37,128.11,180502,0.0,E,A*06
$GPGGA,000325.00,4852.6026577,N,00218.0863766,E,1,07,1.0,-8.167,M,0.000,M,0.0,*58
$GPGSA,A,3,01,08,10,16,21,23,27,,,,,,2.0,1.2,1.6,1*21
$GPGSV,2,1,07,01,16,255,47,08,74,298,57,10,55,074,55,16,25,182,49,1*69
$GPGSV,2,2,07,21,46,264,53,23,26,047,52,27,69,122,56,,,,,1*5D
$GPRMC,000326.00,A,4852.5969699,N,00218.0933586,E,20.25,135.57,180502,0.0,E,A*0B
$GPGGA,000326.00,4852.5969699,N,00218.0933586,E,1,07,1.0,-4.944,M,0.000,M,0.0,*54
$GPGSA,A,3,01,08,10,16,21,23,27,,,,,,2.0,1.2,1.6,1*21
$GPGSV,2,1,07,01,16,255,50,08,74,298,56,10,55,074,57,16,25,182,48,1*6D
$GPGSV,2,2,07,21,46,264,52,23,26,047,52,27,69,122,56,,,,,1*5C
$GPRMC,000327.00,A,4852.5956578,N,00218.0951130,E,9.84,151.58,180502,0.0,E,A*3A
$GPGGA,000327.00,4852.5956578,N,00218.0951130,E,1,07,1.0,-5.872,M,0.000,M,0.0,*5D
$GPGSA,A,3,01,08,10,16,21,23,27,,,,,,2.0,1.2,1.6,1*21
$GPGSV,2,1,07,01,16,255,48,08,74,298,56,10,55,074,55,16,25,182,48,1*66
$GPGSV,2,2,07,21,46,264,53,23,26,047,50,27,69,122,57,,,,,1*5E
$GPRMC,000328.00,A,4852.5929478,N,00218.0952354,E,5.28,189.45,180502,0.0,E,A*3C
$GPGGA,000328.00,4852.5929478,N,00218.0952354,E,1,07,1.0,-4.489,M,0.000,M,0.0,*51
$GPGSA,A,3,01,08,10,16,21,23,27,,,,,,2.0,1.2,1.6,1*21
$GPGSV,2,1,07,01,16,255,48,08,74,298,56,10,55,074,55,16,25,182,50,1*6F
$GPGSV,2,2,07,21,46,264,54,23,26,047,50,27,69,122,58,,,,,1*56
$GPRMC,000329.00,A,4852.5892821,N,00218.0935050,E,13.52,227.83,180502,0.0,E,A*0D
$GPGGA,000329.00,4852.5892821,N,00218.0935050,E,1,07,1.0,-1.104,M,0.000,M,0.0,*52
$GPGSA,A,3,01,08,10,16,21,23,27,,,,,,2.0,1.2,1.6,1*21
$GPGSV,2,1,07,01,16,255,47,08,74,298,55,10,55,074,55,16,25,182,50,1*63
$GPGSV,2,2,07,21,46,264,52,23,26,047,50,27,69,122,56,,,,,1*5E
$GPRMC,000330.00,A,4852.5863666,N,00218.0880144,E,22.69,242.23,180502,0.0,E,A*0E
$GPGGA,000330.00,4852.5863666,N,00218.0880144,E,1,07,1.0,-0.106,M,0.000,M,0.0,*51
$GPGSA,A,3,01,08,10,16,21,23,27,,,,,,2.0,1.2,1.6,1*21
$GPGSV,2,1,07,01,16,255,47,08,75,298,56,10,55,074,56,16,25,182,50,1*62
$GPGSV,2,2,07,21,46,264,52,23,26,047,50,27,69,122,55,,,,,1*5D
$GPRMC,000331.00,A,4852.5839258,N,00218.0783984,E,31.47,241.71,180502,0.0,E,A*0B
$GPGGA,000331.00,4852.5839258,N,00218.0783984,E,1,07,1.0,-5.272,M,0.000,M,0.0,*5B
$GPGSA,A,3,01,08,10,16,21,23,27,,,,,,2.0,1.2,1.6,1*21
$GPGSV,2,1,07,01,16,255,50,08,75,298,57,10,55,074,55,16,25,182,50,1*66
$GPGSV,2,2,07,21,46,264,54,23,26,047,50,27,69,122,57,,,,,1*59
$GPRMC,000332.00,A,4852.5793988,N,00218.0646376,E,32.36,235.43,180502,0.0,E,A*09
$GPGGA,000332.00,4852.5793988,N,00218.0646376,E,1,07,1.0,-2.425,M,0.000,M,0.0,*5D
$GPGSA,A,3,01,08,10,16,21,23,27,,,,,,2.0,1.2,1.6,1*21
$GPGSV,2,1,07,01,16,255,49,08,75,298,57,10,55,074,55,16,25,182,52,1*6C
$GPGSV,2,2,07,21,46,264,54,23,26,047,51,27,69,122,57,,,,,1*58
$GPRMC,000333.00,A,4852.5750160,N,00218.0537023,E,31.68,237.89,180502,0.0,E,A*03
$GPGGA,000333.00,4852.5750160,N,00218.0537023,E,1,07,1.0,-6.023,M,0.000,M,0.0,*5D
$GPGSA,A,3,01,08,10,16,21,23,27,,,,,,2.0,1.2,1.6,1*21
$GPGSV,2,1,07,01,16,255,49,08,75,298,54,10,55,074,56,16,25,182,52,1*6C
$GPGSV,2,2,07,21,46,264,56,23,26,047,51,27,69,122,57,,,,,1*5A
$GPRMC,000334.00,A,4852.5699165,N,00218.0432488,E,32.95,241.66,180502,0.0,E,A*05
$GPGGA,000334.00,4852.5699165,N,00218.0432488,E,1,07,1.0,-9.145,M,0.000,M,0.0,*54
$GPGSA,A,3,01,08,10,16,21,23,27,,,,,,2.0,1.2,1.6,1*21
$GPGSV,2,1,07,01,16,255,48,08,75,298,56,10,55,074,56,16,25,182,51,1*6C
$GPGSV,2,2,07,21,46,264,56,23,26,047,52,27,69,122,58,,,,,1*56
$GPRMC,000335.00,A,4852.5660403,N,00218.0304602,E,32.49,239.23,180502,0.0,E,A*0A
$GPGGA,000335.00,4852.5660403,N,00218.0304602,E,1,07,1.0,-6.957,M,0.000,M,0.0,*50
$GPGSA,A,3,01,08,10,16,21,23,27,,,,,,2.0,1.2,1.6,1*21
$GPGSV,2,1,07,01,16,255,48,08,75,298,56,10,55,074,55,16,25,182,50,1*6E
$GPGSV,2,2,07,21,46,264,54,23,26,047,50,27,69,122,57,,,,,1*59
$GPRMC,000336.00,A,4852.5612862,N,00218.0189787,E,32.41,239.14,180502,0.0,E,A*00
$GPGGA,000336.00,4852.5612862,N,00218.0189787,E,1,07,1.0,-4.260,M,0.000,M,0.0,*5B
$GPGSA,A,3,01,08,10,16,21,23,27,,,,,,2.0,1.2,1.6,1*21
$GPGSV,2,1,07,01,16,255,50,08,75,298,56,10,55,074,55,16,25,182,50,1*67
$GPGSV,2,2,07,21,46,264,54,23,26,047,49,27,69,122,58,,,,,1*5E
$GPRMC,000337.00,A,4852.5547194,N,00218.0093954,E,32.29,240.96,180502,0.0,E,A*02
$GPGGA,000337.00,4852.5547194,N,00218.0093954,E,1,07,1.0,-1.154,M,0.000,M,0.0,*52
$GPGSA,A,3,01,08,10,16,21,23,27,,,,,,2.0,1.2,1.6,1*21
$GPGSV,2,1,07,01,16,255,48,08,75,298,58,10,55,074,56,16,25,182,50,1*63
$GPGSV,2,2,07,21,46,264,54,23,26,047,50,27,69,122,59,,,,,1*57
$GPRMC,000338.00,A,4852.5511250,N,00217.9963540,E,32.63,239.68,180502,0.0,E,A*0D
$GPGGA,000338.00,4852.5511250,N,00217.9963540,E,1,07,1.0,-2.993,M,0.000,M,0.0,*5C
$GPGSA,A,3,01,08,10,16,21,23,27,,,,,,2.0,1.2,1.6,1*21
$GPGSV,2,1,07,01,16,255,49,08,75,298,55,10,55,074,54,16,25,182,50,1*6D
$GPGSV,2,2,07,21,46,264,54,23,26,047,51,27,69,122,57,,,,,1*58
$GPRMC,000339.00,A,4852.5480854,N,00217.9824382,E,32.39,236.81,180502,0.0,E,A*06
$GPGGA,000339.00,4852.5480854,N,00217.9824382,E,1,07,1.0,-8.555,M,0.000,M,0.0,*5C
$GPGSA,A,3,01,08,10,16,21,23,27,,,,,,2.0,1.2,1.6,1*21
$GPGSV,2,1,07,01,17,255,50,08,75,298,57,10,55,074,56,16,25,182,50,1*64
$GPGSV,2,2,07,21,46,264,55,23,26,047,53,27,69,122,58,,,,,1*54
$GPRMC,000340.00,A,4852.5423789,N,00217.9724313,E,32.37,233.80,180502,0.0,E,A*03
$GPGGA,000340.00,4852.5423789,N,00217.9724313,E,1,07,1.0,-6.504,M,0.000,M,0.0,*59
$GPGSA,A,3,01,08,10,16,21,23,27,,,,,,2.0,1.2,1.6,1*21
$GPGSV,2,1,07,01,17,255,50,08,75,298,57,10,55,074,56,16,25,182,51,1*65
$GPGSV,2,2,07,21,46,264,54,23,26,047,51,27,69,122,57,,,,,1*58
$GPRMC,000341.00,A,4852.5372566,N,00217.9621389,E,32.40,231.88,180502,0.0,E,A*0F
$GPGGA,000341.00,4852.5372566,N,00217.9621389,E,1,07,1.0,-7.048,M,0.000,M,0.0,*53
$GPGSA,A,3,01,08,10,16,21,23,27,,,,,,2.0,1.2,1.6,1*21
$GPGSV,2,1,07,01,17,255,50,08,75,298,58,10,55,074,57,16,25,182,50,1*6A
$GPGSV,2,2,07,21,46,264,54,23,26,047,50,27,69,122,58,,,,,1*56
$GPRMC,000342.00,A,4852.5316461,N,00217.9506307,E,32.24,234.51,180502,0.0,E,A*0B
$GPGGA,000342.00,4852.5316461,N,00217.9506307,E,1,07,1.0,-7.817,M,0.000,M,0.0,*56
$GPGSA,A,3,01,08,10,16,21,23,27,,,,,,2.0,1.2,1.6,1*21
$GPGSV,2,1,07,01,17,255,50,08,75,298,58,10,55,074,58,16,25,182,50,1*65
$GPGSV,2,2,07,21,46,264,54,23,26,047,50,27,69,122,58,,,,,1*56
$GPRMC,000343.00,A,4852.5261267,N,00217.9390412,E,32.29,231.76,180502,0.0,E,A*0C
$GPGGA,000343.00,4852.5261267,N,00217.9390412,E,1,07,1.0,-4.209,M,0.000,M,0.0,*5A
$GPGSA,A,3,01,08,10,16,21,23,27,,,,,,2.0,1.2,1.6,1*21
$GPGSV,2,1,07,01,17,255,48,08,75,298,58,10,55,074,58,16,25,182,49,1*64
$GPGSV,2,2,07,21,46,264,55,23,26,047,52,27,69,122,57,,,,,1*5A
$GPRMC,000344.00,A,4852.5209262,N,00217.9281282,E,32.40,233.32,180502,0.0,E,A*03
$GPGGA,000344.00,4852.5209262,N,00217.9281282,E,1,07,1.0,-5.996,M,0.000,M,0.0,*54
$GPGSA,A,3,01,08,10,16,21,23,27,,,,,,2.0,1.2,1.6,1*21
$GPGSV,2,1,07,01,17,255,48,08,75,298,59,10,55,074,56,16,25,182,48,1*6A
$GPGSV,2,2,07,21,46,264,55,23,26,047,51,27,69,122,58,,,,,1*56
$GPRMC,000345.00,A,4852.5144982,N,00217.9194011,E,32.16,237.89,180502,0.0,E,A*05
$GPGGA,000345.00,4852.5144982,N,00217.9194011,E,1,07,1.0,-2.839,M,0.000,M,0.0,*56
$GPGSA,A,3,01,08,10,16,21,23,27,,,,,,2.0,1.2,1.6,1*21
$GPGSV,2,1,07,01,17,255,48,08,75,298,59,10,55,074,55,16,25,182,49,1*68
$GPGSV,2,2,07,21,46,264,54,23,26,047,52,27,69,122,57,,,,,1*5B
$GPRMC,000346.00,A,4852.5099050,N,00217.9072148,E,32.49,239.56,180502,0.0,E,A*03
$GPGGA,000346.00,4852.5099050,N,00217.9072148,E,1,07,1.0,-2.583,M,0.000,M,0.0,*5A
$GPGSA,A,3,01,08,10,16,21,23,27,,,,,,2.0,1.2,1.6,1*21
$GPGSV,2,1,07,01,17,255,51,08,75,298,58,10,55,074,57,16,25,182,50,1*6B
$GPGSV,2,2,07,21,46,264,56,23,26,047,52,27,69,122,57,,,,,1*59
$GPRMC,000347.00,A,4852.5069493,N,00217.8923470,E,32.19,240.43,180502,0.0,E,A*0B
$GPGGA,000347.00,4852.5069493,N,00217.8923470,E,1,07,1.0,-4.275,M,0.000,M,0.0,*55
$GPGSA,A,3,01,08,10,16,21,23,27,,,,,,2.0,1.2,1.6,1*21
$GPGSV,2,1,07,01,17,255,50,08,75,298,56,10,55,074,55,16,25,182,51,1*67
$GPGSV,2,2,07,21,46,264,53,23,26,047,52,27,69,122,52,,,,,1*59
$GPRMC,000348.00,A,4852.5024882,N,00217.8812677,E,32.23,240.33,180502,0.0,E,A*09
$GPGGA,000348.00,4852.5024882,N,00217.8812677,E,1,07,1.0,-7.229,M,0.000,M,0.0,*53
$GPGSA,A,3,01,08,10,16,21,23,27,,,,,,2.0,1.2,1.6,1*21
$GPGSV,2,1,07,01,17,255,51,08,75,298,56,10,55,074,55,16,25,182,51,1*66
$GPGSV,2,2,07,21,46,264,54,23,26,047,50,27,69,122,54,,,,,1*5A
$GPRMC,000349.00,A,4852.4985068,N,00217.8694314,E,32.54,237.22,180502,0.0,E,A*07
$GPGGA,000349.00,4852.4985068,N,00217.8694314,E,1,07,1.0,-6.582,M,0.000,M,0.0,*5A
$GPGSA,A,3,01,08,10,16,21,23,27,,,,,,2.0,1.2,1.6,1*21
$GPGSV,2,1,07,01,17,255,49,08,75,298,58,10,55,074,53,16,25,182,50,1*66
$GPGSV,2,2,07,21,46,264,54,23,26,047,50,27,69,122,54,,,,,1*5A
$GPRMC,000350.00,A,4852.4940834,N,00217.8580532,E,31.98,236.39,180502,0.0,E,A*0B
$GPGGA,000350.00,4852.4940834,N,00217.8580532,E,1,07,1.0,-7.828,M,0.000,M,0.0,*52
$GPGSA,A,3,01,08,10,16,21,23,27,,,,,,2.0,1.2,1.6,1*21
$GPGSV,2,1,07,01,17,255,49,08,75,298,58,10,55,074,56,16,25,182,50,1*63
$GPGSV,2,2,07,21,46,264,55,23,26,047,49,27,69,122,54,,,,,1*53
$GPRMC,000351.00,A,4852.4888716,N,00217.8462193,E,32.44,237.24,180502,0.0,E,A*0D
