$GPRMC,000030.00,A,4852.4649864,N,00217.5812837,E,1.26,0.00,180502,0.0,E,A*35
$GPGGA,000030.00,4852.4649864,N,00217.5812837,E,1,05,1.0,-8.918,M,0.000,M,0.0,*58
$GPGSA,A,3,01,08,10,21,23,,,,,,,,4.0,3.5,1.9,1*2F
$GPGSV,2,1,05,01,15,255,47,08,73,299,56,10,56,076,54,21,45,263,53,1*6A
$GPGSV,2,2,05,23,28,048,50,,,,,,,,,,,,,1*53
$GPRMC,000031.00,A,4852.4633646,N,00217.5833843,E,2.29,348.28,180502,0.0,E,A*3E
$GPGGA,000031.00,4852.4633646,N,00217.5833843,E,1,05,1.0,-10.666,M,0.000,M,0.0,*65
$GPGSA,A,3,01,08,10,21,23,,,,,,,,4.0,3.5,1.9,1*2F
$GPGSV,2,1,05,01,15,255,47,08,73,299,57,10,56,076,54,21,45,263,54,1*6C
$GPGSV,2,2,05,23,28,048,50,,,,,,,,,,,,,1*53
$GPRMC,000032.00,A,4852.4630783,N,00217.5841716,E,1.26,348.28,180502,0.0,E,A*30
$GPGGA,000032.00,4852.4630783,N,00217.5841716,E,1,05,1.0,-16.464,M,0.000,M,0.0,*61
$GPGSA,A,3,01,08,10,21,23,,,,,,,,4.0,3.5,1.9,1*2F
$GPGSV,2,1,05,01,15,255,48,08,73,299,57,10,56,076,54,21,45,263,53,1*64
$GPGSV,2,2,05,23,28,048,51,,,,,,,,,,,,,1*52
$GPRMC,000033.00,A,4852.4619007,N,00217.5833726,E,1.92,348.28,180502,0.0,E,A*38
$GPGGA,000033.00,4852.4619007,N,00217.5833726,E,1,05,1.0,-16.967,M,0.000,M,0.0,*68
$GPGSA,A,3,01,08,10,21,23,,,,,,,,4.0,3.5,1.9,1*2F
$GPGSV,2,1,05,01,15,255,48,08,73,299,56,10,56,076,54,21,45,263,54,1*62
$GPGSV,2,2,05,23,28,048,50,,,,,,,,,,,,,1*53
$GPRMC,000034.00,A,4852.4651709,N,00217.5823530,E,1.91,348.28,180502,0.0,E,A*3D
$GPGGA,000034.00,4852.4651709,N,00217.5823530,E,1,05,1.0,-14.476,M,0.000,M,0.0,*61
$GPGSA,A,3,01,08,10,21,23,,,,,,,,4.0,3.5,1.9,1*2F
$GPGSV,2,1,05,01,15,255,48,08,73,299,56,10,56,076,54,21,45,263,52,1*64
$GPGSV,2,2,05,23,28,048,50,,,,,,,,,,,,,1*53
$GPRMC,000035.00,A,4852.4661301,N,00217.5808829,E,0.37,348.28,180502,0.0,E,A*32
$GPGGA,000035.00,4852.4661301,N,00217.5808829,E,1,06,1.0,-7.668,M,0.000,M,0.0,*5F
$GPGSA,A,3,01,08,10,16,21,23,,,,,,,2.2,1.3,1.8,1*29
$GPGSV,2,1,06,01,15,255,47,08,73,299,58,10,56,076,57,16,27,182,50,1*6B
$GPGSV,2,2,06,21,45,263,52,23,27,048,51,,,,,,,,,1*6C
$GPRMC,000036.00,A,4852.4672797,N,00217.5796426,E,0.93,348.28,180502,0.0,E,A*3D
$GPGGA,000036.00,4852.4672797,N,00217.5796426,E,1,06,1.0,-8.356,M,0.000,M,0.0,*59
$GPGSA,A,3,01,08,10,16,21,23,,,,,,,2.2,1.3,1.8,1*29
$GPGSV,2,1,06,01,15,255,49,08,73,299,57,10,56,076,57,16,27,182,51,1*6B
$GPGSV,2,2,06,21,45,263,54,23,27,048,50,,,,,,,,,1*6B
$GPRMC,000037.00,A,4852.4677500,N,00217.5783684,E,0.60,348.28,180502,0.0,E,A*37
$GPGGA,000037.00,4852.4677500,N,00217.5783684,E,1,06,1.0,-2.638,M,0.000,M,0.0,*58
$GPGSA,A,3,01,08,10,16,21,23,,,,,,,2.2,1.3,1.8,1*29
$GPGSV,2,1,06,01,15,255,47,08,73,299,59,10,56,076,56,16,27,182,49,1*63
$GPGSV,2,2,06,21,45,263,53,23,27,048,50,,,,,,,,,1*6C
$GPRMC,000038.00,A,4852.4663915,N,00217.5801841,E,0.53,348.28,180502,0.0,E,A*37
$GPGGA,000038.00,4852.4663915,N,00217.5801841,E,1,06,1.0,-2.132,M,0.000,M,0.0,*55
$GPGSA,A,3,01,08,10,16,21,23,,,,,,,2.2,1.3,1.8,1*29
$GPGSV,2,1,06,01,15,255,48,08,73,299,55,10,56,076,55,16,27,182,50,1*6B
$GPGSV,2,2,06,21,45,263,53,23,27,048,50,,,,,,,,,1*6C
$GPRMC,000039.00,A,4852.4669189,N,00217.5808800,E,0.80,348.28,180502,0.0,E,A*33
$GPGGA,000039.00,4852.4669189,N,00217.5808800,E,1,06,1.0,-7.811,M,0.000,M,0.0,*52
$GPGSA,A,3,01,08,10,16,21,23,,,,,,,2.2,1.3,1.8,1*29
$GPGSV,2,1,06,01,15,255,48,08,73,299,56,10,56,076,54,16,27,182,50,1*69
$GPGSV,2,2,06,21,45,263,52,23,27,048,52,,,,,,,,,1*6F
$GPRMC,000040.00,A,4852.4669737,N,00217.5787031,E,1.61,348.28,180502,0.0,E,A*32
$GPGGA,000040.00,4852.4669737,N,00217.5787031,E,1,06,1.0,-7.049,M,0.000,M,0.0,*58
$GPGSA,A,3,01,08,10,16,21,23,,,,,,,2.2,1.3,1.8,1*29
$GPGSV,2,1,06,01,15,255,48,08,73,299,57,10,56,076,55,16,27,182,50,1*69
$GPGSV,2,2,06,21,45,263,52,23,27,048,50,,,,,,,,,1*6D
$GPRMC,000041.00,A,4852.4665614,N,00217.5803672,E,0.52,348.28,180502,0.0,E,A*3C
$GPGGA,000041.00,4852.4665614,N,00217.5803672,E,1,06,1.0,-10.912,M,0.000,M,0.0,*66
$GPGSA,A,3,01,08,10,16,21,23,,,,,,,2.2,1.3,1.8,1*29
$GPGSV,2,1,06,01,15,255,47,08,73,299,55,10,56,076,54,16,27,182,50,1*65
$GPGSV,2,2,06,21,45,263,54,23,27,048,50,,,,,,,,,1*6B
$GPRMC,000042.00,A,4852.4658126,N,00217.5820778,E,0.85,348.28,180502,0.0,E,A*37
$GPGGA,000042.00,4852.4658126,N,00217.5820778,E,1,06,1.0,-14.039,M,0.000,M,0.0,*63
$GPGSA,A,3,01,08,10,16,21,23,,,,,,,2.2,1.3,1.8,1*29
$GPGSV,2,1,06,01,15,255,49,08,73,299,57,10,56,076,54,16,27,182,50,1*69
$GPGSV,2,2,06,21,45,263,53,23,27,048,50,,,,,,,,,1*6C
$GPRMC,000043.00,A,4852.4667886,N,00217.5812419,E,0.96,348.28,180502,0.0,E,A*3E
$GPGGA,000043.00,4852.4667886,N,00217.5812419,E,1,06,1.0,-16.884,M,0.000,M,0.0,*64
$GPGSA,A,3,01,08,10,16,21,23,,,,,,,2.2,1.3,1.8,1*29
$GPGSV,2,1,06,01,15,255,47,08,73,299,56,10,56,076,54,16,27,182,48,1*6F
$GPGSV,2,2,06,21,45,263,54,23,27,048,52,,,,,,,,,1*69
$GPRMC,000044.00,A,4852.4663513,N,00217.5806330,E,0.68,348.28,180502,0.0,E,A*34
$GPGGA,000044.00,4852.4663513,N,00217.5806330,E,1,06,1.0,-13.101,M,0.000,M,0.0,*6E
$GPGSA,A,3,01,08,10,16,21,23,,,,,,,2.2,1.3,1.8,1*29
$GPGSV,2,1,06,01,15,255,49,08,73,299,58,10,56,076,56,16,27,182,48,1*6D
$GPGSV,2,2,06,21,45,263,52,23,27,048,51,,,,,,,,,1*6C
$GPRMC,000045.00,A,4852.4663965,N,00217.5802138,E,0.40,348.28,180502,0.0,E,A*3C
$GPGGA,000045.00,4852.4663965,N,00217.5802138,E,1,06,1.0,-10.360,M,0.000,M,0.0,*6A
$GPGSA,A,3,01,08,10,16,21,23,,,,,,,2.2,1.3,1.8,1*29
$GPGSV,2,1,06,01,15,255,48,08,73,299,57,10,56,076,56,16,27,182,48,1*63
$GPGSV,2,2,06,21,45,263,52,23,27,048,50,,,,,,,,,1*6D
$GPRMC,000046.00,A,4852.4672188,N,00217.5808335,E,0.46,348.28,180502,0.0,E,A*37
$GPGGA,000046.00,4852.4672188,N,00217.5808335,E,1,06,1.0,-11.115,M,0.000,M,0.0,*66
$GPGSA,A,3,01,08,10,16,21,23,,,,,,,2.2,1.3,1.8,1*29
$GPGSV,2,1,06,01,15,255,49,08,73,299,55,10,56,076,56,16,27,182,48,1*60
$GPGSV,2,2,06,21,45,263,51,23,27,048,50,,,,,,,,,1*6E
$GPRMC,000047.00,A,4852.4662341,N,00217.5796598,E,1.54,348.28,180502,0.0,E,A*3B
$GPGGA,000047.00,4852.4662341,N,00217.5796598,E,1,06,1.0,-4.193,M,0.000,M,0.0,*52
$GPGSA,A,3,01,08,10,16,21,23,,,,,,,2.2,1.3,1.8,1*29
$GPGSV,2,1,06,01,15,255,50,08,73,299,57,10,56,076,58,16,27,182,49,1*65
$GPGSV,2,2,06,21,45,263,52,23,27,048,52,,,,,,,,,1*6F
$GPRMC,000048.00,A,4852.4673102,N,00217.5779611,E,1.32,348.28,180502,0.0,E,A*32
$GPGGA,000048.00,4852.4673102,N,00217.5779611,E,1,06,1.0,-2.649,M,0.000,M,0.0,*5D
$GPGSA,A,3,01,08,10,16,21,23,,,,,,,2.2,1.3,1.8,1*29
$GPGSV,2,1,06,01,15,255,50,08,73,299,57,10,56,076,55,16,27,182,50,1*60
$GPGSV,2,2,06,21,45,263,54,23,27,048,49,,,,,,,,,1*63
$GPRMC,000049.00,A,4852.4672530,N,00217.5791391,E,1.43,348.28,180502,0.0,E,A*3A
$GPGGA,000049.00,4852.4672530,N,00217.5791391,E,1,06,1.0,-5.463,M,0.000,M,0.0,*5E
$GPGSA,A,3,01,08,10,16,21,23,,,,,,,2.2,1.3,1.8,1*29
$GPGSV,2,1,06,01,15,255,49,08,73,299,57,10,56,076,54,16,27,182,49,1*61
$GPGSV,2,2,06,21,45,263,51,23,27,048,50,,,,,,,,,1*6E
$GPRMC,000050.00,A,4852.4658281,N,00217.5810001,E,1.13,348.28,180502,0.0,E,A*3E
$GPGGA,000050.00,4852.4658281,N,00217.5810001,E,1,06,1.0,-6.828,M,0.000,M,0.0,*5F
$GPGSA,A,3,01,08,10,16,21,23,,,,,,,2.2,1.3,1.8,1*29
$GPGSV,2,1,06,01,15,255,49,08,73,299,56,10,56,076,55,16,27,182,51,1*68
$GPGSV,2,2,06,21,45,263,52,23,27,048,51,,,,,,,,,1*6C
$GPRMC,000051.00,A,4852.4671806,N,00217.5807560,E,1.18,348.28,180502,0.0,E,A*3E
$GPGGA,000051.00,4852.4671806,N,00217.5807560,E,1,06,1.0,-9.592,M,0.000,M,0.0,*57
$GPGSA,A,3,01,08,10,16,21,23,,,,,,,2.2,1.3,1.8,1*29
$GPGSV,2,1,06,01,15,255,49,08,73,299,57,10,56,076,55,16,27,182,52,1*6A
$GPGSV,2,2,06,21,45,263,54,23,27,048,53,,,,,,,,,1*68
$GPRMC,000052.00,A,4852.4667799,N,00217.5797491,E,1.97,136.91,180502,0.0,E,A*34
$GPGGA,000052.00,4852.4667799,N,00217.5797491,E,1,06,1.0,-10.165,M,0.000,M,0.0,*67
$GPGSA,A,3,01,08,10,16,21,23,,,,,,,2.2,1.3,1.8,1*29
$GPGSV,2,1,06,01,15,255,48,08,73,299,56,10,56,076,56,16,27,182,49,1*63
$GPGSV,2,2,06,21,45,263,54,23,27,048,51,,,,,,,,,1*6A
$GPRMC,000053.00,A,4852.4661826,N,00217.5818659,E,1.41,136.91,180502,0.0,E,A*3D
$GPGGA,000053.00,4852.4661826,N,00217.5818659,E,1,06,1.0,-15.864,M,0.000,M,0.0,*68
$GPGSA,A,3,01,08,10,16,21,23,,,,,,,2.2,1.3,1.8,1*29
$GPGSV,2,1,06,01,15,255,48,08,73,299,57,10,56,076,56,16,27,182,49,1*62
$GPGSV,2,2,06,21,45,263,52,23,27,048,49,,,,,,,,,1*65
$GPRMC,000054.00,A,4852.4662632,N,00217.5830284,E,0.43,136.91,180502,0.0,E,A*3F
$GPGGA,000054.00,4852.4662632,N,00217.5830284,E,1,06,1.0,-15.741,M,0.000,M,0.0,*61
$GPGSA,A,3,01,08,10,16,21,23,,,,,,,2.2,1.3,1.8,1*29
$GPGSV,2,1,06,01,15,255,49,08,73,299,57,10,56,076,55,16,27,182,50,1*68
$GPGSV,2,2,06,21,45,263,53,23,27,048,49,,,,,,,,,1*64
$GPRMC,000055.00,A,4852.4663822,N,00217.5810495,E,0.52,136.91,180502,0.0,E,A*34
$GPGGA,000055.00,4852.4663822,N,00217.5810495,E,1,06,1.0,-12.194,M,0.000,M,0.0,*63
$GPGSA,A,3,01,08,10,16,21,23,,,,,,,2.2,1.3,1.8,1*29
$GPGSV,2,1,06,01,15,255,49,08,73,299,59,10,56,076,58,16,27,182,51,1*6A
$GPGSV,2,2,06,21,45,263,52,23,27,048,50,,,,,,,,,1*6D
$GPRMC,000056.00,A,4852.4665012,N,00217.5808867,E,1.24,136.91,180502,0.0,E,A*32
$GPGGA,000056.00,4852.4665012,N,00217.5808867,E,1,06,1.0,-11.073,M,0.000,M,0.0,*6E
$GPGSA,A,3,01,08,10,16,21,23,,,,,,,2.2,1.3,1.8,1*29
$GPGSV,2,1,06,01,15,255,48,08,73,299,58,10,56,076,56,16,27,182,48,1*6C
$GPGSV,2,2,06,21,45,263,54,23,27,048,50,,,,,,,,,1*6B
$GPRMC,000057.00,A,4852.4662541,N,00217.5814003,E,1.86,136.91,180502,0.0,E,A*38
$GPGGA,000057.00,4852.4662541,N,00217.5814003,E,1,06,1.0,-6.096,M,0.000,M,0.0,*51
$GPGSA,A,3,01,08,10,16,21,23,,,,,,,2.2,1.3,1.8,1*29
$GPGSV,2,1,06,01,16,255,50,08,73,299,57,10,56,076,55,16,27,182,50,1*63
$GPGSV,2,2,06,21,45,263,54,23,27,048,50,,,,,,,,,1*6B
$GPRMC,000058.00,A,4852.4667102,N,00217.5816984,E,1.12,136.91,180502,0.0,E,A*38
$GPGGA,000058.00,4852.4667102,N,00217.5816984,E,1,06,1.0,-5.218,M,0.000,M,0.0,*5B
$GPGSA,A,3,01,08,10,16,21,23,,,,,,,2.2,1.3,1.8,1*29
$GPGSV,2,1,06,01,16,255,48,08,73,299,57,10,56,076,56,16,27,182,51,1*68
$GPGSV,2,2,06,21,45,263,52,23,27,048,50,,,,,,,,,1*6D
$GPRMC,000059.00,A,4852.4667418,N,00217.5797483,E,0.89,136.91,180502,0.0,E,A*38
$GPGGA,000059.00,4852.4667418,N,00217.5797483,E,1,06,1.0,-0.650,M,0.000,M,0.0,*55
$GPGSA,A,3,01,08,10,16,21,23,,,,,,,2.2,1.3,1.8,1*29
$GPGSV,2,1,06,01,16,255,50,08,73,299,57,10,56,076,57,16,26,182,52,1*62
$GPGSV,2,2,06,21,45,263,53,23,27,048,51,,,,,,,,,1*6D
$GPRMC,000100.00,A,4852.4668185,N,00217.5792587,E,0.66,136.91,180502,0.0,E,A*3A
$GPGGA,000100.00,4852.4668185,N,00217.5792587,E,1,06,1.0,0.260,M,0.000,M,0.0,*7C
$GPGSA,A,3,01,08,10,16,21,23,,,,,,,2.2,1.3,1.8,1*29
$GPGSV,2,1,06,01,16,255,49,08,73,299,56,10,56,076,57,16,26,182,50,1*69
$GPGSV,2,2,06,21,45,263,53,23,27,048,50,,,,,,,,,1*6C
$GPRMC,000101.00,A,4852.4665691,N,00217.5817054,E,0.63,136.91,180502,0.0,E,A*38
$GPGGA,000101.00,4852.4665691,N,00217.5817054,E,1,06,1.0,-4.793,M,0.000,M,0.0,*5B
$GPGSA,A,3,01,08,10,16,21,23,,,,,,,2.2,1.3,1.8,1*29
$GPGSV,2,1,06,01,16,255,48,08,73,299,55,10,56,076,55,16,26,182,50,1*69
$GPGSV,2,2,06,21,45,263,52,23,27,048,51,,,,,,,,,1*6C
$GPRMC,000102.00,A,4852.4655809,N,00217.5811277,E,0.55,136.91,180502,0.0,E,A*37
$GPGGA,000102.00,4852.4655809,N,00217.5811277,E,1,06,1.0,-5.527,M,0.000,M,0.0,*5D
$GPGSA,A,3,01,08,10,16,21,23,,,,,,,2.2,1.3,1.8,1*29
$GPGSV,2,1,06,01,16,255,49,08,73,299,56,10,56,076,55,16,26,182,49,1*63
$GPGSV,2,2,06,21,45,263,53,23,27,048,50,,,,,,,,,1*6C
$GPRMC,000103.00,A,4852.4671215,N,00217.5809574,E,1.54,136.91,180502,0.0,E,A*3A
$GPGGA,000103.00,4852.4671215,N,00217.5809574,E,1,06,1.0,-8.959,M,0.000,M,0.0,*58
$GPGSA,A,3,01,08,10,16,21,23,,,,,,,2.2,1.3,1.8,1*29
$GPGSV,2,1,06,01,16,255,48,08,73,299,56,10,56,076,56,16,26,182,50,1*69
$GPGSV,2,2,06,21,45,263,53,23,27,048,51,,,,,,,,,1*6D
$GPRMC,000104.00,A,4852.4663676,N,00217.5814665,E,1.60,136.91,180502,0.0,E,A*37
$GPGGA,000104.00,4852.4663676,N,00217.5814665,E,1,06,1.0,-9.865,M,0.000,M,0.0,*5D
$GPGSA,A,3,01,08,10,16,21,23,,,,,,,2.2,1.3,1.8,1*29
$GPGSV,2,1,06,01,16,255,47,08,73,299,58,10,56,076,56,16,26,182,50,1*68
$GPGSV,2,2,06,21,45,263,54,23,27,048,50,,,,,,,,,1*6B
$GPRMC,000105.00,A,4852.4656530,N,00217.5829002,E,2.02,353.12,180502,0.0,E,A*35
$GPGGA,000105.00,4852.4656530,N,00217.5829002,E,1,06,1.0,-13.285,M,0.000,M,0.0,*6D
$GPGSA,A,3,01,08,10,16,21,23,,,,,,,2.2,1.3,1.8,1*29
$GPGSV,2,1,06,01,16,255,48,08,73,299,58,10,56,076,55,16,26,182,50,1*64
$GPGSV,2,2,06,21,45,263,53,23,27,048,50,,,,,,,,,1*6C
$GPRMC,000106.00,A,4852.4668601,N,00217.5825800,E,1.16,353.12,180502,0.0,E,A*3A
$GPGGA,000106.00,4852.4668601,N,00217.5825800,E,1,06,1.0,-18.046,M,0.000,M,0.0,*62
$GPGSA,A,3,01,08,10,16,21,23,,,,,,,2.2,1.3,1.8,1*29
$GPGSV,2,1,06,01,16,255,48,08,73,299,56,10,56,076,55,16,26,182,51,1*6B
$GPGSV,2,2,06,21,45,263,53,23,27,048,50,,,,,,,,,1*6C
$GPRMC,000107.00,A,4852.4662301,N,00217.5809533,E,0.88,353.12,180502,0.0,E,A*31
$GPGGA,000107.00,4852.4662301,N,00217.5809533,E,1,06,1.0,-11.615,M,0.000,M,0.0,*66
$GPGSA,A,3,01,08,10,16,21,23,,,,,,,2.2,1.3,1.8,1*29
$GPGSV,2,1,06,01,16,255,47,08,73,299,56,10,56,076,54,16,26,182,50,1*64
$GPGSV,2,2,06,21,45,263,51,23,27,048,51,,,,,,,,,1*6F
$GPRMC,000108.00,A,4852.4656919,N,00217.5826594,E,9.91,112.60,180502,0.0,E,A*39
$GPGGA,000108.00,4852.4656919,N,00217.5826594,E,1,06,1.0,-11.781,M,0.000,M,0.0,*61
$GPGSA,A,3,01,08,10,16,21,23,,,,,,,2.2,1.3,1.8,1*29
$GPGSV,2,1,06,01,16,255,46,08,73,299,57,10,56,076,55,16,26,182,51,1*64
$GPGSV,2,2,06,21,45,263,51,23,27,048,52,,,,,,,,,1*6C
$GPRMC,000109.00,A,4852.4644497,N,00217.5891281,E,20.28,116.01,180502,0.0,E,A*05
$GPGGA,000109.00,4852.4644497,N,00217.5891281,E,1,06,1.0,-10.230,M,0.000,M,0.0,*69
$GPGSA,A,3,01,08,10,16,21,23,,,,,,,2.2,1.3,1.8,1*29
$GPGSV,2,1,06,01,16,255,40,08,73,299,59,10,56,076,52,16,26,182,51,1*6B
$GPGSV,2,2,06,21,45,263,46,23,27,048,54,,,,,,,,,1*6C
$GPRMC,000110.00,A,4852.4587886,N,00217.5996559,E,29.26,117.21,180502,0.0,E,A*0D
$GPGGA,000110.00,4852.4587886,N,00217.5996559,E,1,06,1.0,-9.441,M,0.000,M,0.0,*5D
$GPGSA,A,3,01,08,10,16,21,23,,,,,,,2.2,1.3,1.8,1*29
$GPGSV,2,1,06,01,16,255,50,08,73,299,57,10,56,076,47,16,26,182,44,1*64
$GPGSV,2,2,06,21,45,263,52,23,27,048,46,,,,,,,,,1*6A
$GPRMC,000111.00,A,4852.4572762,N,00217.6101432,E,31.26,115.29,180502,0.0,E,A*09
$GPGGA,000111.00,4852.4572762,N,00217.6101432,E,1,06,1.0,-9.001,M,0.000,M,0.0,*5A
$GPGSA,A,3,01,08,10,16,21,23,,,,,,,2.2,1.3,1.8,1*29
$GPGSV,2,1,06,01,16,255,53,08,73,299,49,10,56,076,54,16,26,182,42,1*6C
$GPGSV,2,2,06,21,45,263,58,23,27,048,41,,,,,,,,,1*67
$GPRMC,000112.00,A,4852.4549102,N,00217.6202806,E,32.72,115.69,180502,0.0,E,A*0F
$GPGGA,000112.00,4852.4549102,N,00217.6202806,E,1,06,1.0,-4.981,M,0.000,M,0.0,*56
$GPGSA,A,3,01,08,10,16,21,23,,,,,,,2.2,1.3,1.8,1*29
$GPGSV,2,1,06,01,16,255,50,08,73,299,47,10,56,076,57,16,26,182,49,1*69
$GPGSV,2,2,06,21,45,263,59,23,27,048,48,,,,,,,,,1*6F
$GPRMC,000113.00,A,4852.4496339,N,00217.6335973,E,31.42,115.03,180502,0.0,E,A*0D
$GPGGA,000113.00,4852.4496339,N,00217.6335973,E,1,06,1.0,-3.915,M,0.000,M,0.0,*52
$GPGSA,A,3,01,08,10,16,21,23,,,,,,,2.2,1.3,1.8,1*29
$GPGSV,2,1,06,01,16,255,47,08,73,299,48,10,56,076,55,16,26,182,48,1*63
$GPGSV,2,2,06,21,45,263,53,23,27,048,49,,,,,,,,,1*64
$GPRMC,000114.00,A,4852.4455822,N,00217.6443316,E,22.92,109.64,180502,0.0,E,A*08
$GPGGA,000114.00,4852.4455822,N,00217.6443316,E,1,06,1.0,0.791,M,0.000,M,0.0,*78
$GPGSA,A,3,01,08,10,16,21,23,,,,,,,2.2,1.3,1.8,1*29
$GPGSV,2,1,06,01,16,255,44,08,73,299,45,10,56,076,51,16,26,182,44,1*65
$GPGSV,2,2,06,21,45,263,48,23,27,048,44,,,,,,,,,1*63
$GPRMC,000115.00,A,4852.4464707,N,00217.6526244,E,13.63,109.25,180502,0.0,E,A*0E
$GPGGA,000115.00,4852.4464707,N,00217.6526244,E,1,06,1.0,-11.113,M,0.000,M,0.0,*66
$GPGSA,A,3,01,08,10,16,21,23,,,,,,,2.2,1.3,1.8,1*29
$GPGSV,2,1,06,01,16,255,39,08,73,299,46,10,56,076,45,16,26,182,39,1*63
$GPGSV,2,2,06,21,45,263,44,23,27,048,39,,,,,,,,,1*65
$GPRMC,000116.00,A,4852.4457434,N,00217.6563687,E,9.39,61.78,180502,0.0,E,A*07
$GPGGA,000116.00,4852.4457434,N,00217.6563687,E,1,06,1.0,-8.012,M,0.000,M,0.0,*54
$GPGSA,A,3,01,08,10,16,21,23,,,,,,,2.2,1.3,1.8,1*29
$GPGSV,2,1,06,01,16,255,36,08,73,298,46,10,56,076,42,16,26,182,36,1*65
$GPGSV,2,2,06,21,45,263,41,23,27,048,36,,,,,,,,,1*6F
$GPRMC,000117.00,A,4852.4470953,N,00217.6622772,E,21.14,66.70,180502,0.0,E,A*38
$GPGGA,000117.00,4852.4470953,N,00217.6622772,E,1,06,1.0,-4.963,M,0.000,M,0.0,*52
$GPGSA,A,3,01,08,10,16,21,23,,,,,,,2.2,1.3,1.8,1*29
$GPGSV,2,1,06,01,16,255,35,08,73,298,57,10,56,076,36,16,26,182,35,1*66
$GPGSV,2,2,06,21,45,263,36,23,27,048,35,,,,,,,,,1*6C
$GPRMC,000118.00,A,4852.4524849,N,00217.6703243,E,32.07,56.71,180502,0.0,E,A*3A
$GPGGA,000118.00,4852.4524849,N,00217.6703243,E,1,06,1.0,-10.667,M,0.000,M,0.0,*6C
$GPGSA,A,3,01,08,10,16,21,23,,,,,,,2.2,1.3,1.8,1*29
$GPGSV,2,1,06,01,16,255,35,08,73,298,54,10,56,076,35,16,26,182,35,1*66
$GPGSV,2,2,06,21,45,263,35,23,27,048,35,,,,,,,,,1*6F
$GPRMC,000119.00,A,4852.4519169,N,00217.6842533,E,27.92,69.47,180502,0.0,E,A*35
$GPGGA,000119.00,4852.4519169,N,00217.6842533,E,1,06,1.0,-6.886,M,0.000,M,0.0,*54
$GPGSA,A,3,01,08,10,16,21,23,,,,,,,2.2,1.3,1.8,1*29
$GPGSV,2,1,06,01,16,255,35,08,74,298,50,10,56,076,35,16,26,182,35,1*65
$GPGSV,2,2,06,21,45,263,35,23,27,048,35,,,,,,,,,1*6F
$GPRMC,000121.00,A,4852.4558703,N,00217.6980894,E,19.40,98.56,180502,0.0,E,A*32
$GPGGA,000121.00,4852.4558703,N,00217.6980894,E,1,04,1.0,-18.330,M,0.000,M,0.0,*64
$GPGSA,A,3,08,10,16,21,,,,,,,,,9.0,3.8,8.2,1*2A
$GPGSV,1,1,04,08,74,298,54,10,56,076,38,16,26,182,35,21,45,263,37,1*6E
$GPRMC,000122.00,A,4852.4646283,N,00217.7063816,E,18.22,88.77,180502,0.0,E,A*38
$GPGGA,000122.00,4852.4646283,N,00217.7063816,E,1,04,1.0,-58.530,M,0.000,M,0.0,*6B
$GPGSA,A,3,08,10,16,21,,,,,,,,,9.0,3.8,8.2,1*2A
$GPGSV,1,1,04,08,74,298,52,10,56,076,38,16,26,182,36,21,45,263,38,1*64
$GPRMC,000123.00,A,4852.4626501,N,00217.7157840,E,21.40,100.26,180502,0.0,E,A*0C
$GPGGA,000123.00,4852.4626501,N,00217.7157840,E,1,04,1.0,-61.769,M,0.000,M,0.0,*60
$GPGSA,A,3,08,10,16,21,,,,,,,,,9.0,3.8,8.2,1*2A
$GPGSV,1,1,04,08,74,298,51,10,56,076,42,16,26,182,38,21,45,263,40,1*6B
$GPRMC,000124.00,A,4852.4392618,N,00217.7127263,E,20.27,115.72,180502,0.0,E,A*03
$GPGGA,000124.00,4852.4392618,N,00217.7127263,E,1,04,1.0,-10.325,M,0.000,M,0.0,*60
$GPGSA,A,3,08,10,16,21,,,,,,,,,9.0,3.8,8.2,1*2A
$GPGSV,1,1,04,08,74,298,47,10,56,076,48,16,26,182,44,21,45,263,46,1*6B
$GPRMC,000125.00,A,4852.4319771,N,00217.7304627,E,18.90,115.29,180502,0.0,E,A*01
$GPGGA,000125.00,4852.4319771,N,00217.7304627,E,1,04,1.0,23.301,M,0.000,M,0.0,*40
$GPGSA,A,3,08,10,16,21,,,,,,,,,9.0,3.8,8.2,1*2A
$GPGSV,1,1,04,08,74,298,52,10,56,076,49,16,26,182,45,21,45,263,52,1*6A
$GPRMC,000126.00,A,4852.4380009,N,00217.7378397,E,14.54,126.30,180502,0.0,E,A*03
$GPGGA,000126.00,4852.4380009,N,00217.7378397,E,1,04,1.0,6.863,M,0.000,M,0.0,*76
$GPGSA,A,3,08,10,16,21,,,,,,,,,9.0,3.8,8.2,1*2A
$GPGSV,1,1,04,08,74,298,52,10,56,076,46,16,26,182,41,21,45,263,45,1*67
$GPRMC,000127.00,A,4852.4411495,N,00217.7386396,E,21.26,147.95,180502,0.0,E,A*07
$GPGGA,000127.00,4852.4411495,N,00217.7386396,E,1,04,1.0,-13.824,M,0.000,M,0.0,*63
$GPGSA,A,3,08,10,16,21,,,,,,,,,9.0,3.8,8.2,1*2A
$GPGSV,1,1,04,08,74,298,50,10,56,076,40,16,26,182,39,21,45,263,39,1*67
$GPRMC,000128.00,A,4852.4281797,N,00217.7442086,E,19.69,152.11,180502,0.0,E,A*03
$GPGGA,000128.00,4852.4281797,N,00217.7442086,E,1,04,1.0,21.069,M,0.000,M,0.0,*42
$GPGSA,A,3,08,10,16,21,,,,,,,,,9.0,3.8,8.1,1*29
$GPGSV,1,1,04,08,74,298,52,10,56,076,38,16,26,182,36,21,45,263,38,1*64
$GPRMC,000129.00,A,4852.4321242,N,00217.7486325,E,40.61,171.13,180502,0.0,E,A*01
$GPGGA,000129.00,4852.4321242,N,00217.7486325,E,1,04,1.0,-2.680,M,0.000,M,0.0,*5A
$GPGSA,A,3,08,10,16,21,,,,,,,,,9.0,3.8,8.1,1*29
$GPGSV,1,1,04,08,74,298,46,10,56,076,36,16,26,182,36,21,45,263,36,1*61
$GPRMC,000130.00,A,4852.4220761,N,00217.7501032,E,21.12,161.72,180502,0.0,E,A*03
$GPGGA,000130.00,4852.4220761,N,00217.7501032,E,1,04,1.0,10.674,M,0.000,M,0.0,*48
$GPGSA,A,3,08,10,16,21,,,,,,,,,9.0,3.8,8.1,1*29
$GPGSV,1,1,04,08,74,298,43,10,56,076,35,16,26,182,36,21,45,263,35,1*64
$GPRMC,000131.00,A,4852.4177506,N,00217.7492082,E,21.96,174.49,180502,0.0,E,A*00
$GPGGA,000131.00,4852.4177506,N,00217.7492082,E,1,04,1.0,14.852,M,0.000,M,0.0,*45
$GPGSA,A,3,08,10,16,21,,,,,,,,,9.0,3.8,8.1,1*29
$GPGSV,1,1,04,08,74,298,57,10,56,076,35,16,26,182,35,21,45,263,35,1*62
$GPRMC,000142.00,A,4852.3844666,N,00217.8209428,E,12.69,243.86,180502,0.0,E,A*04
$GPGGA,000142.00,4852.3844666,N,00217.8209428,E,1,04,1.0,-19.669,M,0.000,M,0.0,*63
$GPGSA,A,3,08,10,21,23,,,,,,,,,5.9,4.5,3.8,1*22
$GPGSV,1,1,04,08,74,298,50,10,56,076,38,21,45,263,36,23,27,048,35,1*6B
$GPRMC,000143.00,A,4852.3726820,N,00217.8192832,E,28.40,210.76,180502,0.0,E,A*0F
$GPGGA,000143.00,4852.3726820,N,00217.8192832,E,1,04,1.0,-17.207,M,0.000,M,0.0,*61
$GPGSA,A,3,08,10,21,23,,,,,,,,,5.9,4.5,3.8,1*22
$GPGSV,1,1,04,08,74,298,49,10,56,076,36,21,45,263,36,23,27,048,34,1*6C
$GPRMC,000144.00,A,4852.3612053,N,00217.8071062,E,34.25,227.40,180502,0.0,E,A*0C
$GPGGA,000144.00,4852.3612053,N,00217.8071062,E,1,04,1.0,-31.255,M,0.000,M,0.0,*6E
$GPGSA,A,3,08,10,21,23,,,,,,,,,5.9,4.5,3.8,1*22
$GPGSV,1,1,04,08,74,298,48,10,56,076,37,21,45,263,36,23,27,048,35,1*6D
$GPRMC,000154.00,A,4852.3398358,N,00217.6914114,E,34.21,282.44,180502,0.0,E,A*09
$GPGGA,000154.00,4852.3398358,N,00217.6914114,E,1,04,1.0,1.726,M,0.000,M,0.0,*7B
$GPGSA,A,3,08,10,16,21,,,,,,,,,8.9,3.8,8.1,1*21
$GPGSV,1,1,04,08,74,298,52,10,55,075,53,16,26,182,40,21,45,263,54,1*62
$GPRMC,000155.00,A,4852.3225721,N,00217.6786442,E,33.88,279.05,180502,0.0,E,A*03
$GPGGA,000155.00,4852.3225721,N,00217.6786442,E,1,04,1.0,59.771,M,0.000,M,0.0,*4B
$GPGSA,A,3,08,10,16,21,,,,,,,,,8.9,3.8,8.1,1*21
$GPGSV,1,1,04,08,74,298,52,10,55,075,50,16,26,182,40,21,45,263,52,1*67
$GPRMC,000156.00,A,4852.3626698,N,00217.6563935,E,30.96,275.64,180502,0.0,E,A*07
$GPGGA,000156.00,4852.3626698,N,00217.6563935,E,1,04,1.0,-93.426,M,0.000,M,0.0,*62
$GPGSA,A,3,08,10,16,21,,,,,,,,,8.9,3.8,8.1,1*21
$GPGSV,1,1,04,08,74,298,52,10,55,075,51,16,26,182,41,21,45,263,50,1*65
$GPRMC,000157.00,A,4852.3355583,N,00217.6571258,E,32.55,282.00,180502,0.0,E,A*0A
$GPGGA,000157.00,4852.3355583,N,00217.6571258,E,1,04,1.0,42.710,M,0.000,M,0.0,*4F
$GPGSA,A,3,08,10,16,21,,,,,,,,,8.9,3.8,8.1,1*21
$GPGSV,1,1,04,08,74,298,52,10,55,075,51,16,26,182,41,21,45,263,50,1*65
$GPRMC,000158.00,A,4852.3579513,N,00217.6370608,E,32.66,294.12,180502,0.0,E,A*06
$GPGGA,000158.00,4852.3579513,N,00217.6370608,E,1,04,1.0,-61.222,M,0.000,M,0.0,*6F
$GPGSA,A,3,08,10,16,21,,,,,,,,,8.9,3.8,8.1,1*21
$GPGSV,1,1,04,08,74,298,56,10,55,075,47,16,26,182,40,21,45,263,47,1*61
$GPRMC,000159.00,A,4852.3461080,N,00217.6301437,E,39.88,315.73,180502,0.0,E,A*0C
$GPGGA,000159.00,4852.3461080,N,00217.6301437,E,1,04,1.0,10.676,M,0.000,M,0.0,*4F
$GPGSA,A,3,08,10,16,21,,,,,,,,,8.9,3.8,8.0,1*20
$GPGSV,1,1,04,08,74,298,50,10,55,075,42,16,26,182,44,21,45,263,40,1*61
$GPRMC,000200.00,A,4852.3498392,N,00217.6179709,E,38.98,316.44,180502,0.0,E,A*01
$GPGGA,000200.00,4852.3498392,N,00217.6179709,E,1,04,1.0,13.234,M,0.000,M,0.0,*44
$GPGSA,A,3,08,10,16,21,,,,,,,,,8.9,3.8,8.0,1*20
$GPGSV,1,1,04,08,74,298,47,10,55,075,40,16,26,182,46,21,45,263,39,1*69
$GPRMC,000201.00,A,4852.3600030,N,00217.6126105,E,35.66,322.71,180502,0.0,E,A*05
$GPGGA,000201.00,4852.3600030,N,00217.6126105,E,1,04,1.0,-19.826,M,0.000,M,0.0,*63
$GPGSA,A,3,08,10,16,21,,,,,,,,,8.9,3.8,8.0,1*20
$GPGSV,1,1,04,08,74,298,55,10,55,075,47,16,26,182,43,21,45,263,45,1*63
$GPRMC,000202.00,A,4852.3627571,N,00217.6055390,E,22.71,310.18,180502,0.0,E,A*06
$GPGGA,000202.00,4852.3627571,N,00217.6055390,E,1,04,1.0,0.750,M,0.000,M,0.0,*75
$GPGSA,A,3,08,10,16,21,,,,,,,,,8.9,3.8,8.0,1*20
$GPGSV,1,1,04,08,74,298,56,10,55,075,49,16,26,182,45,21,45,263,46,1*6B
$GPRMC,000203.00,A,4852.3410641,N,00217.5984968,E,25.71,315.06,180502,0.0,E,A*07
$GPGGA,000203.00,4852.3410641,N,00217.5984968,E,1,04,1.0,135.563,M,0.000,M,0.0,*7C
$GPGSA,A,3,08,10,16,21,,,,,,,,,8.9,3.8,8.0,1*20
$GPGSV,1,1,04,08,74,298,51,10,55,075,46,16,26,182,44,21,45,263,46,1*62
$GPRMC,000204.00,A,4852.3668317,N,00217.5944028,E,33.30,327.96,180502,0.0,E,A*00
$GPGGA,000204.00,4852.3668317,N,00217.5944028,E,1,04,1.0,38.185,M,0.000,M,0.0,*41
$GPGSA,A,3,08,10,16,21,,,,,,,,,8.9,3.8,8.0,1*20
$GPGSV,1,1,04,08,74,298,49,10,55,075,52,16,26,182,37,21,45,263,49,1*65
$GPRMC,000205.00,A,4852.3845485,N,00217.5849675,E,29.94,329.47,180502,0.0,E,A*09
$GPGGA,000205.00,4852.3845485,N,00217.5849675,E,1,04,1.0,-12.697,M,0.000,M,0.0,*6E
$GPGSA,A,3,08,10,16,21,,,,,,,,,8.9,3.8,8.0,1*20
$GPGSV,1,1,04,08,74,298,53,10,55,075,49,16,26,182,37,21,45,263,48,1*65
$GPRMC,000206.00,A,4852.3779672,N,00217.5793322,E,36.27,342.09,180502,0.0,E,A*0E
$GPGGA,000206.00,4852.3779672,N,00217.5793322,E,1,04,1.0,56.277,M,0.000,M,0.0,*4F
$GPGSA,A,3,08,10,16,21,,,,,,,,,8.9,3.8,8.0,1*20
$GPGSV,1,1,04,08,74,298,53,10,55,075,46,16,26,182,44,21,45,263,44,1*62
$GPRMC,000207.00,A,4852.3968419,N,00217.5757516,E,29.65,337.76,180502,0.0,E,A*05
$GPGGA,000207.00,4852.3968419,N,00217.5757516,E,1,04,1.0,-3.843,M,0.000,M,0.0,*56
$GPGSA,A,3,08,10,16,21,,,,,,,,,8.9,3.8,8.0,1*20
$GPGSV,1,1,04,08,74,298,54,10,55,075,46,16,26,182,46,21,45,263,45,1*66
$GPRMC,000208.00,A,4852.4158884,N,00217.5673910,E,32.03,351.92,180502,0.0,E,A*03
$GPGGA,000208.00,4852.4158884,N,00217.5673910,E,1,04,1.0,-21.676,M,0.000,M,0.0,*68
$GPGSA,A,3,08,10,16,21,,,,,,,,,8.9,3.8,8.0,1*20
$GPGSV,1,1,04,08,74,298,50,10,55,075,45,16,26,182,46,21,45,263,43,1*67
$GPRMC,000209.00,A,4852.4201831,N,00217.5673743,E,34.83,350.23,180502,0.0,E,A*0E
$GPGGA,000209.00,4852.4201831,N,00217.5673743,E,1,04,1.0,-35.094,M,0.000,M,0.0,*6F
$GPGSA,A,3,08,10,16,21,,,,,,,,,8.9,3.8,8.0,1*20
$GPGSV,1,1,04,08,74,298,53,10,55,075,45,16,26,182,46,21,45,263,44,1*63
$GPRMC,000210.00,A,4852.4291640,N,00217.5660847,E,28.51,354.93,180502,0.0,E,A*03
$GPGGA,000210.00,4852.4291640,N,00217.5660847,E,1,04,1.0,-32.497,M,0.000,M,0.0,*6F
$GPGSA,A,3,08,10,16,21,,,,,,,,,8.9,3.8,8.0,1*20
$GPGSV,1,1,04,08,74,298,53,10,55,075,46,16,26,182,47,21,45,263,45,1*60
$GPRMC,000211.00,A,4852.4388315,N,00217.5667542,E,32.61,1.44,180502,0.0,E,A*00
$GPGGA,000211.00,4852.4388315,N,00217.5667542,E,1,04,1.0,-16.999,M,0.000,M,0.0,*68
$GPGSA,A,3,08,10,16,21,,,,,,,,,8.9,3.8,8.0,1*20
$GPGSV,1,1,04,08,74,298,49,10,55,075,44,16,26,182,46,21,45,263,42,1*6F
$GPRMC,000212.00,A,4852.4381195,N,00217.5681765,E,32.05,7.28,180502,0.0,E,A*01
$GPGGA,000212.00,4852.4381195,N,00217.5681765,E,1,05,1.0,-18.346,M,0.000,M,0.0,*60
$GPGSA,A,3,08,10,16,21,23,,,,,,,,3.0,1.6,2.6,1*23
$GPGSV,2,1,05,08,74,298,48,10,55,075,44,16,26,182,46,21,45,263,41,1*6F
$GPGSV,2,2,05,23,27,047,41,,,,,,,,,,,,,1*53
$GPRMC,000213.00,A,4852.4561042,N,00217.5675650,E,26.17,15.83,180502,0.0,E,A*3B
$GPGGA,000213.00,4852.4561042,N,00217.5675650,E,1,05,1.0,-25.250,M,0.000,M,0.0,*66
$GPGSA,A,3,08,10,16,21,23,,,,,,,,3.0,1.6,2.6,1*23
$GPGSV,2,1,05,08,74,298,47,10,55,075,45,16,26,182,42,21,45,263,43,1*67
$GPGSV,2,2,05,23,27,047,43,,,,,,,,,,,,,1*51
$GPRMC,000214.00,A,4852.4559216,N,00217.5726415,E,20.05,14.37,180502,0.0,E,A*3B
$GPGGA,000214.00,4852.4559216,N,00217.5726415,E,1,05,1.0,-7.737,M,0.000,M,0.0,*59
$GPGSA,A,3,08,10,16,21,23,,,,,,,,3.0,1.6,2.6,1*23
$GPGSV,2,1,05,08,74,298,47,10,55,075,48,16,26,182,36,21,45,263,48,1*62
$GPGSV,2,2,05,23,27,047,39,,,,,,,,,,,,,1*5C
$GPRMC,000215.00,A,4852.4598040,N,00217.5768695,E,8.91,7.07,180502,0.0,E,A*30
$GPGGA,000215.00,4852.4598040,N,00217.5768695,E,1,05,1.0,-4.325,M,0.000,M,0.0,*50
$GPGSA,A,3,08,10,16,21,23,,,,,,,,3.0,1.6,2.6,1*23
$GPGSV,2,1,05,08,74,298,50,10,55,075,42,16,26,182,35,21,45,263,44,1*61
$GPGSV,2,2,05,23,27,047,36,,,,,,,,,,,,,1*53
$GPRMC,000216.00,A,4852.4622018,N,00217.5742770,E,2.76,46.25,180502,0.0,E,A*08
$GPGGA,000216.00,4852.4622018,N,00217.5742770,E,1,05,1.0,-3.109,M,0.000,M,0.0,*55
$GPGSA,A,3,08,10,16,21,23,,,,,,,,3.0,1.6,2.6,1*23
$GPGSV,2,1,05,08,74,298,50,10,55,075,41,16,26,182,34,21,45,263,41,1*66
$GPGSV,2,2,05,23,27,047,35,,,,,,,,,,,,,1*50
$GPRMC,000217.00,A,4852.4584670,N,00217.5730716,E,1.97,118.95,180502,0.0,E,A*36
$GPGGA,000217.00,4852.4584670,N,00217.5730716,E,1,05,1.0,5.972,M,0.000,M,0.0,*79
$GPGSA,A,3,08,10,16,21,23,,,,,,,,3.0,1.6,2.6,1*23
$GPGSV,2,1,05,08,74,298,53,10,55,075,46,16,26,182,37,21,45,263,45,1*65
$GPGSV,2,2,05,23,27,047,38,,,,,,,,,,,,,1*5D
$GPRMC,000218.00,A,4852.4624421,N,00217.5714391,E,1.40,118.95,180502,0.0,E,A*31
$GPGGA,000218.00,4852.4624421,N,00217.5714391,E,1,05,1.0,-8.125,M,0.000,M,0.0,*5E
$GPGSA,A,3,08,10,16,21,23,,,,,,,,3.0,1.6,2.6,1*23
$GPGSV,2,1,05,08,74,298,56,10,55,075,54,16,26,182,49,21,45,263,51,1*6F
$GPGSV,2,2,05,23,27,047,48,,,,,,,,,,,,,1*5A
$GPRMC,000219.00,A,4852.4610367,N,00217.5737296,E,0.63,118.95,180502,0.0,E,A*35
$GPGGA,000219.00,4852.4610367,N,00217.5737296,E,1,05,1.0,-1.682,M,0.000,M,0.0,*59
$GPGSA,A,3,08,10,16,21,23,,,,,,,,3.0,1.6,2.6,1*23
$GPGSV,2,1,05,08,74,298,56,10,55,075,53,16,26,182,52,21,45,263,52,1*61
$GPGSV,2,2,05,23,27,047,51,,,,,,,,,,,,,1*52
$GPRMC,000220.00,A,4852.4599684,N,00217.5742306,E,1.31,118.95,180502,0.0,E,A*39
$GPGGA,000220.00,4852.4599684,N,00217.5742306,E,1,05,1.0,1.972,M,0.000,M,0.0,*7E
$GPGSA,A,3,08,10,16,21,23,,,,,,,,3.0,1.6,2.6,1*23
$GPGSV,2,1,05,08,74,298,56,10,55,075,53,16,26,182,52,21,45,263,54,1*67
$GPGSV,2,2,05,23,27,047,50,,,,,,,,,,,,,1*53
$GPRMC,000221.00,A,4852.4631611,N,00217.5713599,E,0.82,118.95,180502,0.0,E,A*38
$GPGGA,000221.00,4852.4631611,N,00217.5713599,E,1,05,1.0,-5.758,M,0.000,M,0.0,*59
$GPGSA,A,3,08,10,16,21,23,,,,,,,,3.0,1.6,2.6,1*23
$GPGSV,2,1,05,08,74,298,57,10,55,075,54,16,26,182,51,21,45,263,55,1*63
$GPGSV,2,2,05,23,27,047,51,,,,,,,,,,,,,1*52
$GPRMC,000222.00,A,4852.4626237,N,00217.5690050,E,0.84,118.95,180502,0.0,E,A*31
$GPGGA,000222.00,4852.4626237,N,00217.5690050,E,1,05,1.0,-2.553,M,0.000,M,0.0,*58
$GPGSA,A,3,08,10,16,21,23,,,,,,,,3.0,1.6,2.6,1*23
$GPGSV,2,1,05,08,74,298,55,10,55,075,54,16,26,182,51,21,45,263,54,1*60
$GPGSV,2,2,05,23,27,047,50,,,,,,,,,,,,,1*53
