     2.11           OBSERVATION DATA    G                   RINEX VERSION / TYPE
BLANK OR G = GPS,  R = GLONASS,  E = GALILEO,  M = MIXED    COMMENT             
GNSS-SDR            joel                 5-MAY-25 07:27     PGM / RUN BY / DATE 
GPS OBSERVATION DATA FILE GENERATED BY GNSS-SDR             COMMENT             
GNSS-SDR VERSION 0.0.16                                     COMMENT             
See https://gnss-sdr.org                                    COMMENT             
DEFAULT MARKER NAME                                         MARKER NAME         
joel                CTTC                                    OBSERVER / AGENCY   
GNSS-SDR            Software Receiver   0.0.16              REC # / TYPE / VERS 
Antenna number      Antenna type                            ANT # / TYPE        
        0.0000        0.0000        0.0000                  APPROX POSITION XYZ 
        0.0000        0.0000        0.0000                  ANTENNA: DELTA H/E/N
     1     1                                                WAVELENGTH FACT L1/2
     4    C1    L1    D1    S1                              # / TYPES OF OBSERV 
  2002    05    18    00    00   42.1200000     GPS         TIME OF FIRST OBS   
    18                                                      LEAP SECONDS        
                                                            END OF HEADER       
 02  5 18 00 00 43.0000000  0  8G01G23G21G16G27G10G07G08                        
  23763590.575 7 124878514.381 7      3399.658 7        46.685                  
  23001127.120 8 120871743.352 8     -2818.427 8        49.976                  
  21783585.538 8 114473515.344 8      1786.659 8        53.265                  
  23471245.318 8 123342230.695 8     -3662.956 8        49.410                  
  20479410.894 9 107619991.069 9     -1372.553 9        54.601                  
  21313658.628 9 112004039.667 9      -798.323 9        54.380                  
  24961618.666 7 131174189.514 7     -1906.862 7        45.649                  
  20445704.806 9 107442908.360 9       868.245 9        55.798                  
 02  5 18 00 00 44.0000000  0  8G01G23G21G16G27G10G07G08                        
  23762945.646 7 124875117.259 7      3394.707 7        46.775                  
  23001664.781 8 120874562.620 8     -2818.295 8        50.208                  
  21783249.386 9 114471728.133 9      1786.417 9        54.226                  
  23471943.979 8 123345894.470 8     -3663.464 8        50.499                  
  20479668.458 9 107621363.668 9     -1372.077 9        54.967                  
  21313811.176 8 112004838.024 8      -799.547 8        53.922                  
  24961982.050 7 131176094.041 7     -1909.754 7        46.112                  
  20445541.823 9 107442040.516 9       867.788 9        56.825                  
 02  5 18 00 00 45.0000000  0  8G01G23G21G16G27G10G07G08                        
  23762299.020 7 124871720.310 7      3394.051 7        47.506                  
  23002198.940 8 120877382.250 8     -2818.290 8        51.046                  
  21782906.747 8 114469941.232 8      1786.936 8        53.223                  
  23472640.942 8 123349558.442 8     -3662.052 8        50.284                  
  20479926.022 9 107622736.746 9     -1373.059 9        54.564                  
  21313963.009 9 112005637.022 9      -798.024 9        54.604                  
  24962342.700 7 131177998.923 7     -1904.920 7        46.797                  
  20445380.215 9 107441173.149 9       867.241 9        57.366                  
 02  5 18 00 00 46.0000000  0  8G01G23G21G16G27G10G07G08                        
  23761651.250 8 124868323.515 8      3395.413 8        48.423                  
  23002736.494 8 120880202.292 8     -2822.655 8        50.578                  
  21782563.591 8 114468154.641 8      1786.859 8        53.641                  
  23473337.655 8 123353222.599 8     -3665.622 8        49.296                  
  20480191.467 9 107624110.299 9     -1374.453 9        56.653                  
  21314115.217 9 112006436.619 9      -799.387 9        54.139                  
  24962709.087 7 131179904.164 7     -1905.526 7        45.001                  
  20445215.677 9 107440306.259 9       866.657 9        56.303                  
 02  5 18 00 00 47.0000000  0  8G01G23G21G16G27G10G07G08                        
  23761005.731 7 124864926.872 7      3392.826 7        47.629                  
  23003272.493 8 120883022.723 8     -2822.778 8        49.775                  
  21782227.296 8 114466368.352 8      1785.596 8        52.254                  
  23474035.762 8 123356886.951 8     -3665.607 8        50.498                  
  20480456.393 9 107625484.328 9     -1375.051 9        56.419                  
  21314268.426 8 112007236.812 8      -801.053 8        53.804                  
  24963068.451 7 131181809.745 7     -1907.404 7        45.938                  
  20445048.388 9 107439439.823 9       865.998 9        55.627                  
 02  5 18 00 00 48.0000000  0  8G01G23G21G16G27G10G07G08                        
  23760360.123 7 124861530.391 7      3396.570 7        47.361                  
  23003811.905 8 120885843.546 8     -2822.545 8        50.780                  
  21781887.784 8 114464582.358 8      1785.174 8        52.285                  
  23474732.958 8 123360551.505 8     -3664.554 8        50.447                  
  20480713.617 9 107626858.836 9     -1375.233 9        56.870                  
  21314420.188 9 112008037.612 9      -801.065 9        56.888                  
  24963433.175 7 131183715.684 7     -1905.934 7        46.250                  
  20444880.991 9 107438573.862 9       864.958 9        57.933                  
 02  5 18 00 00 49.0000000  0  8G01G23G21G16G27G10G07G08                        
  23759712.157 8 124858134.069 8      3396.769 8        49.099                  
  23004345.796 8 120888664.780 8     -2821.046 8        49.421                  
  21781545.592 8 114462796.662 8      1785.497 8        53.598                  
  23475429.636 8 123364216.251 8     -3667.130 8        50.705                  
  20480971.825 9 107628233.820 9     -1375.932 9        56.118                  
  21314573.522 9 112008839.055 9      -802.222 9        57.283                  
  24963795.130 7 131185621.983 7     -1907.274 7        46.822                  
  20444713.254 9 107437708.377 9       865.601 9        57.248                  
 02  5 18 00 00 50.0000000  0  8G01G23G21G16G27G10G07G08                        
  23759066.335 7 124854737.906 7      3396.929 7        47.095                  
  23004883.796 8 120891486.407 8     -2822.126 8        49.606                  
  21781204.973 8 114461011.265 8      1787.110 8        53.317                  
  23476128.439 8 123367881.173 8     -3665.717 8        48.822                  
  20481238.323 9 107629609.281 9     -1375.562 9        57.572                  
  21314726.070 9 112009641.095 9      -801.916 9        56.273                  
  24964157.050 7 131187528.626 7     -1905.264 7        47.789                  
  20444545.267 9 107436843.361 9       864.889 9        58.658                  
 02  5 18 00 00 51.0000000  0  8G01G23G21G16G27G10G07G08                        
  23758421.620 7 124851341.914 7      3393.945 7        47.524                  
  23005422.226 8 120894308.419 8     -2821.817 8        49.868                  
  21780869.393 8 114459226.167 8      1783.618 8        53.154                  
  23476824.831 8 123371546.307 8     -3665.742 8        50.492                  
  20481503.232 9 107630985.217 9     -1375.004 9        54.925                  
  21314878.957 9 112010443.732 9      -802.751 9        54.767                  
  24964522.918 7 131189435.629 7     -1906.476 7        47.338                  
  20444381.391 9 107435978.807 9       863.699 9        54.644                  
 02  5 18 00 00 52.0000000  0  8G01G23G21G16G27G10G07G08                        
  23757774.351 8 124847946.068 8      3397.270 8        48.302                  
  23005957.170 8 120897130.815 8     -2822.212 8        51.386                  
  21780530.257 8 114457441.363 8      1784.993 8        51.515                  
  23477522.152 8 123375211.640 8     -3666.270 8        49.680                  
  20481760.438 9 107632361.632 9     -1376.842 9        58.315                  
  21315031.934 9 112011246.989 9      -804.177 9        54.028                  
  24964882.460 7 131191342.991 7     -1911.226 7        46.035                  
  20444219.229 9 107435114.730 9       864.513 9        56.363                  
 02  5 18 00 00 53.0000000  0  8G01G23G21G16G27G10G07G08                        
  23757127.170 7 124844550.395 7      3392.973 7        47.983                  
  23006496.904 8 120899953.603 8     -2823.638 8        49.663                  
  21780186.189 8 114455656.858 8      1784.912 8        51.854                  
  23478221.009 8 123378877.143 8     -3662.337 8        49.510                  
  20482019.307 9 107633738.523 9     -1377.540 9        56.583                  
  21315184.839 9 112012050.876 9      -805.068 9        55.027                  
  24965249.383 7 131193250.699 7     -1908.668 7        46.803                  
  20444056.979 9 107434251.131 9       863.389 9        57.117                  
 02  5 18 00 00 54.0000000  0  8G01G23G21G16G27G10G07G08                        
  23756482.563 7 124841154.880 7      3394.634 7        46.982                  
  23007032.135 8 120902776.776 8     -2824.037 8        50.436                  
  21779846.999 8 114453872.667 8      1784.016 8        53.871                  
  23478916.865 8 123382542.856 8     -3665.988 8        50.116                  
  20482286.270 9 107635115.891 9     -1377.773 9        57.165                  
  21315338.173 9 112012855.360 9      -805.134 9        54.010                  
  24965609.104 7 131195158.759 7     -1906.393 7        46.841                  
  20443895.210 9 107433388.008 9       863.162 9        54.952                  
 02  5 18 00 00 55.0000000  0  8G01G23G21G16G27G10G07G08                        
  23755836.777 8 124837759.515 8      3394.896 8        48.817                  
  23007570.672 8 120905600.340 8     -2822.347 8        49.874                  
  21779511.633 8 114452088.796 8      1782.392 8        53.361                  
  23479614.686 8 123386208.755 8     -3667.144 8        49.608                  
  20482551.643 9 107636493.736 9     -1377.771 9        56.685                  
  21315491.203 9 112013660.441 9      -805.409 9        54.167                  
  24965973.632 7 131197067.174 7     -1908.903 7        47.058                  
  20443734.175 9 107432525.338 9       862.139 9        56.856                  
 02  5 18 00 00 56.0000000  0  8G01G23G21G16G27G10G07G08                        
  23755189.400 7 124834364.319 7      3392.529 7        46.765                  
  23008107.868 8 120908424.322 8     -2824.753 8        51.899                  
  21779171.585 9 114450305.209 9      1782.475 9        54.234                  
  23480314.133 7 123389874.845 7     -3668.111 7        47.430                  
  20482808.939 9 107637872.057 9     -1378.185 9        56.023                  
  21315644.788 9 112014466.138 9      -806.160 9        54.596                  
  24966337.553 7 131198975.942 7     -1904.872 7        46.365                  
  20443571.674 9 107431663.145 9       861.547 9        56.023                  
 02  5 18 00 00 57.0000000  0  8G01G23G21G16G27G10G07G08                        
  23754544.686 8 124830969.285 8      3396.002 8        48.683                  
  23008644.314 8 120911248.685 8     -2824.430 8        50.932                  
  21778828.107 8 114448521.933 8      1784.756 8        51.746                  
  23481009.560 7 123393541.124 7     -3663.701 7        47.426                  
  20483068.219 9 107639250.856 9     -1378.969 9        55.971                  
  21315798.318 9 112015272.470 9      -806.512 9        55.390                  
  24966698.364 7 131200885.067 7     -1912.590 7        45.970                  
  20443405.295 9 107430801.429 9       861.561 9        58.269                  
 02  5 18 00 00 58.0000000  0  8G01G23G21G16G27G10G07G08                        
  23753898.238 8 124827574.403 8      3397.161 8        48.509                  
  23009182.815 8 120914073.446 8     -2825.114 8        50.081                  
  21778490.347 8 114446738.946 8      1783.065 8        51.998                  
  23481707.810 7 123397207.601 7     -3665.658 7        47.745                  
  20483335.611 9 107640630.131 9     -1379.430 9        56.283                  
  21315952.063 9 112016079.397 9      -806.613 9        55.505                  
  24967065.072 7 131202794.535 7     -1911.451 7        45.926                  
  20443239.113 9 107429940.189 9       861.866 9        57.003                  
 02  5 18 00 00 59.0000000  0  8G01G23G21G16G27G10G07G08                        
  23753251.129 8 124824179.693 8      3395.393 8        49.064                  
  23009718.689 8 120916898.586 8     -2824.305 8        49.974                  
  21778155.035 8 114444956.266 8      1782.957 8        50.760                  
  23482406.453 8 123400874.282 8     -3666.668 8        48.538                  
  20483601.162 9 107642009.883 9     -1380.202 9        56.855                  
  21316105.933 9 112016886.921 9      -807.612 9        56.596                  
  24967425.401 7 131204704.368 7     -1910.959 7        44.707                  
  20443072.681 9 107429079.403 9       860.788 9        55.325                  
 02  5 18 00 01  0.0000000  0  8G01G23G21G16G27G10G07G08                        
  23752605.932 8 124820785.135 8      3397.684 8        49.813                  
  23010258.637 8 120919724.103 8     -2826.643 8        51.600                  
  21777813.540 8 114443173.873 8      1780.451 8        52.413                  
  23483102.808 8 123404541.138 8     -3670.334 8        48.679                  
  20483859.030 9 107643390.113 9     -1380.749 9        57.445                  
  21316259.607 9 112017695.078 9      -807.978 9        57.452                  
  24967791.180 7 131206614.536 7     -1908.943 7        46.988                  
  20442905.695 9 107428219.093 9       859.900 9        57.004                  
 02  5 18 00 01  1.0000000  0  8G01G23G21G16G27G10G07G08                        
  23751959.949 8 124817390.734 8      3396.038 8        50.112                  
  23010795.048 8 120922550.020 8     -2823.870 8        49.268                  
  21777470.312 8 114441391.790 8      1782.226 8        53.964                  
  23483801.255 8 123408208.194 8     -3665.179 8        49.373                  
  20484118.703 9 107644770.819 9     -1381.361 9        56.458                  
  21316414.103 9 112018503.852 9      -808.681 9        55.346                  
  24968153.296 7 131208525.075 7     -1912.365 7        47.395                  
  20442740.407 9 107427359.259 9       859.802 9        56.638                  
 02  5 18 00 01  2.0000000  0  8G01G23G21G16G27G10G07G08                        
  23751313.252 8 124813996.503 8      3395.669 8        49.063                  
  23011333.173 8 120925376.329 8     -2824.964 8        50.189                  
  21777134.713 8 114439609.991 8      1782.117 8        50.752                  
  23484499.898 8 123411875.441 8     -3666.627 8        49.139                  
  20484386.256 9 107646152.002 9     -1382.162 9        55.384                  
  21316567.383 9 112019313.225 9      -810.822 9        54.343                  
  24968517.824 7 131210435.945 7     -1912.134 7        45.647                  
  20442578.603 9 107426499.904 9       858.936 9        57.196                  
 02  5 18 00 01  3.0000000  0  8G01G23G21G16G27G10G07G08                        
  23750668.001 8 124810602.425 8      3396.409 8        48.961                  
  23011872.049 8 120928203.043 8     -2826.678 8        50.903                  
  21776798.669 8 114437828.515 8      1781.647 8        51.977                  
  23485196.111 8 123415542.864 8     -3666.804 8        51.019                  
  20484652.254 9 107647533.661 9     -1381.614 9        55.202                  
  21316721.003 9 112020123.192 9      -810.318 9        55.029                  
  24968882.066 7 131212347.184 7     -1910.572 7        44.744                  
  20442416.924 9 107425641.000 9       858.084 9        55.571                  
 02  5 18 00 01  4.0000000  0  8G01G23G21G16G27G10G07G08                        
  23750023.197 8 124807208.501 8      3390.053 8        49.244                  
  23012407.548 8 120931030.149 8     -2826.555 8        53.056                  
  21776456.405 9 114436047.350 9      1780.653 9        54.058                  
  23485895.415 8 123419210.508 8     -3667.960 8        52.150                  
  20484910.908 9 107648915.809 9     -1381.887 9        55.854                  
  21316875.070 9 112020933.780 9      -810.893 9        54.685                  
  24969242.859 7 131214258.774 7     -1910.250 7        45.158                  
  20442255.888 9 107424782.575 9       858.138 9        56.761                  
 02  5 18 00 01  5.0000000  0  8G01G23G21G16G27G10G07G08                        
  23749375.910 8 124803814.759 8      3389.175 8        48.125                  
  23012947.711 8 120933857.640 8     -2827.679 8        51.166                  
  21776115.482 8 114434266.482 8      1779.852 8        53.735                  
  23486593.504 8 123422878.322 8     -3665.980 8        49.198                  
  20485170.598 9 107650298.447 9     -1383.595 9        55.516                  
  21317028.797 9 112021744.999 9      -811.983 9        56.110                  
  24969609.978 7 131216170.713 7     -1912.808 7        45.790                  
  20442094.638 9 107423924.625 9       858.141 9        56.313                  
 02  5 18 00 01  6.0000000  0  8G01G23G21G16G27G10G07G08                        
  23748729.552 8 124800421.163 8      3391.874 8        48.451                  
  23013484.979 8 120936685.498 8     -2827.095 8        48.888                  
  21775779.956 8 114432485.913 8      1779.911 8        52.022                  
  23487290.628 8 123426546.336 8     -3664.359 8        48.782                  
  20485438.026 9 107651681.561 9     -1384.361 9        56.689                  
  21317182.685 9 112022556.814 9      -812.119 9        56.330                  
  24969970.897 7 131218082.992 7     -1910.562 7        46.439                  
  20441934.710 9 107423067.154 9       857.047 9        57.040                  
 02  5 18 00 01  7.0000000  0  8G01G23G21G16G27G10G07G08                        
  23748085.516 8 124797027.716 8      3392.542 8        49.216                  
  23014023.158 8 120939513.762 8     -2827.321 8        48.929                  
  21775443.071 8 114430705.640 8      1779.795 8        52.923                  
  23487989.665 8 123430214.548 8     -3668.239 8        50.144                  
  20485704.632 9 107653065.150 9     -1383.846 9        56.543                  
  21317336.645 9 112023369.226 9      -813.297 9        54.965                  
  24970337.462 7 131219995.640 7     -1914.442 7        46.130                  
  20441772.817 9 107422210.146 9       856.592 9        57.078                  
 02  5 18 00 01  8.0000000  0  8G01G23G21G16G27G10G07G08                        
  23747438.676 8 124793634.460 8      3393.832 8        48.852                  
  23014562.338 8 120942342.417 8     -2828.535 8        49.938                  
  21775100.915 8 114428925.669 8      1778.950 8        52.593                  
  23488687.450 8 123433882.940 8     -3666.765 8        50.791                  
  20485964.519 9 107654449.219 9     -1384.804 9        56.584                  
  21317491.390 9 112024182.271 9      -813.302 9        57.857                  
  24970700.042 8 131221908.639 8     -1914.161 8        48.169                  
  20441607.314 9 107421353.601 9       857.247 9        58.681                  
 02  5 18 00 01  9.0000000  0  8G01G23G21G16G27G10G07G08                        
  23746792.532 8 124790241.346 8      3391.566 8        48.037                  
  23015099.284 8 120945171.476 8     -2829.936 8        50.439                  
  21774760.510 8 114427145.990 8      1780.310 8        53.922                  
  23489384.413 8 123437551.535 8     -3667.071 8        48.443                  
  20486224.085 9 107655833.763 9     -1385.101 9        55.912                  
  21317645.457 9 112024995.930 9      -813.801 9        55.610                  
  24971064.571 8 131223821.982 8     -1912.750 8        48.035                  
  20441442.580 9 107420497.537 9       855.912 9        57.481                  
 02  5 18 00 01 10.0000000  0  8G01G23G21G16G27G10G07G08                        
  23746148.782 8 124786848.386 8      3397.283 8        49.635                  
  23015639.358 8 120948000.930 8     -2828.596 8        50.126                  
  21774425.162 8 114425366.613 8      1779.838 8        53.375                  
  23490083.896 8 123441220.319 8     -3669.535 8        49.552                  
  20486491.101 9 107657218.785 9     -1385.362 9        56.610                  
  21317800.542 9 112025810.190 9      -814.377 9        54.990                  
  24971429.796 8 131225735.682 8     -1914.137 8        48.428                  
  20441277.524 9 107419641.949 9       855.831 9        56.890                  
 02  5 18 00 01 11.0000000  0  8G01G23G21G16G27G10G07G08                        
  23745502.335 7 124783455.607 7      3393.357 7        47.509                  
  23016176.465 8 120950830.753 8     -2827.733 8        50.592                  
  21774088.474 8 114423587.533 8      1779.040 8        51.796                  
  23490781.950 8 123444889.285 8     -3669.779 8        50.925                  
  20486758.511 9 107658604.283 9     -1386.167 9        56.908                  
  21317955.306 9 112026625.045 9      -815.045 9        56.142                  
  24971791.893 8 131227649.729 8     -1913.683 8        48.153                  
  20441111.824 9 107418786.837 9       854.972 9        57.305                  
 02  5 18 00 01 12.0000000  0  8G01G23G21G16G27G10G07G08                        
  23744856.012 8 124780062.970 8      3389.702 8        50.025                  
  23016715.680 8 120953660.963 8     -2829.893 8        50.661                  
  21773745.246 8 114421808.764 8      1779.370 8        53.133                  
  23491479.556 8 123448558.453 8     -3669.286 8        51.392                  
  20487019.739 9 107659990.257 9     -1387.173 9        56.163                  
  21318109.712 9 112027440.512 9      -816.643 9        57.082                  
  24972158.816 7 131229564.130 7     -1918.370 7        47.876                  
  20440946.553 9 107417932.178 9       854.466 9        57.354                  
 02  5 18 00 01 13.0000000  0  8G01G23G21G16G27G10G07G08                        
  23744211.280 8 124776670.498 8      3391.686 8        48.962                  
  23017255.182 8 120956491.562 8     -2828.596 8        50.194                  
  21773406.431 8 114420030.306 8      1778.208 8        52.765                  
  23492178.521 8 123452227.799 8     -3669.357 8        50.379                  
  20487279.340 9 107661376.709 9     -1386.747 9        57.341                  
  21318266.030 9 112028256.622 9      -816.418 9        56.972                  
  24972519.091 7 131231478.871 7     -1913.254 7        46.499                  
  20440784.392 9 107417077.995 9       854.140 9        56.038                  
 02  5 18 00 01 14.0000000  0  8G01G23G21G16G27G10G07G08                        
  23743565.886 8 124773278.195 8      3392.242 8        48.578                  
  23017792.325 8 120959322.566 8     -2830.556 8        50.851                  
  21773072.727 8 114418252.155 8      1778.650 8        51.982                  
  23492876.324 8 123455897.345 8     -3670.739 8        49.964                  
  20487545.159 9 107662763.637 9     -1387.796 9        57.219                  
  21318421.116 9 112029073.323 9      -816.895 9        54.918                  
  24972887.461 7 131233393.973 7     -1916.047 7        46.561                  
  20440624.053 9 107416224.288 9       854.212 9        54.647                  
 02  5 18 00 01 15.0000000  0  8G01G23G21G16G27G10G07G08                        
  23742918.903 8 124769886.048 8      3390.706 8        48.731                  
  23018333.792 8 120962153.968 8     -2830.891 8        50.294                  
  21772733.502 8 114416474.292 8      1778.176 8        52.862                  
  23493574.020 8 123459567.087 8     -3670.025 8        49.050                  
  20487813.623 9 107664151.043 9     -1387.742 9        56.362                  
  21318576.272 9 112029890.623 9      -817.237 9        55.317                  
  24973249.648 7 131235309.428 7     -1916.197 7        46.912                  
  20440463.804 9 107415371.060 9       853.170 9        55.704                  
 02  5 18 00 01 16.0000000  0  8G01G23G21G16G27G10G07G08                        
  23742273.760 8 124766494.054 8      3395.011 8        48.233                  
  23018869.898 8 120964985.752 8     -2831.757 8        50.714                  
  21772392.328 8 114414696.739 8      1778.240 8        52.845                  
  23494274.021 8 123463237.002 8     -3672.109 8        49.588                  
  20488077.120 9 107665538.925 9     -1388.466 9        57.732                  
  21318731.340 9 112030708.530 9      -818.497 9        55.983                  
  24973615.838 7 131237225.230 7     -1915.954 7        46.177                  
  20440303.805 9 107414518.308 9       853.042 9        56.602                  
 02  5 18 00 01 17.0000000  0  8G01G23G21G16G27G10G07G08                        
  23741629.706 7 124763102.242 7      3388.855 7        46.907                  
  23019409.221 8 120967817.905 8     -2834.135 8        50.229                  
  21772053.835 9 114412919.472 9      1777.480 9        54.426                  
  23494971.271 8 123466907.122 8     -3670.723 8        50.231                  
  20488336.006 9 107666927.284 9     -1388.247 9        58.255                  
  21318887.962 9 112031527.079 9      -819.286 9        56.138                  
  24973980.706 8 131239141.390 8     -1916.997 8        48.104                  
  20440143.234 9 107413666.011 9       852.032 9        57.655                  
 02  5 18 00 01 18.0000000  0  8G01G23G21G16G27G10G07G08                        
  23740983.991 7 124759710.572 7      3392.884 7        47.709                  
  23019949.062 8 120970650.452 8     -2830.504 8        49.604                  
  21771719.327 8 114411142.520 8      1775.606 8        53.201                  
  23495669.556 8 123470577.423 8     -3672.591 8        49.382                  
  20488600.486 9 107668316.120 9     -1389.139 9        57.011                  
  21319043.744 9 112032346.227 9      -820.208 9        55.381                  
  24974342.553 7 131241057.890 7     -1914.806 7        47.696                  
  20439983.771 9 107412814.189 9       851.011 9        57.419                  
 02  5 18 00 01 19.0000000  0  8G01G23G21G16G27G10G07G08                        
  23740337.061 7 124756319.069 7      3392.523 7        47.757                  
  23020485.812 8 120973483.406 8     -2832.143 8        50.273                  
  21771381.478 8 114409365.842 8      1774.924 8        52.679                  
  23496368.521 8 123474247.919 8     -3669.740 8        50.736                  
  20488870.076 9 107669705.433 9     -1388.938 9        57.249                  
  21319200.920 9 112033165.969 9      -819.821 9        54.670                  
  24974711.138 8 131242974.739 8     -1916.122 8        48.138                  
  20439822.199 9 107411962.844 9       850.782 9        56.584                  
 02  5 18 00 01 20.0000000  0  8G01G23G21G16G27G10G07G08                        
  23739693.794 7 124752928.000 7      3389.391 7        47.308                  
  23021027.243 8 120976316.624 8     -2831.754 8        50.787                  
  21771039.572 8 114407589.704 8      1774.723 8        50.991                  
  23497066.825 8 123477918.477 8     -3672.008 8        50.058                  
  20489135.556 9 107671095.098 9     -1389.544 9        55.503                  
  21319357.971 8 112033986.145 8      -819.452 8        53.406                  
  24975072.414 7 131244892.304 7     -1918.559 7        47.195                  
  20439658.572 9 107411112.080 9       849.463 9        56.526                  
 02  5 18 00 01 21.0000000  0  8G01G23G21G16G27G10G07G08                        
  23739059.194 6 124749548.806 6      3374.060 6        41.410                  
  23021566.048 7 120979144.678 7     -2823.613 7        47.295                  
  21770703.491 8 114405823.227 8      1760.093 8        48.497                  
  23497763.770 8 123481583.936 8     -3661.319 8        52.441                  
  20489393.352 9 107672479.986 9     -1381.080 9        58.139                  
  21319513.538 8 112034800.147 8      -809.453 8        53.082                  
  24975445.823 6 131246825.371 6     -1941.559 6        41.002                  
  20439495.964 9 107410266.168 9       842.010 9        58.529                  
 02  5 18 00 01 22.0000000  0  8G01G23G21G16G27G10G07G08                        
  23738420.037 7 124746188.734 7      3344.196 7        43.357                  
  23022105.692 8 120981964.071 8     -2808.571 8        48.470                  
  21770374.433 8 114404072.761 8      1742.627 8        53.394                  
  23498461.377 7 123485241.140 7     -3653.852 7        47.556                  
  20489653.775 9 107673856.565 9     -1372.923 9        56.968                  
  21319666.515 8 112035603.123 8      -798.560 8        50.479                  
  24975813.246 7 131248783.279 7     -1968.642 7        46.151                  
  20439334.321 9 107409428.047 9       833.819 9        57.723                  
 02  5 18 00 01 23.0000000  0  8G01G23G21G16G27G10G07G08                        
  23737774.983 7 124742847.798 7      3331.585 7        47.045                  
  23022636.581 8 120984774.905 8     -2807.033 8        48.421                  
  21770044.982 8 114402338.180 8      1727.742 8        51.437                  
  23499154.516 8 123488889.697 8     -3642.760 8        48.834                  
  20489920.024 9 107675224.806 9     -1363.440 9        54.350                  
  21319817.169 8 112036395.352 8      -787.039 8        51.019                  
  24976193.320 7 131250766.661 7     -1996.697 7        46.448                  
  20439174.125 9 107408597.732 9       826.049 9        57.626                  
 02  5 18 00 01 24.0000000  0  8G01G23G21G16G27G10G07G08                        
  23737142.705 7 124739521.469 7      3328.503 7        46.728                  
  23023170.454 8 120987579.228 8     -2803.732 8        50.006                  
  21769714.030 8 114400615.344 8      1721.971 8        53.209                  
  23499845.726 8 123492532.422 8     -3643.517 8        50.303                  
  20490180.018 8 107676587.070 8     -1362.223 8        53.575                  
  21319966.500 8 112037179.823 8      -784.130 8        52.901                  
  24976570.124 7 131252768.647 7     -2004.501 7        43.727                  
  20439017.521 9 107407773.269 9       823.387 9        54.226                  
 02  5 18 00 01 25.0000000  0  8G01G23G21G16G27G10G07G08                        
  23736509.320 8 124736195.284 8      3329.711 8        48.572                  
  23023704.505 7 120990382.949 7     -2805.456 7        46.919                  
  21769382.416 8 114398892.649 8      1725.653 8        50.802                  
  23500542.117 7 123496176.839 7     -3660.234 7        45.920                  
  20490433.526 8 107677950.103 8     -1372.837 8        53.206                  
  21320115.349 8 112037965.051 8      -786.362 8        48.938                  
  24976954.897 7 131254770.313 7     -1999.660 7        45.504                  
  20438857.897 9 107406949.208 9       825.488 9        55.618                  
 02  5 18 00 01 26.0000000  0  8G01G23G21G16G27G10G07G08                        
  23735875.684 6 124732855.800 6      3345.387 6        41.208                  
  23024237.878 8 120993191.657 8     -2810.888 8        50.631                  
  21769054.824 7 114397159.267 7      1734.260 7        42.723                  
  23501235.864 6 123499831.434 6     -3652.862 6        39.588                  
  20490695.361 7 107679320.822 7     -1379.146 7        44.830                  
  21320266.146 7 112038758.627 7      -802.048 7        45.806                  
  24977328.360 6 131256753.050 6     -1977.162 6        37.633                  
  20438698.773 7 107406119.165 7       829.509 7        46.886                  
 02  5 18 00 01 27.0000000  0  8G01G23G21G16G27G10G07G08                        
  23735233.329 7 124729509.927 7      3345.922 7        43.996                  
  23024771.054 7 120996000.609 7     -2809.880 7        44.136                  
  21768728.964 8 114395419.403 8      1739.815 8        48.967                  
  23501933.096 6 123503496.570 6     -3666.976 6        36.573                  
  20490962.342 7 107680697.418 7     -1375.678 7        45.079                  
  21320420.087 7 112039556.926 7      -800.355 7        47.131                  
  24977707.987 6 131258723.544 6     -1970.455 6        39.909                  
  20438539.149 7 107405285.390 7       836.457 7        46.638                  
 02  5 18 00 01 28.0000000  0  8G01G23G21G16G27G10G07G08                        
  23734599.925 6 124726166.368 6      3345.964 6        36.982                  
  23025304.140 6 120998805.224 6     -2792.553 6        36.953                  
  21768397.655 6 114393681.118 6      1736.718 6        41.223                  
  23502633.883 5 123507168.186 5     -3669.084 5        35.979                  
  20491224.963 8 107682075.296 8     -1379.870 8        51.537                  
  21320570.491 6 112040354.741 6      -793.574 6        41.784                  
  24978081.146 6 131260694.015 6     -1965.398 6        40.785                  
  20438383.975 8 107404451.416 8       831.827 8        51.110                  
 02  5 18 00 01 29.0000000  0  8G01G23G21G16G27G10G07G08                        
  23733962.001 5 124722820.037 5      3358.803 5        35.213                  
  23025836.208 5 121001608.886 5     -2793.153 5        35.203                  
  21768063.218 6 114391939.636 6      1750.878 6        37.330                  
  23503330.650 5 123510847.567 5     -3678.306 5        35.708                  
  20491480.311 8 107683457.173 8     -1386.313 8        51.540                  
  21320724.951 6 112041155.017 6      -804.869 6        37.980                  
  24978458.629 6 131262657.092 6     -1944.248 6        36.631                  
  20438225.280 8 107403615.153 8       838.384 8        50.588                  
 02  5 18 00 01 30.0000000  0  8G01G23G21G16G27G10G07G08                        
  23733318.859 5 124719454.227 5      3379.208 5        35.548                  
  23026373.298 5 121004424.104 5     -2827.073 5        34.901                  
  21767726.333 6 114390183.126 6      1760.651 6        39.264                  
  23504033.224 5 123514531.739 5     -3680.370 5        34.948                  
  20491746.006 8 107684847.026 8     -1390.503 8        48.176                  
  21320878.946 6 112041967.503 6      -817.397 6        39.196                  
  24978822.371 7 131264597.208 7     -1933.882 7        42.275                  
  20438066.103 8 107402773.066 8       852.485 8        49.460                  
 02  5 18 00 01 31.0000000  0  8G01G23G21G16G27G10G07G08                        
  23732682.061 5 124716091.010 5      3341.928 5        34.931                  
  23026911.280 5 121007231.050 5     -2804.053 5        34.984                  
  21767393.952 6 114388426.981 6      1752.811 6        37.107                  
  23504736.799 5 123518230.975 5     -3701.806 5        35.241                  
  20492016.239 7 107686241.060 7     -1393.870 7        43.519                  
  21321032.280 6 112042779.434 6      -805.046 6        36.821                  
  24979193.064 7 131266533.378 7     -1931.925 7        43.649                  
  20437906.622 7 107401928.435 7       848.988 7        45.206                  
 02  5 18 00 01 32.0000000  0  8G01G23G21G16G27G10G07G08                        
  23732045.263 5 124712731.615 5      3368.465 5        34.971                  
  23027443.598 5 121010026.081 5     -2801.151 5        35.395                  
  21767065.376 6 114386671.457 6      1754.766 6        39.044                  
  23505440.695 5 123521951.027 5     -3734.720 5        35.435                  
  20492284.096 6 107687640.408 6     -1398.292 6        39.443                  
  21321186.204 6 112043590.031 6      -809.539 6        37.432                  
  24979559.254 6 131268465.858 6     -1913.403 6        40.410                  
  20437748.213 6 107401080.777 6       843.477 6        41.674                  
 02  5 18 00 01 33.0000000  0  6G01G21G27G10G07G08                              
  23731402.996 6 124709359.595 6      3372.563 6        39.749                  
  21766723.738 7 114384907.134 7      1772.396 7        47.990                  
  20492545.841 6 107689042.954 6     -1404.123 6        37.925                  
  21321347.007 7 112044408.768 7      -825.349 7        44.351                  
  24979927.963 6 131270385.162 6     -1925.743 6        36.135                  
  20437589.375 6 107400230.991 6       844.030 6        40.002                  
 02  5 18 00 01 34.0000000  0  6G01G21G27G10G07G08                              
  23730760.123 7 124705973.686 7      3397.654 7        43.319                  
  21766385.567 7 114383133.694 7      1781.843 7        42.044                  
  20492811.107 6 107690447.076 6     -1410.981 6        37.110                  
  21321498.626 7 112045236.177 7      -836.467 7        47.251                  
  24980288.935 5 131272295.724 5     -1905.400 5        34.694                  
  20437428.983 6 107399380.691 6       847.172 6        38.757                  
 02  5 18 00 01 35.0000000  0  6G01G21G27G10G07G08                              
  23730109.279 6 124702577.185 6      3415.519 6        37.730                  
  21766046.002 6 114381350.788 6      1795.417 6        36.803                  
  20493084.431 5 107691859.243 5     -1424.782 5        35.922                  
  21321658.321 6 112046070.718 6      -840.921 6        41.288                  
  24980648.996 5 131274188.323 5     -1866.887 5        34.601                  
  20437264.338 6 107398524.677 6       859.549 6        36.819                  
 02  5 18 00 01 36.0000000  0  6G01G21G27G10G07G08                              
  23729462.260 5 124699168.819 5      3433.337 5        35.121                  
  21765711.762 5 114379557.179 5      1803.421 5        35.012                  
  20493356.040 5 107693280.475 5     -1425.315 5        35.176                  
  21321819.536 6 112046913.059 6      -849.076 6        36.785                  
  24981007.449 5 131276060.404 5     -1876.525 5        34.757                  
  20437097.566 5 107397662.124 5       859.345 5        35.567                  
 02  5 18 00 01 37.0000000  0  6G01G21G27G10G07G08                              
  23728813.793 5 124695756.165 5      3420.089 5        34.610                  
  21765363.906 5 114377759.927 5      1802.647 5        34.604                  
  20493626.488 5 107694705.276 5     -1421.842 5        35.179                  
  21321978.838 5 112047758.718 5      -842.751 5        35.358                  
  24981364.365 5 131277925.601 5     -1852.409 5        35.141                  
  20436930.955 5 107396797.695 5       864.856 5        35.386                  
 02  5 18 00 01 38.0000000  0  5G01G21G27G10G08                                 
  23728168.006 5 124692344.641 5      3402.212 5        34.597                  
  21765019.998 5 114375963.634 5      1785.317 5        34.775                  
  20493895.328 5 107696130.313 5     -1437.957 5        35.335                  
  21322139.516 5 112048604.498 5      -854.081 5        34.953                  
  20436763.201 5 107395933.919 5       864.965 5        35.575                  
 02  5 18 00 01 39.0000000  0  4G21G27G10G08                                    
  21764685.830 5 114374169.173 5      1781.812 5        34.936                  
  20494164.649 5 107697555.454 5     -1436.414 5        35.547                  
  21322298.676 5 112049449.553 5      -838.091 5        34.855                  
  20436599.056 5 107395071.044 5       856.167 5        35.786                  
 02  5 18 00 01 40.0000000  0  4G21G27G10G08                                    
  21764345.032 5 114372375.477 5      1793.557 5        35.023                  
  20494437.563 5 107698981.030 5     -1433.966 5        35.829                  
  21322459.944 5 112050294.770 5      -838.847 5        34.806                  
  20436434.822 6 107394208.664 6       858.248 6        36.072                  
 02  5 18 00 02  1.0000000  0  7G01G23G21G16G27G10G08                           
  23713340.559 6 124614448.245 6      3307.402 6        37.541                  
  23042996.117 6 121091761.458 6     -2776.719 6        38.743                  
  21757255.211 6 114335144.963 6      1709.272 6        38.622                  
  23526042.339 8 123630180.658 8     -3730.648 8        48.230                  
  20500118.054 7 107728817.859 7     -1398.384 7        46.421                  
  21325810.207 5 112067891.551 5      -799.617 5        35.984                  
  20433047.105 7 107376386.884 7       822.041 7        44.421                  
 02  5 18 00 02  2.0000000  0  7G01G23G21G16G27G10G08                           
  23712713.553 6 124611139.244 6      3300.566 6        36.446                  
  23043523.896 6 121094532.952 6     -2771.959 6        40.103                  
  21756928.386 6 114333432.162 6      1707.956 6        37.889                  
  23526752.257 8 123633913.474 8     -3731.524 8        49.133                  
  20500384.249 7 107730218.611 7     -1403.154 7        44.906                  
  21325966.418 5 112068692.940 5      -799.212 5        35.773                  
  20432892.878 7 107375564.601 7       823.176 7        43.249                  
 02  5 18 00 02  3.0000000  0  7G01G23G21G16G27G10G08                           
  23712081.186 5 124607827.426 5      3305.119 5        35.705                  
  23044049.353 6 121097304.957 6     -2770.425 6        41.587                  
  21756604.225 6 114331716.910 6      1716.742 6        37.142                  
  23527462.622 8 123637650.534 8     -3739.899 8        49.341                  
  20500649.783 7 107731622.011 7     -1404.512 7        43.860                  
  21326119.770 5 112069496.733 5      -793.830 5        35.395                  
  20432731.109 7 107374741.072 7       823.155 7        42.537                  
 02  5 18 00 02  4.0000000  0  7G01G23G21G16G27G10G08                           
  23711447.497 5 124604512.953 5      3314.438 5        35.004                  
  23044579.062 7 121100077.701 7     -2772.193 7        44.232                  
  21756281.313 6 114329999.438 6      1719.054 6        36.551                  
  23528174.899 8 123641391.057 8     -3740.213 8        48.495                  
  20500913.208 7 107733027.790 7     -1405.283 7        43.212                  
  21326273.104 5 112070302.780 5      -810.494 5        35.021                  
  20432576.149 6 107373916.507 6       826.032 6        41.956                  
 02  5 18 00 02  5.0000000  0  7G01G23G21G16G27G10G08                           
  23710816.953 5 124601199.931 5      3318.983 5        34.494                  
  23045105.627 7 121102850.616 7     -2776.807 7        45.971                  
  21755953.524 5 114328283.394 5      1715.742 5        35.822                  
  23528886.694 8 123645130.310 8     -3737.391 8        48.369                  
  20501183.012 6 107734433.204 6     -1406.733 6        41.934                  
  21326426.581 5 112071108.656 5      -791.334 5        34.696                  
  20432416.704 6 107373093.114 6       820.295 6        40.701                  
 02  5 18 00 02  6.0000000  0  6G01G23G21G16G27G08                              
  23710191.430 5 124597888.852 5      3300.327 5        34.897                  
  23045633.460 7 121105623.678 7     -2773.054 7        46.949                  
  21755624.162 5 114326569.250 5      1715.334 5        35.406                  
  23529597.577 7 123648867.638 7     -3738.846 7        47.711                  
  20501454.407 6 107735837.865 6     -1403.802 6        40.992                  
  20432260.529 6 107372271.133 6       822.467 6        39.922                  
 02  5 18 00 02  7.0000000  0  6G01G23G21G16G27G08                              
  23709555.418 5 124594578.179 5      3314.777 5        35.765                  
  23046160.024 7 121108397.086 7     -2774.455 7        47.268                  
  21755295.622 5 114324855.590 5      1721.463 5        35.034                  
  23530308.139 7 123652604.852 7     -3739.676 7        47.484                  
  20501721.209 6 107737242.817 6     -1405.959 6        40.219                  
  20432101.423 6 107371449.793 6       819.165 6        39.568                  
 02  5 18 00 02  8.0000000  0  6G01G23G21G16G27G08                              
  23708923.944 6 124591266.017 6      3311.715 6        36.084                  
  23046691.574 7 121111172.122 7     -2775.257 7        45.344                  
  21754967.744 5 114323141.037 5      1726.162 5        34.824                  
  23531019.344 7 123656342.067 7     -3735.203 7        46.473                  
  20501983.812 6 107738648.780 6     -1410.991 6        39.678                  
  20431946.731 6 107370628.499 6       822.466 6        39.135                  
 02  5 18 00 02  9.0000000  0  6G01G23G21G16G27G08                              
  23708290.916 6 124587936.086 6      3335.367 6        37.117                  
  23047221.319 8 121113964.738 8     -2804.496 8        49.268                  
  21754643.314 5 114321414.327 5      1725.840 5        34.887                  
  23531730.567 7 123660069.325 7     -3724.454 7        46.113                  
  20502251.669 6 107740058.213 6     -1406.790 6        39.840                  
  20431792.039 6 107369805.025 6       823.367 6        39.415                  
 02  5 18 00 02 10.0000000  0  5G01G23G16G27G08                                 
  23707656.923 6 124584582.023 6      3353.071 6        37.956                  
  23047757.747 8 121116781.091 8     -2825.434 8        48.377                  
  23532435.285 7 123663782.817 7     -3712.155 7        46.640                  
  20502523.296 6 107741472.100 6     -1415.149 6        40.110                  
  20431636.453 6 107368978.545 6       828.561 6        39.853                  
 02  5 18 00 02 11.0000000  0  5G01G23G16G27G08                                 
  23707017.570 6 124581218.733 6      3353.366 6        38.935                  
  23048295.265 7 121119603.074 7     -2816.137 7        47.865                  
  23533142.952 7 123667499.107 7     -3726.452 7        46.087                  
  20502796.799 6 107742890.327 6     -1421.003 6        40.531                  
  20431478.330 6 107368149.411 6       831.290 6        40.297                  
 02  5 18 00 02 12.0000000  0  5G01G23G16G27G08                                 
  23706375.911 6 124577857.369 6      3364.825 6        40.056                  
  23048826.440 7 121122413.646 7     -2807.663 7        47.597                  
  23533855.212 8 123671237.659 8     -3743.603 8        48.664                  
  20503066.300 7 107744314.983 7     -1427.408 7        42.131                  
  20431317.062 6 107367316.344 6       833.660 6        41.545                  
 02  5 18 00 02 13.0000000  0  5G01G23G16G27G08                                 
  23705736.825 6 124574495.963 6      3357.598 6        40.583                  
  23049362.921 8 121125221.375 8     -2809.589 8        48.810                  
  23534568.114 7 123674983.410 7     -3743.089 7        47.249                  
  20503337.248 7 107745742.179 7     -1425.156 7        42.357                  
  20431167.212 7 107366481.995 7       832.895 7        42.283                  
 02  5 18 00 02 14.0000000  0  5G01G23G16G27G08                                 
  23705100.313 7 124571134.879 7      3354.846 7        42.064                  
  23049896.615 8 121128034.777 8     -2814.469 8        48.424                  
  23535277.943 8 123678718.009 8     -3732.390 8        49.366                  
  20503605.033 7 107747166.505 7     -1423.433 7        43.431                  
  20431003.354 7 107365650.913 7       826.632 7        43.155                  
 02  5 18 00 02 15.0000000  0  5G01G23G16G27G08                                 
  23704461.066 7 124567784.561 7      3341.306 7        43.394                  
  23050433.294 8 121130838.942 8     -2797.573 8        48.446                  
  23535989.809 8 123682457.676 8     -3749.228 8        49.377                  
  20503878.429 7 107748589.289 7     -1421.102 7        43.155                  
  20430849.787 7 107364822.007 7       824.670 7        42.857                  
 02  5 18 00 02 16.0000000  0  5G01G23G16G27G08                                 
  23703825.537 7 124564447.883 7      3335.854 7        42.625                  
  23050961.645 7 121133626.668 7     -2787.422 7        46.827                  
  23536705.285 8 123686213.219 8     -3759.031 8        48.115                  
  20504148.108 7 107750012.627 7     -1428.469 7        43.006                  
  20430692.575 7 107363993.765 7       825.061 7        42.521                  
 02  5 18 00 02 17.0000000  0  5G01G23G16G27G08                                 
  23703189.703 7 124561113.383 7      3334.871 7        44.482                  
  23051492.248 7 121136412.949 7     -2784.182 7        47.703                  
  23537420.225 7 123689969.937 7     -3757.465 7        47.877                  
  20504421.880 7 107751436.109 7     -1421.657 7        43.011                  
  20430538.187 7 107363166.327 7       822.467 7        42.847                  
 02  5 18 00 02 19.0000000  0  6G01G23G16G27G30G08                              
  23701923.201 7 124554446.525 7      3337.325 7        45.599                  
  23052551.863 8 121141985.632 8     -2786.687 8        49.843                  
  23538847.030 8 123697483.336 8     -3756.006 8        48.439                  
  20504955.199 6 107754283.696 6     -1427.103 6        40.773                  
  25185574.954 7 132351131.275 7      -973.406 7        45.619                  
  20430221.905 6 107361513.560 6       822.165 6        40.786                  
 02  5 18 00 02 20.0000000  0  6G01G23G16G27G30G08                              
  23701288.689 7 124551113.154 7      3332.769 7        45.930                  
  23053083.431 8 121144772.632 8     -2785.587 8        49.817                  
  23539563.882 8 123701240.394 8     -3757.287 8        48.272                  
  20505230.328 6 107755708.278 6     -1427.418 6        40.835                  
  25185760.077 7 132352104.811 7      -973.380 7        46.637                  
  20430066.320 6 107360687.817 6       822.656 6        41.090                  
 02  5 18 00 02 21.0000000  0  6G01G23G16G27G30G08                              
  23700652.695 7 124547778.677 7      3333.652 7        46.176                  
  23053611.889 8 121147560.666 8     -2786.594 8        48.542                  
  23540279.858 8 123704998.077 8     -3759.277 8        48.471                  
  20505502.902 6 107757133.973 6     -1427.576 6        41.315                  
  25185952.134 7 132353077.356 7      -971.410 7        46.374                  
  20429905.123 6 107359862.228 6       827.268 6        41.235                  
 02  5 18 00 02 22.0000000  0  6G01G23G16G27G30G08                              
  23700017.809 7 124544443.787 7      3332.710 7        46.784                  
  23054144.332 7 121150349.359 7     -2792.523 7        47.284                  
  23540997.121 7 123708756.112 7     -3755.085 7        47.965                  
  20505775.440 6 107758560.309 6     -1429.605 6        41.886                  
  25186137.310 7 132354049.768 7      -972.802 7        45.820                  
  20429750.932 7 107359036.771 7       829.484 7        42.432                  
 02  5 18 00 02 23.0000000  0  6G01G23G16G27G30G08                              
  23699386.693 7 124541109.348 7      3331.597 7        47.023                  
  23054674.167 8 121153138.272 8     -2790.913 8        49.450                  
  23541705.270 8 123712514.261 8     -3758.573 8        48.104                  
  20506044.208 7 107759987.024 7     -1428.881 7        42.300                  
  25186319.110 7 132355023.089 7      -973.779 7        46.612                  
  20429585.071 7 107358212.026 7       820.848 7        42.561                  
 02  5 18 00 02 24.0000000  0  6G01G23G16G27G30G08                              
  23698751.824 7 124537775.504 7      3335.742 7        45.614                  
  23055207.236 8 121155927.310 8     -2790.162 8        49.300                  
  23542420.871 7 123716272.466 7     -3758.513 7        46.648                  
  20506314.638 7 107761414.038 7     -1427.738 7        42.610                  
  25186500.123 7 132355997.480 7      -971.210 7        45.022                  
  20429430.361 7 107357387.805 7       821.137 7        43.153                  
 02  5 18 00 02 25.0000000  0  7G01G23G16G27G10G30G08                           
  23698114.097 7 124534441.054 7      3334.595 7        46.245                  
  23055735.891 8 121158717.156 8     -2791.828 8        48.738                  
  23543138.330 8 123720031.079 8     -3758.692 8        49.020                  
  20506592.376 7 107762841.887 7     -1426.994 7        43.962                  
  21329576.586 7 112087676.697 7      -834.900 7        45.792                  
  25186687.837 7 132356971.534 7      -974.141 7        44.465                  
  20429267.342 7 107356563.945 7       822.098 7        44.295                  
 02  5 18 00 02 26.0000000  0  7G01G23G16G27G10G30G08                           
  23697480.443 7 124531105.002 7      3338.134 7        46.195                  
  23056268.548 8 121161508.295 8     -2789.726 8        48.292                  
  23543854.359 8 123723790.436 8     -3760.475 8        49.226                  
  20506862.341 7 107764270.992 7     -1431.290 7        45.862                  
  21329740.320 7 112088510.534 7      -834.465 7        47.956                  
  25186876.999 7 132357944.033 7      -972.337 7        42.965                  
  20429111.900 7 107355739.885 7       824.481 7        45.731                  
 02  5 18 00 02 29.0000000  0  7G01G23G16G27G10G30G08                           
  23695576.213 7 124521096.556 7      3343.244 7        46.452                  
  23057861.786 7 121169886.542 7     -2801.257 7        47.998                  
  23546001.198 7 123735065.900 7     -3749.519 7        47.697                  
  20507680.618 8 107768560.555 8     -1427.533 8        51.643                  
  21330216.315 8 112091016.050 8      -839.698 8        48.883                  
  25187433.476 7 132360867.090 7      -983.446 7        46.213                  
  20428658.545 9 107353271.157 9       820.484 9        54.316                  
 02  5 18 00 02 35.0000000  0  8G01G23G21G16G27G10G30G08                        
  23691742.092 7 124500947.483 7      3371.251 7        46.745                  
  23061095.096 8 121186888.984 8     -2852.875 8        49.775                  
  21746045.151 8 114276235.525 8      1745.955 8        48.560                  
  23550232.832 8 123757326.542 8     -3682.672 8        48.184                  
  20509294.869 8 107777110.781 8     -1423.863 8        50.964                  
  21331172.254 8 112096123.149 8      -857.072 8        50.080                  
  25188573.627 7 132366868.072 7     -1014.906 7        46.282                  
  20427696.905 8 107348374.723 8       810.898 8        49.910                  
 02  5 18 00 02 36.0000000  0  8G01G23G21G16G27G10G30G08                        
  23691102.310 7 124497585.043 7      3354.150 7        46.181                  
  23061640.977 8 121189743.066 8     -2853.940 8        50.363                  
  21745711.018 7 114274495.272 7      1738.825 7        47.347                  
  23550937.479 8 123761004.693 8     -3667.060 8        48.406                  
  20509566.425 7 107778529.495 7     -1413.579 7        46.651                  
  21331348.996 8 112096979.254 8      -853.140 8        49.761                  
  25188763.020 7 132367894.784 7     -1039.645 7        46.711                  
  20427560.011 7 107347566.100 7       806.420 7        47.068                  
 02  5 18 00 02 37.0000000  0  8G01G23G21G16G27G10G30G08                        
  23690467.066 8 124494229.027 8      3355.557 8        50.524                  
  23062183.016 8 121192603.721 8     -2863.704 8        50.385                  
  21745383.515 8 114272762.688 8      1728.885 8        53.100                  
  23551631.745 8 123764661.113 8     -3645.437 8        49.409                  
  20509847.505 8 107779939.969 8     -1406.954 8        52.460                  
  21331508.995 8 112097832.228 8      -852.475 8        53.259                  
  25188972.803 7 132368947.277 7     -1062.608 7        47.084                  
  20427410.769 9 107346764.463 9       798.774 9        55.184                  
 02  5 18 00 02 38.0000000  0  8G01G23G21G16G27G10G30G08                        
  23689825.890 8 124490879.239 8      3341.829 8        48.430                  
  23062730.809 8 121195470.456 8     -2868.989 8        51.161                  
  21745056.547 8 114271037.374 8      1719.948 8        52.401                  
  23552323.544 8 123768297.224 8     -3627.479 8        49.841                  
  20510114.396 9 107781342.862 9     -1399.654 9        55.701                  
  21331671.389 8 112098682.223 8      -847.841 8        53.823                  
  25189171.345 7 132370024.037 7     -1089.341 7        47.494                  
  20427260.240 9 107345969.455 9       791.452 9        55.607                  
 02  5 18 00 02 39.0000000  0  8G01G23G21G16G27G10G30G08                        
  23689189.234 8 124487534.875 8      3345.293 8        48.315                  
  23063276.815 8 121198338.531 8     -2869.024 8        49.184                  
  21744732.421 8 114269317.497 8      1719.130 8        52.606                  
