$GPRMC,000030.00,A,4852.4668310,N,00217.5800788,E,1.06,0.00,180502,0.0,E,A*34
$GPGGA,000030.00,4852.4668310,N,00217.5800788,E,1,07,1.0,-10.647,M,0.000,M,0.0,*65
$GPGSA,A,3,01,08,10,16,21,23,27,,,,,,2.0,1.2,1.6,1*21
$GPGSV,2,1,07,01,15,255,47,08,73,299,56,10,56,076,54,16,27,182,50,1*67
$GPGSV,2,2,07,21,45,263,53,23,28,048,50,27,70,120,54,,,,,1*52
$GPRMC,000031.00,A,4852.4657735,N,00217.5821222,E,0.58,0.00,180502,0.0,E,A*36
$GPGGA,000031.00,4852.4657735,N,00217.5821222,E,1,07,1.0,-8.204,M,0.000,M,0.0,*57
$GPGSA,A,3,01,08,10,16,21,23,27,,,,,,2.0,1.2,1.6,1*21
$GPGSV,2,1,07,01,15,255,47,08,73,299,57,10,56,076,54,16,27,182,50,1*66
$GPGSV,2,2,07,21,45,263,54,23,28,048,50,27,70,120,55,,,,,1*54
$GPRMC,000032.00,A,4852.4655308,N,00217.5831749,E,0.94,0.00,180502,0.0,E,A*34
$GPGGA,000032.00,4852.4655308,N,00217.5831749,E,1,07,1.0,-10.154,M,0.000,M,0.0,*6A
$GPGSA,A,3,01,08,10,16,21,23,27,,,,,,2.0,1.2,1.6,1*21
$GPGSV,2,1,07,01,15,255,48,08,73,299,57,10,56,076,54,16,27,182,50,1*69
$GPGSV,2,2,07,21,45,263,53,23,28,048,51,27,70,120,54,,,,,1*53
$GPRMC,000033.00,A,4852.4660362,N,00217.5811743,E,1.28,0.00,180502,0.0,E,A*31
$GPGGA,000033.00,4852.4660362,N,00217.5811743,E,1,07,1.0,-13.028,M,0.000,M,0.0,*60
$GPGSA,A,3,01,08,10,16,21,23,27,,,,,,2.0,1.2,1.6,1*21
$GPGSV,2,1,07,01,15,255,48,08,73,299,56,10,56,076,54,16,27,182,49,1*60
$GPGSV,2,2,07,21,45,263,54,23,28,048,50,27,70,120,57,,,,,1*56
$GPRMC,000034.00,A,4852.4670451,N,00217.5812829,E,1.52,0.00,180502,0.0,E,A*3D
$GPGGA,000034.00,4852.4670451,N,00217.5812829,E,1,07,1.0,-14.194,M,0.000,M,0.0,*60
$GPGSA,A,3,01,08,10,16,21,23,27,,,,,,2.0,1.2,1.6,1*21
$GPGSV,2,1,07,01,15,255,48,08,73,299,56,10,56,076,54,16,27,182,50,1*68
$GPGSV,2,2,07,21,45,263,52,23,28,048,50,27,70,120,56,,,,,1*51
$GPRMC,000035.00,A,4852.4658075,N,00217.5812194,E,0.35,0.00,180502,0.0,E,A*3B
$GPGGA,000035.00,4852.4658075,N,00217.5812194,E,1,07,1.0,-6.230,M,0.000,M,0.0,*58
$GPGSA,A,3,01,08,10,16,21,23,27,,,,,,2.0,1.2,1.6,1*21
$GPGSV,2,1,07,01,15,255,47,08,73,299,58,10,56,076,57,16,27,182,50,1*6A
$GPGSV,2,2,07,21,45,263,52,23,27,048,51,27,70,120,57,,,,,1*5E
$GPRMC,000036.00,A,4852.4664781,N,00217.5804094,E,0.92,0.00,180502,0.0,E,A*30
$GPGGA,000036.00,4852.4664781,N,00217.5804094,E,1,07,1.0,-4.927,M,0.000,M,0.0,*51
$GPGSA,A,3,01,08,10,16,21,23,27,,,,,,2.0,1.2,1.6,1*21
$GPGSV,2,1,07,01,15,255,49,08,73,299,57,10,56,076,57,16,27,182,51,1*6A
$GPGSV,2,2,07,21,45,263,54,23,27,048,50,27,70,120,56,,,,,1*58
$GPRMC,000037.00,A,4852.4679863,N,00217.5782011,E,0.60,0.00,180502,0.0,E,A*3F
$GPGGA,000037.00,4852.4679863,N,00217.5782011,E,1,07,1.0,-3.530,M,0.000,M,0.0,*5E
$GPGSA,A,3,01,08,10,16,21,23,27,,,,,,2.0,1.2,1.6,1*21
$GPGSV,2,1,07,01,15,255,47,08,73,299,59,10,56,076,56,16,27,182,49,1*62
$GPGSV,2,2,07,21,45,263,53,23,27,048,50,27,70,120,58,,,,,1*51
$GPRMC,000038.00,A,4852.4671432,N,00217.5795344,E,0.72,0.00,180502,0.0,E,A*36
$GPGGA,000038.00,4852.4671432,N,00217.5795344,E,1,07,1.0,-5.313,M,0.000,M,0.0,*55
$GPGSA,A,3,01,08,10,16,21,23,27,,,,,,2.0,1.2,1.6,1*21
$GPGSV,2,1,07,01,15,255,48,08,73,299,55,10,56,076,55,16,27,182,50,1*6A
$GPGSV,2,2,07,21,45,263,53,23,27,048,50,27,70,120,55,,,,,1*5C
$GPRMC,000039.00,A,4852.4666300,N,00217.5811666,E,0.69,0.00,180502,0.0,E,A*3B
$GPGGA,000039.00,4852.4666300,N,00217.5811666,E,1,07,1.0,-6.613,M,0.000,M,0.0,*54
$GPGSA,A,3,01,08,10,16,21,23,27,,,,,,2.0,1.2,1.6,1*21
$GPGSV,2,1,07,01,15,255,48,08,73,299,56,10,56,076,54,16,27,182,50,1*68
$GPGSV,2,2,07,21,45,263,52,23,27,048,52,27,70,121,58,,,,,1*53
$GPRMC,000040.00,A,4852.4661220,N,00217.5795517,E,1.24,0.00,180502,0.0,E,A*3F
$GPGGA,000040.00,4852.4661220,N,00217.5795517,E,1,07,1.0,-3.003,M,0.000,M,0.0,*5A
$GPGSA,A,3,01,08,10,16,21,23,27,,,,,,2.0,1.2,1.6,1*21
$GPGSV,2,1,07,01,15,255,48,08,73,299,57,10,56,076,55,16,27,182,50,1*68
$GPGSV,2,2,07,21,45,263,52,23,27,048,50,27,70,121,56,,,,,1*5F
$GPRMC,000041.00,A,4852.4663651,N,00217.5806020,E,0.48,0.00,180502,0.0,E,A*31
$GPGGA,000041.00,4852.4663651,N,00217.5806020,E,1,07,1.0,-10.002,M,0.000,M,0.0,*6C
$GPGSA,A,3,01,08,10,16,21,23,27,,,,,,2.0,1.2,1.6,1*21
$GPGSV,2,1,07,01,15,255,47,08,73,299,55,10,56,076,54,16,27,182,50,1*64
$GPGSV,2,2,07,21,45,263,54,23,27,048,50,27,70,121,57,,,,,1*58
$GPRMC,000042.00,A,4852.4658645,N,00217.5820665,E,0.64,0.00,180502,0.0,E,A*32
$GPGGA,000042.00,4852.4658645,N,00217.5820665,E,1,07,1.0,-14.272,M,0.000,M,0.0,*60
$GPGSA,A,3,01,08,10,16,21,23,27,,,,,,2.0,1.2,1.6,1*21
$GPGSV,2,1,07,01,15,255,49,08,73,299,57,10,56,076,54,16,27,182,50,1*68
$GPGSV,2,2,07,21,45,263,53,23,27,048,50,27,70,121,57,,,,,1*5F
$GPRMC,000043.00,A,4852.4657475,N,00217.5822651,E,1.04,0.00,180502,0.0,E,A*3F
$GPGGA,000043.00,4852.4657475,N,00217.5822651,E,1,07,1.0,-12.241,M,0.000,M,0.0,*6C
$GPGSA,A,3,01,08,10,16,21,23,27,,,,,,2.0,1.2,1.6,1*21
$GPGSV,2,1,07,01,15,255,47,08,73,299,56,10,56,076,54,16,27,182,48,1*6E
$GPGSV,2,2,07,21,45,263,54,23,27,048,52,27,70,121,56,,,,,1*5B
$GPRMC,000044.00,A,4852.4652139,N,00217.5817335,E,0.73,0.00,180502,0.0,E,A*30
$GPGGA,000044.00,4852.4652139,N,00217.5817335,E,1,07,1.0,-8.117,M,0.000,M,0.0,*59
$GPGSA,A,3,01,08,10,16,21,23,27,,,,,,2.0,1.2,1.6,1*21
$GPGSV,2,1,07,01,15,255,49,08,73,299,58,10,56,076,56,16,27,182,48,1*6C
$GPGSV,2,2,07,21,45,263,52,23,27,048,51,27,70,121,56,,,,,1*5E
$GPRMC,000045.00,A,4852.4661468,N,00217.5805133,E,0.45,0.00,180502,0.0,E,A*32
$GPGGA,000045.00,4852.4661468,N,00217.5805133,E,1,07,1.0,-9.284,M,0.000,M,0.0,*56
$GPGSA,A,3,01,08,10,16,21,23,27,,,,,,2.0,1.2,1.6,1*21
$GPGSV,2,1,07,01,15,255,48,08,73,299,57,10,56,076,56,16,27,182,48,1*62
$GPGSV,2,2,07,21,45,263,52,23,27,048,50,27,70,121,56,,,,,1*5F
$GPRMC,000046.00,A,4852.4675229,N,00217.5806585,E,0.52,0.00,180502,0.0,E,A*3B
$GPGGA,000046.00,4852.4675229,N,00217.5806585,E,1,07,1.0,-12.003,M,0.000,M,0.0,*6E
$GPGSA,A,3,01,08,10,16,21,23,27,,,,,,2.0,1.2,1.6,1*21
$GPGSV,2,1,07,01,15,255,49,08,73,299,55,10,56,076,56,16,27,182,48,1*61
$GPGSV,2,2,07,21,45,263,51,23,27,048,50,27,70,121,57,,,,,1*5D
$GPRMC,000047.00,A,4852.4661137,N,00217.5798433,E,1.10,0.00,180502,0.0,E,A*30
$GPGGA,000047.00,4852.4661137,N,00217.5798433,E,1,07,1.0,-3.507,M,0.000,M,0.0,*53
$GPGSA,A,3,01,08,10,16,21,23,27,,,,,,2.0,1.2,1.6,1*21
$GPGSV,2,1,07,01,15,255,50,08,73,299,57,10,56,076,58,16,27,182,49,1*64
$GPGSV,2,2,07,21,45,263,52,23,27,048,52,27,70,121,58,,,,,1*53
$GPRMC,000048.00,A,4852.4667959,N,00217.5785161,E,1.43,0.00,180502,0.0,E,A*31
$GPGGA,000048.00,4852.4667959,N,00217.5785161,E,1,07,1.0,-0.162,M,0.000,M,0.0,*50
$GPGSA,A,3,01,08,10,16,21,23,27,,,,,,2.0,1.2,1.6,1*21
$GPGSV,2,1,07,01,15,255,50,08,73,299,57,10,56,076,55,16,27,182,49,1*69
$GPGSV,2,2,07,21,45,263,54,23,27,048,49,27,70,121,56,,,,,1*51
$GPRMC,000049.00,A,4852.4673357,N,00217.5791501,E,1.29,0.00,180502,0.0,E,A*3A
$GPGGA,000049.00,4852.4673357,N,00217.5791501,E,1,07,1.0,-5.456,M,0.000,M,0.0,*50
$GPGSA,A,3,01,08,10,16,21,23,27,,,,,,2.0,1.2,1.6,1*21
$GPGSV,2,1,07,01,15,255,49,08,73,299,57,10,56,076,54,16,27,182,49,1*60
$GPGSV,2,2,07,21,45,263,51,23,27,048,50,27,70,121,56,,,,,1*5C
$GPRMC,000050.00,A,4852.4663980,N,00217.5805208,E,0.89,0.00,180502,0.0,E,A*34
$GPGGA,000050.00,4852.4663980,N,00217.5805208,E,1,07,1.0,-9.020,M,0.000,M,0.0,*5C
$GPGSA,A,3,01,08,10,16,21,23,27,,,,,,2.0,1.2,1.6,1*21
$GPGSV,2,1,07,01,15,255,49,08,73,299,56,10,56,076,55,16,27,182,51,1*69
$GPGSV,2,2,07,21,45,263,52,23,27,048,51,27,70,121,55,,,,,1*5D
$GPRMC,000051.00,A,4852.4668461,N,00217.5811082,E,1.06,0.00,180502,0.0,E,A*3F
$GPGGA,000051.00,4852.4668461,N,00217.5811082,E,1,07,1.0,-8.038,M,0.000,M,0.0,*59
$GPGSA,A,3,01,08,10,16,21,23,27,,,,,,2.0,1.2,1.6,1*21
$GPGSV,2,1,07,01,15,255,49,08,73,299,57,10,56,076,55,16,27,182,52,1*6B
$GPGSV,2,2,07,21,45,263,54,23,27,048,53,27,70,121,56,,,,,1*5A
$GPRMC,000052.00,A,4852.4657744,N,00217.5807358,E,1.29,0.00,180502,0.0,E,A*3A
$GPGGA,000052.00,4852.4657744,N,00217.5807358,E,1,07,1.0,-5.799,M,0.000,M,0.0,*50
$GPGSA,A,3,01,08,10,16,21,23,27,,,,,,2.0,1.2,1.6,1*21
$GPGSV,2,1,07,01,15,255,48,08,73,299,56,10,56,076,56,16,27,182,49,1*62
$GPGSV,2,2,07,21,45,263,54,23,27,048,51,27,70,121,56,,,,,1*58
$GPRMC,000053.00,A,4852.4657109,N,00217.5823542,E,1.39,0.00,180502,0.0,E,A*3E
$GPGGA,000053.00,4852.4657109,N,00217.5823542,E,1,07,1.0,-13.519,M,0.000,M,0.0,*68
$GPGSA,A,3,01,08,10,16,21,23,27,,,,,,2.0,1.2,1.6,1*21
$GPGSV,2,1,07,01,15,255,48,08,73,299,57,10,56,076,56,16,27,182,49,1*63
$GPGSV,2,2,07,21,45,263,52,23,27,048,49,27,70,121,57,,,,,1*56
$GPRMC,000054.00,A,4852.4662422,N,00217.5831128,E,0.39,0.00,180502,0.0,E,A*39
$GPGGA,000054.00,4852.4662422,N,00217.5831128,E,1,07,1.0,-15.612,M,0.000,M,0.0,*60
$GPGSA,A,3,01,08,10,16,21,23,27,,,,,,2.0,1.2,1.6,1*21
$GPGSV,2,1,07,01,15,255,49,08,73,299,57,10,56,076,55,16,27,182,50,1*69
$GPGSV,2,2,07,21,45,263,53,23,27,048,49,27,70,121,56,,,,,1*56
$GPRMC,000055.00,A,4852.4659881,N,00217.5814837,E,0.57,0.00,180502,0.0,E,A*3D
$GPGGA,000055.00,4852.4659881,N,00217.5814837,E,1,07,1.0,-10.419,M,0.000,M,0.0,*60
$GPGSA,A,3,01,08,10,16,21,23,27,,,,,,2.0,1.2,1.6,1*21
$GPGSV,2,1,07,01,15,255,49,08,73,299,59,10,56,076,58,16,27,182,51,1*6B
$GPGSV,2,2,07,21,45,263,52,23,27,048,50,27,70,121,56,,,,,1*5F
$GPRMC,000056.00,A,4852.4656958,N,00217.5816644,E,0.74,0.00,180502,0.0,E,A*3D
$GPGGA,000056.00,4852.4656958,N,00217.5816644,E,1,07,1.0,-7.633,M,0.000,M,0.0,*5D
$GPGSA,A,3,01,08,10,16,21,23,27,,,,,,2.0,1.2,1.6,1*21
$GPGSV,2,1,07,01,15,255,48,08,73,299,58,10,56,076,56,16,27,182,48,1*6D
$GPGSV,2,2,07,21,45,263,54,23,27,048,50,27,70,121,56,,,,,1*59
$GPRMC,000057.00,A,4852.4662082,N,00217.5815070,E,1.53,0.00,180502,0.0,E,A*33
$GPGGA,000057.00,4852.4662082,N,00217.5815070,E,1,07,1.0,-5.726,M,0.000,M,0.0,*50
$GPGSA,A,3,01,08,10,16,21,23,27,,,,,,2.0,1.2,1.6,1*21
$GPGSV,2,1,07,01,16,255,50,08,73,299,57,10,56,076,55,16,27,182,50,1*62
$GPGSV,2,2,07,21,45,263,54,23,27,048,50,27,70,121,56,,,,,1*59
$GPRMC,000058.00,A,4852.4674215,N,00217.5810768,E,1.12,0.00,180502,0.0,E,A*39
$GPGGA,000058.00,4852.4674215,N,00217.5810768,E,1,07,1.0,-8.075,M,0.000,M,0.0,*53
$GPGSA,A,3,01,08,10,16,21,23,27,,,,,,2.0,1.2,1.6,1*21
$GPGSV,2,1,07,01,16,255,48,08,73,299,57,10,56,076,56,16,27,182,51,1*69
$GPGSV,2,2,07,21,45,263,52,23,27,048,50,27,70,121,57,,,,,1*5E
$GPRMC,000059.00,A,4852.4673843,N,00217.5792302,E,0.44,0.00,180502,0.0,E,A*39
$GPGGA,000059.00,4852.4673843,N,00217.5792302,E,1,07,1.0,-3.129,M,0.000,M,0.0,*52
$GPGSA,A,3,01,08,10,16,21,23,27,,,,,,2.0,1.2,1.6,1*21
$GPGSV,2,1,07,01,16,255,50,08,73,299,57,10,56,076,57,16,26,182,52,1*63
$GPGSV,2,2,07,21,45,263,53,23,27,048,51,27,70,121,56,,,,,1*5F
$GPRMC,000100.00,A,4852.4666529,N,00217.5794606,E,0.70,0.00,180502,0.0,E,A*31
$GPGGA,000100.00,4852.4666529,N,00217.5794606,E,1,07,1.0,0.996,M,0.000,M,0.0,*7F
$GPGSA,A,3,01,08,10,16,21,23,27,,,,,,2.0,1.2,1.6,1*21
$GPGSV,2,1,07,01,16,255,49,08,73,299,56,10,56,076,57,16,26,182,50,1*68
$GPGSV,2,2,07,21,45,263,53,23,27,048,50,27,70,121,57,,,,,1*5F
$GPRMC,000101.00,A,4852.4665295,N,00217.5818063,E,0.64,0.00,180502,0.0,E,A*38
$GPGGA,000101.00,4852.4665295,N,00217.5818063,E,1,07,1.0,-4.504,M,0.000,M,0.0,*5D
$GPGSA,A,3,01,08,10,16,21,23,27,,,,,,2.0,1.2,1.6,1*21
$GPGSV,2,1,07,01,16,255,48,08,73,299,55,10,56,076,55,16,26,182,50,1*68
$GPGSV,2,2,07,21,45,263,52,23,27,048,51,27,70,121,57,,,,,1*5F
$GPRMC,000102.00,A,4852.4661953,N,00217.5806211,E,0.36,0.00,180502,0.0,E,A*31
$GPGGA,000102.00,4852.4661953,N,00217.5806211,E,1,07,1.0,-7.984,M,0.000,M,0.0,*54
$GPGSA,A,3,01,08,10,16,21,23,27,,,,,,2.0,1.2,1.6,1*21
$GPGSV,2,1,07,01,16,255,49,08,73,299,56,10,56,076,55,16,26,182,49,1*62
$GPGSV,2,2,07,21,45,263,53,23,27,048,50,27,70,121,56,,,,,1*5E
$GPRMC,000103.00,A,4852.4674612,N,00217.5806973,E,1.30,0.00,180502,0.0,E,A*36
$GPGGA,000103.00,4852.4674612,N,00217.5806973,E,1,07,1.0,-10.219,M,0.000,M,0.0,*6D
$GPGSA,A,3,01,08,10,16,21,23,27,,,,,,2.0,1.2,1.6,1*21
$GPGSV,2,1,07,01,16,255,48,08,73,299,56,10,56,076,56,16,26,182,50,1*68
$GPGSV,2,2,07,21,45,263,53,23,27,048,51,27,70,121,58,,,,,1*51
$GPRMC,000104.00,A,4852.4657577,N,00217.5820705,E,1.54,0.00,180502,0.0,E,A*39
$GPGGA,000104.00,4852.4657577,N,00217.5820705,E,1,07,1.0,-7.139,M,0.000,M,0.0,*57
$GPGSA,A,3,01,08,10,16,21,23,27,,,,,,2.0,1.2,1.6,1*21
$GPGSV,2,1,07,01,16,255,47,08,73,299,58,10,56,076,56,16,26,182,50,1*69
$GPGSV,2,2,07,21,45,263,54,23,27,048,50,27,70,121,58,,,,,1*57
$GPRMC,000105.00,A,4852.4648767,N,00217.5837054,E,1.51,0.00,180502,0.0,E,A*35
$GPGGA,000105.00,4852.4648767,N,00217.5837054,E,1,07,1.0,-9.746,M,0.000,M,0.0,*5E
$GPGSA,A,3,01,08,10,16,21,23,27,,,,,,2.0,1.2,1.6,1*21
$GPGSV,2,1,07,01,16,255,48,08,73,299,58,10,56,076,56,16,26,182,50,1*66
$GPGSV,2,2,07,21,45,263,53,23,27,048,50,27,70,121,57,,,,,1*5F
$GPRMC,000106.00,A,4852.4665937,N,00217.5828455,E,0.92,0.00,180502,0.0,E,A*37
$GPGGA,000106.00,4852.4665937,N,00217.5828455,E,1,07,1.0,-16.891,M,0.000,M,0.0,*69
$GPGSA,A,3,01,08,10,16,21,23,27,,,,,,2.0,1.2,1.6,1*21
$GPGSV,2,1,07,01,16,255,48,08,73,299,56,10,56,076,55,16,26,182,51,1*6A
$GPGSV,2,2,07,21,45,263,53,23,27,048,50,27,70,121,57,,,,,1*5F
$GPRMC,000107.00,A,4852.4664725,N,00217.5808001,E,0.85,0.00,180502,0.0,E,A*3B
$GPGGA,000107.00,4852.4664725,N,00217.5808001,E,1,07,1.0,-12.273,M,0.000,M,0.0,*61
$GPGSA,A,3,01,08,10,16,21,23,27,,,,,,2.0,1.2,1.6,1*21
$GPGSV,2,1,07,01,16,255,47,08,73,299,56,10,56,076,54,16,26,182,50,1*65
$GPGSV,2,2,07,21,45,263,51,23,27,048,51,27,70,121,56,,,,,1*5D
$GPRMC,000108.00,A,4852.4641070,N,00217.5853776,E,9.77,114.31,180502,0.0,E,A*3F
$GPGGA,000108.00,4852.4641070,N,00217.5853776,E,1,07,1.0,-1.194,M,0.000,M,0.0,*5F
$GPGSA,A,3,01,08,10,16,21,23,27,,,,,,2.0,1.2,1.6,1*21
$GPGSV,2,1,07,01,16,255,42,08,73,299,58,10,56,076,53,16,26,182,52,1*6B
$GPGSV,2,2,07,21,45,263,48,23,27,048,47,27,70,121,58,,,,,1*5C
$GPRMC,000109.00,A,4852.4617804,N,00217.5914191,E,20.94,109.90,180502,0.0,E,A*0A
$GPGGA,000109.00,4852.4617804,N,00217.5914191,E,1,07,1.0,4.308,M,0.000,M,0.0,*74
$GPGSA,A,3,01,08,10,16,21,23,27,,,,,,2.0,1.2,1.6,1*21
$GPGSV,2,1,07,01,16,255,43,08,73,299,58,10,56,076,50,16,26,182,48,1*62
$GPGSV,2,2,07,21,45,263,54,23,27,048,48,27,70,121,57,,,,,1*51
$GPRMC,000110.00,A,4852.4613400,N,00217.5987348,E,29.92,115.35,180502,0.0,E,A*0F
$GPGGA,000110.00,4852.4613400,N,00217.5987348,E,1,07,1.0,-8.165,M,0.000,M,0.0,*54
$GPGSA,A,3,01,08,10,16,21,23,27,,,,,,2.0,1.2,1.6,1*21
$GPGSV,2,1,07,01,16,255,47,08,73,299,58,10,56,076,51,16,26,182,49,1*66
$GPGSV,2,2,07,21,45,263,52,23,27,048,48,27,70,121,54,,,,,1*54
$GPRMC,000111.00,A,4852.4571960,N,00217.6104066,E,31.79,113.61,180502,0.0,E,A*06
$GPGGA,000111.00,4852.4571960,N,00217.6104066,E,1,07,1.0,-8.381,M,0.000,M,0.0,*5E
$GPGSA,A,3,01,08,10,16,21,23,27,,,,,,2.0,1.2,1.6,1*21
$GPGSV,2,1,07,01,16,255,47,08,73,299,54,10,56,076,53,16,26,182,50,1*60
$GPGSV,2,2,07,21,45,263,53,23,27,048,50,27,70,121,54,,,,,1*5C
$GPRMC,000112.00,A,4852.4544702,N,00217.6208930,E,26.44,105.23,180502,0.0,E,A*05
$GPGGA,000112.00,4852.4544702,N,00217.6208930,E,1,07,1.0,0.248,M,0.000,M,0.0,*75
$GPGSA,A,3,01,08,10,16,21,23,27,,,,,,2.0,1.2,1.6,1*21
$GPGSV,2,1,07,01,16,255,48,08,73,299,56,10,56,076,49,16,26,182,46,1*61
$GPGSV,2,2,07,21,45,263,51,23,27,048,47,27,70,121,53,,,,,1*5F
$GPRMC,000113.00,A,4852.4518700,N,00217.6317965,E,22.23,110.94,180502,0.0,E,A*0D
$GPGGA,000113.00,4852.4518700,N,00217.6317965,E,1,07,1.0,-0.368,M,0.000,M,0.0,*5E
$GPGSA,A,3,01,08,10,16,21,23,27,,,,,,2.0,1.2,1.6,1*21
$GPGSV,2,1,07,01,16,255,41,08,73,299,47,10,56,076,46,16,26,182,40,1*61
$GPGSV,2,2,07,21,45,263,43,23,27,048,51,27,70,121,45,,,,,1*5C
$GPRMC,000114.00,A,4852.4519824,N,00217.6389466,E,18.25,99.95,180502,0.0,E,A*35
$GPGGA,000114.00,4852.4519824,N,00217.6389466,E,1,07,1.0,-9.540,M,0.000,M,0.0,*5D
$GPGSA,A,3,01,08,10,16,21,23,27,,,,,,2.0,1.2,1.6,1*21
$GPGSV,2,1,07,01,16,255,44,08,73,299,47,10,56,076,47,16,26,182,36,1*64
$GPGSV,2,2,07,21,45,263,49,23,27,048,44,27,70,121,45,,,,,1*52
$GPRMC,000115.00,A,4852.4522079,N,00217.6481311,E,21.59,88.25,180502,0.0,E,A*3E
$GPGGA,000115.00,4852.4522079,N,00217.6481311,E,1,07,1.0,-10.180,M,0.000,M,0.0,*6C
$GPGSA,A,3,01,08,10,16,21,23,27,,,,,,2.0,1.2,1.6,1*21
$GPGSV,2,1,07,01,16,255,37,08,73,299,51,10,56,076,42,16,26,182,36,1*62
$GPGSV,2,2,07,21,45,263,41,23,27,048,37,27,70,121,52,,,,,1*58
$GPRMC,000116.00,A,4852.4508930,N,00217.6556350,E,16.56,68.27,180502,0.0,E,A*38
$GPGGA,000116.00,4852.4508930,N,00217.6556350,E,1,07,1.0,-8.319,M,0.000,M,0.0,*56
$GPGSA,A,3,01,08,10,16,21,23,27,,,,,,2.0,1.2,1.6,1*21
$GPGSV,2,1,07,01,16,255,35,08,73,298,50,10,56,076,38,16,26,182,36,1*6D
$GPGSV,2,2,07,21,45,263,37,23,27,048,35,27,70,121,52,,,,,1*5B
$GPRMC,000117.00,A,4852.4528097,N,00217.6572261,E,5.51,52.42,180502,0.0,E,A*05
$GPGGA,000117.00,4852.4528097,N,00217.6572261,E,1,07,1.0,-9.292,M,0.000,M,0.0,*57
$GPGSA,A,3,01,08,10,16,21,23,27,,,,,,2.0,1.2,1.6,1*21
$GPGSV,2,1,07,01,16,255,36,08,73,298,50,10,56,076,39,16,26,182,35,1*6C
$GPGSV,2,2,07,21,45,263,39,23,27,048,35,27,70,121,48,,,,,1*5E
$GPRMC,000118.00,A,4852.4548845,N,00217.6608386,E,16.82,45.17,180502,0.0,E,A*37
$GPGGA,000118.00,4852.4548845,N,00217.6608386,E,1,07,1.0,-8.655,M,0.000,M,0.0,*51
$GPGSA,A,3,01,08,10,16,21,23,27,,,,,,2.0,1.2,1.6,1*21
$GPGSV,2,1,07,01,16,255,35,08,73,298,45,10,56,076,37,16,26,182,35,1*65
$GPGSV,2,2,07,21,45,263,37,23,27,048,35,27,70,121,44,,,,,1*5C
$GPRMC,000119.00,A,4852.4577866,N,00217.6673681,E,22.57,10.19,180502,0.0,E,A*34
$GPGGA,000119.00,4852.4577866,N,00217.6673681,E,1,07,1.0,-12.911,M,0.000,M,0.0,*67
$GPGSA,A,3,01,08,10,16,21,23,27,,,,,,2.0,1.2,1.6,1*21
$GPGSV,2,1,07,01,16,255,35,08,74,298,42,10,56,076,38,16,26,182,36,1*69
$GPGSV,2,2,07,21,45,263,39,23,27,048,36,27,70,121,40,,,,,1*55
$GPRMC,000120.00,A,4852.4523483,N,00217.6653182,E,11.95,358.17,180502,0.0,E,A*01
$GPGGA,000120.00,4852.4523483,N,00217.6653182,E,1,05,1.0,-1.500,M,0.000,M,0.0,*51
$GPGSA,A,3,01,08,10,21,27,,,,,,,,4.8,3.8,2.9,1*2D
$GPGSV,2,1,05,01,16,255,40,08,74,298,40,10,56,076,44,21,45,263,48,1*64
$GPGSV,2,2,05,27,70,121,38,,,,,,,,,,,,,1*5A
$GPRMC,000121.00,A,4852.4571903,N,00217.6688361,E,13.09,330.23,180502,0.0,E,A*05
$GPGGA,000121.00,4852.4571903,N,00217.6688361,E,1,05,1.0,-8.002,M,0.000,M,0.0,*55
$GPGSA,A,3,01,08,10,21,27,,,,,,,,4.8,3.8,2.8,1*2C
$GPGSV,2,1,05,01,16,255,43,08,74,298,39,10,56,076,47,21,45,263,42,1*60
$GPGSV,2,2,05,27,70,121,37,,,,,,,,,,,,,1*55
$GPRMC,000122.00,A,4852.4694551,N,00217.6628208,E,32.00,332.56,180502,0.0,E,A*0B
$GPGGA,000122.00,4852.4694551,N,00217.6628208,E,1,05,1.0,-16.439,M,0.000,M,0.0,*62
$GPGSA,A,3,01,08,10,21,27,,,,,,,,4.8,3.8,2.8,1*2C
$GPGSV,2,1,05,01,16,255,38,08,74,298,37,10,56,076,41,21,45,263,37,1*66
$GPGSV,2,2,05,27,70,121,36,,,,,,,,,,,,,1*54
$GPRMC,000123.00,A,4852.4801839,N,00217.6575956,E,29.52,320.05,180502,0.0,E,A*08
$GPGGA,000123.00,4852.4801839,N,00217.6575956,E,1,05,1.0,-15.850,M,0.000,M,0.0,*69
$GPGSA,A,3,01,08,10,21,27,,,,,,,,4.8,3.8,2.8,1*2C
$GPGSV,2,1,05,01,16,255,35,08,74,298,36,10,56,076,37,21,45,263,35,1*69
$GPGSV,2,2,05,27,70,121,35,,,,,,,,,,,,,1*57
$GPRMC,000124.00,A,4852.4896714,N,00217.6479317,E,31.02,326.75,180502,0.0,E,A*0E
$GPGGA,000124.00,4852.4896714,N,00217.6479317,E,1,05,1.0,-10.048,M,0.000,M,0.0,*66
$GPGSA,A,3,01,08,10,21,27,,,,,,,,4.8,3.8,2.8,1*2C
$GPGSV,2,1,05,01,16,255,34,08,74,298,36,10,56,076,35,21,45,263,34,1*6B
$GPGSV,2,2,05,27,70,121,35,,,,,,,,,,,,,1*57
$GPRMC,000125.00,A,4852.4969232,N,00217.6390181,E,42.26,333.63,180502,0.0,E,A*03
$GPGGA,000125.00,4852.4969232,N,00217.6390181,E,1,05,1.0,2.577,M,0.000,M,0.0,*7D
$GPGSA,A,3,01,08,10,21,27,,,,,,,,4.8,3.8,2.8,1*2C
$GPGSV,2,1,05,01,16,255,34,08,74,298,36,10,56,076,35,21,45,263,35,1*6A
$GPGSV,2,2,05,27,70,121,35,,,,,,,,,,,,,1*57
$GPRMC,000126.00,A,4852.5053756,N,00217.6366000,E,44.92,344.60,180502,0.0,E,A*0D
$GPGGA,000126.00,4852.5053756,N,00217.6366000,E,1,04,1.0,17.476,M,0.000,M,0.0,*4C
$GPGSA,A,3,08,10,21,27,,,,,,,,,6.8,3.9,5.5,1*24
$GPGSV,1,1,04,08,74,298,36,10,56,076,35,21,45,263,35,27,70,121,36,1*6E
$GPRMC,000127.00,A,4852.5156280,N,00217.6293864,E,43.93,339.92,180502,0.0,E,A*06
$GPGGA,000127.00,4852.5156280,N,00217.6293864,E,1,04,1.0,17.553,M,0.000,M,0.0,*40
$GPGSA,A,3,08,10,21,27,,,,,,,,,6.8,3.9,5.5,1*24
$GPGSV,1,1,04,08,74,298,36,10,56,076,35,21,45,263,35,27,70,121,36,1*6E
$GPRMC,000148.00,A,4852.6503959,N,00217.5762304,E,31.64,52.50,180502,0.0,E,A*3F
$GPGGA,000148.00,4852.6503959,N,00217.5762304,E,1,07,1.0,-7.354,M,0.000,M,0.0,*5A
$GPGSA,A,3,01,08,10,16,21,23,27,,,,,,2.0,1.2,1.6,1*21
$GPGSV,2,1,07,01,16,255,38,08,74,298,44,10,55,076,36,16,26,182,48,1*66
$GPGSV,2,2,07,21,45,263,38,23,27,048,39,27,70,121,46,,,,,1*5D
$GPRMC,000149.00,A,4852.6555908,N,00217.5865358,E,33.29,52.00,180502,0.0,E,A*36
$GPGGA,000149.00,4852.6555908,N,00217.5865358,E,1,07,1.0,-7.551,M,0.000,M,0.0,*5E
$GPGSA,A,3,01,08,10,16,21,23,27,,,,,,2.0,1.2,1.6,1*21
$GPGSV,2,1,07,01,16,255,36,08,74,298,43,10,55,076,36,16,26,182,49,1*6E
$GPGSV,2,2,07,21,45,263,38,23,27,048,40,27,70,121,45,,,,,1*50
$GPRMC,000150.00,A,4852.6625299,N,00217.5959398,E,34.10,45.10,180502,0.0,E,A*31
$GPGGA,000150.00,4852.6625299,N,00217.5959398,E,1,07,1.0,-6.388,M,0.000,M,0.0,*50
$GPGSA,A,3,01,08,10,16,21,23,27,,,,,,2.0,1.2,1.6,1*21
$GPGSV,2,1,07,01,16,255,36,08,74,298,42,10,55,076,36,16,26,182,49,1*6F
$GPGSV,2,2,07,21,45,263,37,23,27,048,42,27,70,121,44,,,,,1*5C
$GPRMC,000151.00,A,4852.6678576,N,00217.6060744,E,32.12,39.92,180502,0.0,E,A*3E
$GPGGA,000151.00,4852.6678576,N,00217.6060744,E,1,07,1.0,-5.928,M,0.000,M,0.0,*59
$GPGSA,A,3,01,08,10,16,21,23,27,,,,,,2.0,1.2,1.6,1*21
$GPGSV,2,1,07,01,16,255,35,08,74,298,42,10,55,076,35,16,26,182,48,1*6E
$GPGSV,2,2,07,21,45,263,36,23,27,048,44,27,70,121,43,,,,,1*5C
$GPRMC,000152.00,A,4852.6757154,N,00217.6140032,E,32.12,44.50,180502,0.0,E,A*34
$GPGGA,000152.00,4852.6757154,N,00217.6140032,E,1,07,1.0,-5.981,M,0.000,M,0.0,*54
$GPGSA,A,3,01,08,10,16,21,23,27,,,,,,2.0,1.2,1.6,1*21
$GPGSV,2,1,07,01,16,255,34,08,74,298,41,10,55,075,35,16,26,182,48,1*6F
$GPGSV,2,2,07,21,45,263,36,23,27,048,46,27,70,121,42,,,,,1*5F
$GPRMC,000153.00,A,4852.6825959,N,00217.6233575,E,33.46,46.63,180502,0.0,E,A*39
$GPGGA,000153.00,4852.6825959,N,00217.6233575,E,1,06,1.0,-5.139,M,0.000,M,0.0,*51
$GPGSA,A,3,01,08,16,21,23,27,,,,,,,2.1,1.3,1.6,1*20
$GPGSV,2,1,06,01,16,255,35,08,74,298,40,16,26,182,48,21,45,263,36,1*6B
$GPGSV,2,2,06,23,27,048,47,27,70,121,41,,,,,,,,,1*6C
$GPRMC,000154.00,A,4852.6898619,N,00217.6306672,E,31.78,41.20,180502,0.0,E,A*3F
$GPGGA,000154.00,4852.6898619,N,00217.6306672,E,1,06,1.0,-7.042,M,0.000,M,0.0,*57
$GPGSA,A,3,01,08,16,21,23,27,,,,,,,2.1,1.3,1.6,1*20
$GPGSV,2,1,06,01,16,255,36,08,74,298,40,16,26,182,48,21,45,263,35,1*6B
$GPGSV,2,2,06,23,27,048,47,27,70,121,40,,,,,,,,,1*6D
$GPRMC,000155.00,A,4852.6944321,N,00217.6397096,E,31.05,41.23,180502,0.0,E,A*3D
$GPGGA,000155.00,4852.6944321,N,00217.6397096,E,1,06,1.0,-2.259,M,0.000,M,0.0,*51
$GPGSA,A,3,01,08,16,21,23,27,,,,,,,2.1,1.3,1.6,1*20
$GPGSV,2,1,06,01,16,255,36,08,74,298,39,16,26,182,46,21,45,263,35,1*6B
$GPGSV,2,2,06,23,27,048,45,27,70,121,40,,,,,,,,,1*6F
$GPRMC,000156.00,A,4852.7001687,N,00217.6486816,E,21.57,42.58,180502,0.0,E,A*30
$GPGGA,000156.00,4852.7001687,N,00217.6486816,E,1,06,1.0,-4.736,M,0.000,M,0.0,*5F
$GPGSA,A,3,01,08,16,21,23,27,,,,,,,2.1,1.3,1.6,1*20
$GPGSV,2,1,06,01,16,255,37,08,74,298,40,16,26,182,46,21,45,263,35,1*64
$GPGSV,2,2,06,23,27,048,49,27,70,121,40,,,,,,,,,1*63
$GPRMC,000157.00,A,4852.7031281,N,00217.6524958,E,13.77,29.59,180502,0.0,E,A*3D
$GPGGA,000157.00,4852.7031281,N,00217.6524958,E,1,05,1.0,-5.242,M,0.000,M,0.0,*59
$GPGSA,A,3,01,08,16,23,27,,,,,,,,2.2,1.4,1.7,1*26
$GPGSV,2,1,05,01,16,255,38,08,74,298,40,16,26,182,47,23,27,048,48,1*6E
$GPGSV,2,2,05,27,70,121,40,,,,,,,,,,,,,1*55
$GPRMC,000158.00,A,4852.7077991,N,00217.6531792,E,19.05,16.24,180502,0.0,E,A*3F
$GPGGA,000158.00,4852.7077991,N,00217.6531792,E,1,05,1.0,-6.793,M,0.000,M,0.0,*58
$GPGSA,A,3,01,08,16,23,27,,,,,,,,2.2,1.4,1.7,1*26
$GPGSV,2,1,05,01,16,255,39,08,74,298,40,16,26,182,46,23,27,048,48,1*6E
$GPGSV,2,2,05,27,70,121,40,,,,,,,,,,,,,1*55
$GPRMC,000159.00,A,4852.7161584,N,00217.6535904,E,26.40,2.12,180502,0.0,E,A*08
$GPGGA,000159.00,4852.7161584,N,00217.6535904,E,1,05,1.0,-6.606,M,0.000,M,0.0,*5F
$GPGSA,A,3,01,08,16,23,27,,,,,,,,2.2,1.4,1.7,1*26
$GPGSV,2,1,05,01,16,255,40,08,74,298,42,16,26,182,49,23,27,048,48,1*6D
$GPGSV,2,2,05,27,70,121,42,,,,,,,,,,,,,1*57
$GPRMC,000200.00,A,4852.7212968,N,00217.6572506,E,25.18,6.07,180502,0.0,E,A*0D
$GPGGA,000200.00,4852.7212968,N,00217.6572506,E,1,05,1.0,-12.820,M,0.000,M,0.0,*6B
$GPGSA,A,3,01,08,16,23,27,,,,,,,,2.2,1.4,1.7,1*26
$GPGSV,2,1,05,01,16,255,40,08,74,298,42,16,26,182,47,23,27,048,49,1*62
$GPGSV,2,2,05,27,70,121,42,,,,,,,,,,,,,1*57
$GPRMC,000201.00,A,4852.7276796,N,00217.6592147,E,20.74,13.96,180502,0.0,E,A*3D
$GPGGA,000201.00,4852.7276796,N,00217.6592147,E,1,05,1.0,-4.497,M,0.000,M,0.0,*5F
$GPGSA,A,3,01,08,16,23,27,,,,,,,,2.2,1.4,1.7,1*26
$GPGSV,2,1,05,01,16,255,42,08,74,298,43,16,26,182,49,23,27,048,48,1*6E
$GPGSV,2,2,05,27,70,121,44,,,,,,,,,,,,,1*51
$GPRMC,000202.00,A,4852.7334351,N,00217.6609804,E,27.92,18.84,180502,0.0,E,A*3E
$GPGGA,000202.00,4852.7334351,N,00217.6609804,E,1,05,1.0,-9.146,M,0.000,M,0.0,*5F
$GPGSA,A,3,01,08,16,23,27,,,,,,,,2.2,1.4,1.7,1*26
$GPGSV,2,1,05,01,16,255,44,08,74,298,43,16,26,182,50,23,27,048,48,1*60
$GPGSV,2,2,05,27,70,121,43,,,,,,,,,,,,,1*56
$GPRMC,000203.00,A,4852.7425081,N,00217.6659462,E,32.87,17.69,180502,0.0,E,A*33
$GPGGA,000203.00,4852.7425081,N,00217.6659462,E,1,05,1.0,-10.355,M,0.000,M,0.0,*66
$GPGSA,A,3,01,08,16,23,27,,,,,,,,2.2,1.4,1.7,1*26
$GPGSV,2,1,05,01,16,255,43,08,74,298,42,16,26,182,48,23,27,048,47,1*60
$GPGSV,2,2,05,27,70,121,43,,,,,,,,,,,,,1*56
$GPRMC,000204.00,A,4852.7509556,N,00217.6702300,E,32.79,21.23,180502,0.0,E,A*32
$GPGGA,000204.00,4852.7509556,N,00217.6702300,E,1,05,1.0,-16.111,M,0.000,M,0.0,*69
$GPGSA,A,3,01,08,16,23,27,,,,,,,,2.2,1.4,1.7,1*26
$GPGSV,2,1,05,01,16,255,44,08,74,298,43,16,26,182,48,23,27,048,48,1*69
$GPGSV,2,2,05,27,70,121,43,,,,,,,,,,,,,1*56
$GPRMC,000206.00,A,4852.7656242,N,00217.6831073,E,32.36,19.51,180502,0.0,E,A*36
$GPGGA,000206.00,4852.7656242,N,00217.6831073,E,1,05,1.0,-8.173,M,0.000,M,0.0,*53
$GPGSA,A,3,01,08,16,23,27,,,,,,,,2.2,1.4,1.7,1*26
$GPGSV,2,1,05,01,16,255,46,08,74,298,41,16,26,182,48,23,27,047,50,1*6F
$GPGSV,2,2,05,27,69,121,41,,,,,,,,,,,,,1*5C
$GPRMC,000207.00,A,4852.7748767,N,00217.6864042,E,32.87,20.91,180502,0.0,E,A*35
$GPGGA,000207.00,4852.7748767,N,00217.6864042,E,1,05,1.0,-11.263,M,0.000,M,0.0,*66
$GPGSA,A,3,01,08,16,23,27,,,,,,,,2.2,1.4,1.7,1*26
$GPGSV,2,1,05,01,16,255,46,08,74,298,41,16,26,182,48,23,27,047,50,1*6F
$GPGSV,2,2,05,27,69,121,41,,,,,,,,,,,,,1*5C
$GPRMC,000208.00,A,4852.7853704,N,00217.6887860,E,33.28,18.21,180502,0.0,E,A*3B
$GPGGA,000208.00,4852.7853704,N,00217.6887860,E,1,05,1.0,-10.380,M,0.000,M,0.0,*61
$GPGSA,A,3,01,08,16,23,27,,,,,,,,2.2,1.4,1.7,1*26
$GPGSV,2,1,05,01,16,255,46,08,74,298,41,16,26,182,48,23,27,047,48,1*66
$GPGSV,2,2,05,27,69,121,41,,,,,,,,,,,,,1*5C
$GPRMC,000209.00,A,4852.7939554,N,00217.6926806,E,31.32,18.16,180502,0.0,E,A*37
$GPGGA,000209.00,4852.7939554,N,00217.6926806,E,1,05,1.0,-11.976,M,0.000,M,0.0,*62
$GPGSA,A,3,01,08,16,23,27,,,,,,,,2.2,1.4,1.7,1*26
$GPGSV,2,1,05,01,16,255,47,08,74,298,42,16,26,182,48,23,27,047,47,1*6B
$GPGSV,2,2,05,27,69,121,42,,,,,,,,,,,,,1*5F
$GPRMC,000210.00,A,4852.8007173,N,00217.6979989,E,31.99,20.40,180502,0.0,E,A*30
$GPGGA,000210.00,4852.8007173,N,00217.6979989,E,1,05,1.0,-2.516,M,0.000,M,0.0,*54
$GPGSA,A,3,01,08,16,23,27,,,,,,,,2.2,1.4,1.7,1*26
$GPGSV,2,1,05,01,16,255,47,08,74,298,42,16,26,182,48,23,27,047,50,1*6D
$GPGSV,2,2,05,27,69,121,42,,,,,,,,,,,,,1*5F
$GPRMC,000211.00,A,4852.8082563,N,00217.7024407,E,32.17,18.90,180502,0.0,E,A*31
$GPGGA,000211.00,4852.8082563,N,00217.7024407,E,1,05,1.0,-1.919,M,0.000,M,0.0,*56
$GPGSA,A,3,01,08,16,23,27,,,,,,,,2.2,1.4,1.7,1*26
$GPGSV,2,1,05,01,16,255,46,08,74,298,43,16,26,182,47,23,27,047,49,1*6A
$GPGSV,2,2,05,27,69,121,42,,,,,,,,,,,,,1*5F
$GPRMC,000212.00,A,4852.8206195,N,00217.7011783,E,31.79,18.63,180502,0.0,E,A*3F
$GPGGA,000212.00,4852.8206195,N,00217.7011783,E,1,06,1.0,-3.564,M,0.000,M,0.0,*58
$GPGSA,A,3,01,08,10,16,23,27,,,,,,,2.1,1.3,1.6,1*22
$GPGSV,2,1,06,01,16,255,46,08,74,298,44,10,55,075,46,16,26,182,49,1*6B
$GPGSV,2,2,06,23,27,047,49,27,69,121,44,,,,,,,,,1*60
$GPRMC,000213.00,A,4852.8283342,N,00217.7047719,E,33.21,15.68,180502,0.0,E,A*32
$GPGGA,000213.00,4852.8283342,N,00217.7047719,E,1,06,1.0,-2.109,M,0.000,M,0.0,*52
$GPGSA,A,3,01,08,10,16,23,27,,,,,,,2.1,1.3,1.6,1*22
$GPGSV,2,1,06,01,16,255,46,08,74,298,46,10,55,075,48,16,26,182,49,1*67
$GPGSV,2,2,06,23,27,047,48,27,69,121,46,,,,,,,,,1*63
$GPRMC,000216.00,A,4852.8518826,N,00217.7241105,E,27.85,17.26,180502,0.0,E,A*37
$GPGGA,000216.00,4852.8518826,N,00217.7241105,E,1,06,1.0,-19.492,M,0.000,M,0.0,*69
$GPGSA,A,3,01,08,10,16,23,27,,,,,,,2.1,1.3,1.6,1*22
$GPGSV,2,1,06,01,16,255,46,08,74,298,54,10,55,075,49,16,26,182,48,1*64
$GPGSV,2,2,06,23,27,047,48,27,69,121,52,,,,,,,,,1*66
$GPRMC,000222.00,A,4852.8700405,N,00217.7372399,E,5.09,93.00,180502,0.0,E,A*0C
$GPGGA,000222.00,4852.8700405,N,00217.7372399,E,1,07,1.0,14.677,M,0.000,M,0.0,*46
$GPGSA,A,3,01,08,10,16,21,23,27,,,,,,2.0,1.2,1.6,1*21
$GPGSV,2,1,07,01,16,255,47,08,74,298,50,10,55,075,50,16,26,182,48,1*68
$GPGSV,2,2,07,21,45,263,48,23,27,047,50,27,69,121,51,,,,,1*54
$GPRMC,000223.00,A,4852.8686035,N,00217.7382261,E,13.10,124.11,180502,0.0,E,A*0E
$GPGGA,000223.00,4852.8686035,N,00217.7382261,E,1,07,1.0,2.096,M,0.000,M,0.0,*78
$GPGSA,A,3,01,08,10,16,21,23,27,,,,,,2.0,1.2,1.6,1*21
$GPGSV,2,1,07,01,16,255,46,08,74,298,47,10,55,075,50,16,26,182,48,1*6F
$GPGSV,2,2,07,21,45,263,47,23,27,047,50,27,69,121,47,,,,,1*5C
$GPRMC,000224.00,A,4852.8666101,N,00217.7450868,E,22.13,139.07,180502,0.0,E,A*00
$GPGGA,000224.00,4852.8666101,N,00217.7450868,E,1,07,1.0,-9.872,M,0.000,M,0.0,*58
$GPGSA,A,3,01,08,10,16,21,23,27,,,,,,2.0,1.2,1.6,1*21
$GPGSV,2,1,07,01,16,255,50,08,74,298,55,10,55,075,53,16,26,182,50,1*61
$GPGSV,2,2,07,21,45,263,53,23,27,047,50,27,69,121,52,,,,,1*5D
$GPRMC,000225.00,A,4852.8601241,N,00217.7514960,E,32.31,140.80,180502,0.0,E,A*0F
$GPGGA,000225.00,4852.8601241,N,00217.7514960,E,1,07,1.0,-11.366,M,0.000,M,0.0,*60
$GPGSA,A,3,01,08,10,16,21,23,27,,,,,,2.0,1.2,1.6,1*21
$GPGSV,2,1,07,01,16,255,48,08,74,298,56,10,55,075,54,16,26,182,50,1*6C
$GPGSV,2,2,07,21,45,263,52,23,27,047,51,27,69,121,56,,,,,1*59
$GPRMC,000226.00,A,4852.8524316,N,00217.7614852,E,32.62,141.26,180502,0.0,E,A*03
$GPGGA,000226.00,4852.8524316,N,00217.7614852,E,1,07,1.0,-7.516,M,0.000,M,0.0,*51
$GPGSA,A,3,01,08,10,16,21,23,27,,,,,,2.0,1.2,1.6,1*21
$GPGSV,2,1,07,01,16,255,48,08,74,298,56,10,55,075,54,16,26,182,52,1*6E
$GPGSV,2,2,07,21,45,263,52,23,27,047,49,27,69,121,58,,,,,1*5E
$GPRMC,000227.00,A,4852.8449011,N,00217.7706058,E,33.23,144.83,180502,0.0,E,A*02
$GPGGA,000227.00,4852.8449011,N,00217.7706058,E,1,07,1.0,-6.046,M,0.000,M,0.0,*5F
$GPGSA,A,3,01,08,10,16,21,23,27,,,,,,2.0,1.2,1.6,1*21
$GPGSV,2,1,07,01,16,255,50,08,74,298,55,10,55,075,53,16,26,182,48,1*68
$GPGSV,2,2,07,21,45,263,53,23,27,047,50,27,69,121,57,,,,,1*58
$GPRMC,000228.00,A,4852.8387208,N,00217.7757183,E,33.14,146.97,180502,0.0,E,A*02
$GPGGA,000228.00,4852.8387208,N,00217.7757183,E,1,07,1.0,-10.168,M,0.000,M,0.0,*66
$GPGSA,A,3,01,08,10,16,21,23,27,,,,,,2.0,1.2,1.6,1*21
$GPGSV,2,1,07,01,16,255,48,08,74,298,53,10,55,075,52,16,26,182,50,1*6F
$GPGSV,2,2,07,21,45,263,52,23,27,047,50,27,69,121,56,,,,,1*58
$GPRMC,000229.00,A,4852.8325031,N,00217.7821869,E,31.76,143.56,180502,0.0,E,A*0E
$GPGGA,000229.00,4852.8325031,N,00217.7821869,E,1,07,1.0,-12.005,M,0.000,M,0.0,*6C
$GPGSA,A,3,01,08,10,16,21,23,27,,,,,,2.0,1.2,1.6,1*21
$GPGSV,2,1,07,01,16,255,49,08,74,298,55,10,55,075,53,16,26,182,50,1*69
$GPGSV,2,2,07,21,45,263,54,23,27,047,49,27,69,121,57,,,,,1*57
$GPRMC,000230.00,A,4852.8238733,N,00217.7934968,E,31.70,140.13,180502,0.0,E,A*0F
$GPGGA,000230.00,4852.8238733,N,00217.7934968,E,1,07,1.0,-9.252,M,0.000,M,0.0,*53
$GPGSA,A,3,01,08,10,16,21,23,27,,,,,,2.0,1.2,1.6,1*21
$GPGSV,2,1,07,01,16,255,47,08,74,298,55,10,55,075,54,16,26,182,50,1*60
$GPGSV,2,2,07,21,45,263,51,23,27,047,51,27,69,121,57,,,,,1*5B
$GPRMC,000231.00,A,4852.8161410,N,00217.8033688,E,33.61,140.71,180502,0.0,E,A*05
$GPGGA,000231.00,4852.8161410,N,00217.8033688,E,1,07,1.0,-4.882,M,0.000,M,0.0,*55
$GPGSA,A,3,01,08,10,16,21,23,27,,,,,,2.0,1.2,1.6,1*21
$GPGSV,2,1,07,01,16,255,46,08,74,298,57,10,55,075,54,16,26,182,51,1*62
$GPGSV,2,2,07,21,45,263,51,23,27,047,51,27,69,121,56,,,,,1*5A
$GPRMC,000232.00,A,4852.8099896,N,00217.8121128,E,31.80,140.49,180502,0.0,E,A*0B
$GPGGA,000232.00,4852.8099896,N,00217.8121128,E,1,07,1.0,-9.454,M,0.000,M,0.0,*57
$GPGSA,A,3,01,08,10,16,21,23,27,,,,,,2.0,1.2,1.6,1*21
$GPGSV,2,1,07,01,16,255,47,08,74,298,59,10,55,075,54,16,26,182,50,1*6C
$GPGSV,2,2,07,21,45,263,52,23,27,047,50,27,69,121,57,,,,,1*59
$GPRMC,000233.00,A,4852.8045152,N,00217.8200688,E,32.06,138.72,180502,0.0,E,A*0D
$GPGGA,000233.00,4852.8045152,N,00217.8200688,E,1,07,1.0,-14.018,M,0.000,M,0.0,*6B
$GPGSA,A,3,01,08,10,16,21,23,27,,,,,,2.0,1.2,1.6,1*21
$GPGSV,2,1,07,01,16,255,49,08,74,298,55,10,55,075,54,16,26,182,49,1*66
$GPGSV,2,2,07,21,45,263,51,23,27,047,50,27,69,121,56,,,,,1*5B
$GPRMC,000234.00,A,4852.7973293,N,00217.8276387,E,32.13,138.90,180502,0.0,E,A*04
$GPGGA,000234.00,4852.7973293,N,00217.8276387,E,1,07,1.0,-9.312,M,0.000,M,0.0,*5F
$GPGSA,A,3,01,08,10,16,21,23,27,,,,,,2.0,1.2,1.6,1*21
$GPGSV,2,1,07,01,16,255,48,08,74,298,55,10,55,075,54,16,26,182,50,1*6F
$GPGSV,2,2,07,21,45,263,53,23,27,047,50,27,69,121,55,,,,,1*5A
$GPRMC,000235.00,A,4852.7891719,N,00217.8373561,E,32.57,138.62,180502,0.0,E,A*08
$GPGGA,000235.00,4852.7891719,N,00217.8373561,E,1,07,1.0,-6.928,M,0.000,M,0.0,*52
$GPGSA,A,3,01,08,10,16,21,23,27,,,,,,2.0,1.2,1.6,1*21
$GPGSV,2,1,07,01,16,255,49,08,74,298,56,10,55,075,52,16,26,182,51,1*6A
$GPGSV,2,2,07,21,45,263,52,23,27,047,50,27,69,121,52,,,,,1*5C
$GPRMC,000236.00,A,4852.7829117,N,00217.8468802,E,32.61,137.05,180502,0.0,E,A*0E
$GPGGA,000236.00,4852.7829117,N,00217.8468802,E,1,07,1.0,-7.164,M,0.000,M,0.0,*5E
$GPGSA,A,3,01,08,10,16,21,23,27,,,,,,2.0,1.2,1.6,1*21
$GPGSV,2,1,07,01,16,255,48,08,74,298,55,10,55,075,53,16,26,182,51,1*69
$GPGSV,2,2,07,21,45,263,53,23,27,047,51,27,69,122,54,,,,,1*59
$GPRMC,000237.00,A,4852.7767810,N,00217.8554036,E,27.04,133.52,180502,0.0,E,A*04
$GPGGA,000237.00,4852.7767810,N,00217.8554036,E,1,07,1.0,-10.273,M,0.000,M,0.0,*66
$GPGSA,A,3,01,08,10,16,21,23,27,,,,,,2.0,1.2,1.6,1*21
$GPGSV,2,1,07,01,16,255,48,08,74,298,56,10,55,075,53,16,26,182,49,1*63
$GPGSV,2,2,07,21,45,263,54,23,27,047,50,27,69,122,56,,,,,1*5D
$GPRMC,000238.00,A,4852.7734817,N,00217.8626955,E,18.05,125.95,180502,0.0,E,A*01
$GPGGA,000238.00,4852.7734817,N,00217.8626955,E,1,07,1.0,-13.498,M,0.000,M,0.0,*62
$GPGSA,A,3,01,08,10,16,21,23,27,,,,,,2.0,1.2,1.6,1*21
$GPGSV,2,1,07,01,16,255,49,08,74,298,56,10,55,075,54,16,26,182,50,1*6D
$GPGSV,2,2,07,21,45,263,54,23,27,047,50,27,69,122,56,,,,,1*5D
$GPRMC,000239.00,A,4852.7719804,N,00217.8664112,E,7.94,96.07,180502,0.0,E,A*04
$GPGGA,000239.00,4852.7719804,N,00217.8664112,E,1,07,1.0,-9.067,M,0.000,M,0.0,*5C
$GPGSA,A,3,01,08,10,16,21,23,27,,,,,,2.0,1.2,1.6,1*21
$GPGSV,2,1,07,01,16,255,49,08,74,298,58,10,55,075,56,16,26,182,49,1*69
$GPGSV,2,2,07,21,45,263,53,23,27,047,50,27,69,122,56,,,,,1*5A
$GPRMC,000240.00,A,4852.7715000,N,00217.8700337,E,10.90,71.25,180502,0.0,E,A*37
$GPGGA,000240.00,4852.7715000,N,00217.8700337,E,1,07,1.0,-7.730,M,0.000,M,0.0,*5F
$GPGSA,A,3,01,08,10,16,21,23,27,,,,,,2.0,1.2,1.6,1*21
$GPGSV,2,1,07,01,16,255,50,08,74,298,58,10,55,075,56,16,26,182,51,1*68
$GPGSV,2,2,07,21,45,263,53,23,27,047,50,27,69,122,58,,,,,1*54
$GPRMC,000241.00,A,4852.7736210,N,00217.8771927,E,20.62,55.00,180502,0.0,E,A*36
$GPGGA,000241.00,4852.7736210,N,00217.8771927,E,1,07,1.0,-8.502,M,0.000,M,0.0,*5D
$GPGSA,A,3,01,08,10,16,21,23,27,,,,,,2.0,1.2,1.6,1*21
$GPGSV,2,1,07,01,16,255,49,08,74,298,54,10,55,075,52,16,26,182,52,1*6B
$GPGSV,2,2,07,21,45,263,53,23,27,047,50,27,69,122,56,,,,,1*5A
$GPRMC,000242.00,A,4852.7785354,N,00217.8865057,E,30.06,51.45,180502,0.0,E,A*3E
$GPGGA,000242.00,4852.7785354,N,00217.8865057,E,1,07,1.0,-10.616,M,0.000,M,0.0,*6C
$GPGSA,A,3,01,08,10,16,21,23,27,,,,,,2.0,1.2,1.6,1*21
$GPGSV,2,1,07,01,16,255,50,08,74,298,54,10,55,075,52,16,26,182,50,1*61
$GPGSV,2,2,07,21,45,263,53,23,27,047,50,27,69,122,58,,,,,1*54
$GPRMC,000243.00,A,4852.7844496,N,00217.8975345,E,32.70,51.28,180502,0.0,E,A*3C
$GPGGA,000243.00,4852.7844496,N,00217.8975345,E,1,07,1.0,-13.732,M,0.000,M,0.0,*62
$GPGSA,A,3,01,08,10,16,21,23,27,,,,,,2.0,1.2,1.6,1*21
$GPGSV,2,1,07,01,16,255,48,08,74,298,56,10,55,075,52,16,26,182,51,1*6B
$GPGSV,2,2,07,21,45,263,54,23,27,047,49,27,69,122,58,,,,,1*5B
$GPRMC,000244.00,A,4852.7888780,N,00217.9077734,E,32.46,52.21,180502,0.0,E,A*38
$GPGGA,000244.00,4852.7888780,N,00217.9077734,E,1,07,1.0,-11.332,M,0.000,M,0.0,*6F
$GPGSA,A,3,01,08,10,16,21,23,27,,,,,,2.0,1.2,1.6,1*21
$GPGSV,2,1,07,01,16,255,50,08,74,298,56,10,55,075,52,16,26,182,48,1*6A
$GPGSV,2,2,07,21,45,263,55,23,27,047,50,27,69,122,54,,,,,1*5E
$GPRMC,000245.00,A,4852.7946626,N,00217.9185773,E,30.60,54.16,180502,0.0,E,A*3C
$GPGGA,000245.00,4852.7946626,N,00217.9185773,E,1,07,1.0,-10.557,M,0.000,M,0.0,*6B
$GPGSA,A,3,01,08,10,16,21,23,27,,,,,,2.0,1.2,1.6,1*21
$GPGSV,2,1,07,01,16,255,48,08,74,298,56,10,55,075,54,16,26,182,49,1*64
$GPGSV,2,2,07,21,45,263,54,23,27,047,49,27,69,122,53,,,,,1*50
$GPRMC,000246.00,A,4852.7982213,N,00217.9272268,E,21.72,61.00,180502,0.0,E,A*33
$GPGGA,000246.00,4852.7982213,N,00217.9272268,E,1,07,1.0,-7.636,M,0.000,M,0.0,*54
$GPGSA,A,3,01,08,10,16,21,23,27,,,,,,2.0,1.2,1.6,1*21
$GPGSV,2,1,07,01,16,255,49,08,74,298,57,10,55,075,54,16,26,182,48,1*65
$GPGSV,2,2,07,21,45,263,51,23,27,047,50,27,69,122,52,,,,,1*5C
$GPRMC,000247.00,A,4852.8001563,N,00217.9342534,E,12.00,78.71,180502,0.0,E,A*38
$GPGGA,000247.00,4852.8001563,N,00217.9342534,E,1,07,1.0,-10.552,M,0.000,M,0.0,*63
$GPGSA,A,3,01,08,10,16,21,23,27,,,,,,2.0,1.2,1.6,1*21
$GPGSV,2,1,07,01,16,255,49,08,74,298,56,10,55,075,54,16,26,182,50,1*6D
$GPGSV,2,2,07,21,45,263,52,23,27,047,52,27,69,122,53,,,,,1*5C
$GPRMC,000248.00,A,4852.8001354,N,00217.9387155,E,7.92,102.70,180502,0.0,E,A*3D
$GPGGA,000248.00,4852.8001354,N,00217.9387155,E,1,07,1.0,-13.535,M,0.000,M,0.0,*66
$GPGSA,A,3,01,08,10,16,21,23,27,,,,,,2.0,1.2,1.6,1*21
$GPGSV,2,1,07,01,16,255,48,08,74,298,58,10,55,075,55,16,26,182,51,1*62
$GPGSV,2,2,07,21,45,263,54,23,27,047,52,27,69,122,56,,,,,1*5F
$GPRMC,000249.00,A,4852.7979164,N,00217.9424071,E,16.85,127.49,180502,0.0,E,A*06
$GPGGA,000249.00,4852.7979164,N,00217.9424071,E,1,07,1.0,-11.337,M,0.000,M,0.0,*60
$GPGSA,A,3,01,08,10,16,21,23,27,,,,,,2.0,1.2,1.6,1*21
$GPGSV,2,1,07,01,16,255,49,08,74,298,58,10,55,075,55,16,26,182,50,1*62
$GPGSV,2,2,07,21,45,263,54,23,27,047,51,27,69,122,58,,,,,1*52
$GPRMC,000250.00,A,4852.7940834,N,00217.9493836,E,27.41,139.53,180502,0.0,E,A*01
$GPGGA,000250.00,4852.7940834,N,00217.9493836,E,1,07,1.0,-13.317,M,0.000,M,0.0,*69
$GPGSA,A,3,01,08,10,16,21,23,27,,,,,,2.0,1.2,1.6,1*21
$GPGSV,2,1,07,01,16,255,48,08,74,298,59,10,55,075,56,16,26,182,50,1*61
$GPGSV,2,2,07,21,45,263,55,23,27,047,48,27,69,122,58,,,,,1*5B
$GPRMC,000251.00,A,4852.7873399,N,00217.9573986,E,32.12,139.82,180502,0.0,E,A*06
$GPGGA,000251.00,4852.7873399,N,00217.9573986,E,1,07,1.0,-10.179,M,0.000,M,0.0,*69
$GPGSA,A,3,01,08,10,16,21,23,27,,,,,,2.0,1.2,1.6,1*21
$GPGSV,2,1,07,01,16,255,48,08,74,298,58,10,55,075,56,16,26,182,52,1*62
$GPGSV,2,2,07,21,46,264,53,23,27,047,49,27,69,122,58,,,,,1*58
$GPRMC,000252.00,A,4852.7815121,N,00217.9655902,E,31.89,132.95,180502,0.0,E,A*03
$GPGGA,000252.00,4852.7815121,N,00217.9655902,E,1,07,1.0,-9.623,M,0.000,M,0.0,*50
$GPGSA,A,3,01,08,10,16,21,23,27,,,,,,2.0,1.2,1.6,1*21
$GPGSV,2,1,07,01,16,255,48,08,74,298,56,10,55,075,56,16,26,182,51,1*6F
$GPGSV,2,2,07,21,46,264,52,23,27,047,50,27,69,122,58,,,,,1*51
$GPRMC,000253.00,A,4852.7753851,N,00217.9765624,E,32.84,132.82,180502,0.0,E,A*00
$GPGGA,000253.00,4852.7753851,N,00217.9765624,E,1,07,1.0,-13.080,M,0.000,M,0.0,*6F
$GPGSA,A,3,01,08,10,16,21,23,27,,,,,,2.0,1.2,1.6,1*21
$GPGSV,2,1,07,01,16,255,48,08,74,298,58,10,55,075,56,16,26,182,50,1*60
$GPGSV,2,2,07,21,46,264,53,23,27,047,49,27,69,122,58,,,,,1*58
$GPRMC,000254.00,A,4852.7693338,N,00217.9865828,E,32.35,136.18,180502,0.0,E,A*0E
$GPGGA,000254.00,4852.7693338,N,00217.9865828,E,1,07,1.0,-13.477,M,0.000,M,0.0,*60
$GPGSA,A,3,01,08,10,16,21,23,27,,,,,,2.0,1.2,1.6,1*21
$GPGSV,2,1,07,01,16,255,49,08,74,298,57,10,55,075,55,16,26,182,51,1*6C
$GPGSV,2,2,07,21,46,264,54,23,27,047,50,27,69,122,58,,,,,1*57
$GPRMC,000255.00,A,4852.7623840,N,00217.9976119,E,32.71,136.81,180502,0.0,E,A*08
$GPGGA,000255.00,4852.7623840,N,00217.9976119,E,1,07,1.0,-9.794,M,0.000,M,0.0,*53
$GPGSA,A,3,01,08,10,16,21,23,27,,,,,,2.0,1.2,1.6,1*21
$GPGSV,2,1,07,01,16,255,48,08,74,298,56,10,55,075,56,16,26,182,50,1*6E
$GPGSV,2,2,07,21,46,264,54,23,27,047,50,27,69,122,56,,,,,1*59
$GPRMC,000256.00,A,4852.7549281,N,00218.0070852,E,32.60,139.84,180502,0.0,E,A*06
$GPGGA,000256.00,4852.7549281,N,00218.0070852,E,1,07,1.0,-8.061,M,0.000,M,0.0,*5B
$GPGSA,A,3,01,08,10,16,21,23,27,,,,,,2.0,1.2,1.6,1*21
$GPGSV,2,1,07,01,16,255,48,08,74,298,56,10,55,075,56,16,26,182,49,1*66
$GPGSV,2,2,07,21,46,264,53,23,27,047,50,27,69,122,56,,,,,1*5E
$GPRMC,000257.00,A,4852.7497217,N,00218.0132139,E,32.15,138.89,180502,0.0,E,A*07
$GPGGA,000257.00,4852.7497217,N,00218.0132139,E,1,07,1.0,-8.012,M,0.000,M,0.0,*50
$GPGSA,A,3,01,08,10,16,21,23,27,,,,,,2.0,1.2,1.6,1*21
$GPGSV,2,1,07,01,16,255,48,08,74,298,55,10,55,075,56,16,26,182,50,1*6D
$GPGSV,2,2,07,21,46,264,52,23,27,047,50,27,69,122,56,,,,,1*5F
$GPRMC,000258.00,A,4852.7432061,N,00218.0215337,E,32.06,135.04,180502,0.0,E,A*04
$GPGGA,000258.00,4852.7432061,N,00218.0215337,E,1,07,1.0,-11.515,M,0.000,M,0.0,*63
$GPGSA,A,3,01,08,10,16,21,23,27,,,,,,2.0,1.2,1.6,1*21
$GPGSV,2,1,07,01,16,255,49,08,74,298,56,10,55,075,56,16,26,182,50,1*6F
$GPGSV,2,2,07,21,46,264,51,23,27,047,50,27,69,122,56,,,,,1*5C
$GPRMC,000259.00,A,4852.7368969,N,00218.0326202,E,33.19,133.87,180502,0.0,E,A*08
$GPGGA,000259.00,4852.7368969,N,00218.0326202,E,1,07,1.0,-12.873,M,0.000,M,0.0,*63
$GPGSA,A,3,01,08,10,16,21,23,27,,,,,,2.0,1.2,1.6,1*21
$GPGSV,2,1,07,01,16,255,48,08,74,298,58,10,55,075,55,16,26,182,49,1*6B
$GPGSV,2,2,07,21,46,264,52,23,27,047,50,27,69,122,56,,,,,1*5F
$GPRMC,000300.00,A,4852.7300638,N,00218.0434395,E,30.61,134.44,180502,0.0,E,A*0F
$GPGGA,000300.00,4852.7300638,N,00218.0434395,E,1,07,1.0,-8.825,M,0.000,M,0.0,*58
$GPGSA,A,3,01,08,10,16,21,23,27,,,,,,2.0,1.2,1.6,1*21
$GPGSV,2,1,07,01,16,255,48,08,74,298,57,10,55,075,56,16,26,182,48,1*66
$GPGSV,2,2,07,21,46,264,53,23,27,047,48,27,69,122,55,,,,,1*54
$GPRMC,000301.00,A,4852.7238573,N,00218.0515007,E,22.04,139.65,180502,0.0,E,A*0C
$GPGGA,000301.00,4852.7238573,N,00218.0515007,E,1,07,1.0,-7.700,M,0.000,M,0.0,*52
$GPGSA,A,3,01,08,10,16,21,23,27,,,,,,2.0,1.2,1.6,1*21
$GPGSV,2,1,07,01,16,255,49,08,74,298,56,10,55,075,55,16,26,182,50,1*6C
$GPGSV,2,2,07,21,46,264,55,23,27,047,49,27,69,122,57,,,,,1*51
$GPRMC,000302.00,A,4852.7204580,N,00218.0556260,E,28.12,146.83,180502,0.0,E,A*05
$GPGGA,000302.00,4852.7204580,N,00218.0556260,E,1,07,1.0,-10.711,M,0.000,M,0.0,*60
$GPGSA,A,3,01,08,10,16,21,23,27,,,,,,2.0,1.2,1.6,1*21
$GPGSV,2,1,07,01,16,255,49,08,74,298,58,10,55,075,57,16,26,182,50,1*60
$GPGSV,2,2,07,21,46,264,52,23,27,047,50,27,69,122,57,,,,,1*5E
$GPRMC,000303.00,A,4852.7144919,N,00218.0608303,E,33.23,149.72,180502,0.0,E,A*0A
$GPGGA,000303.00,4852.7144919,N,00218.0608303,E,1,07,1.0,-12.998,M,0.000,M,0.0,*6B
$GPGSA,A,3,01,08,10,16,21,23,27,,,,,,2.0,1.2,1.6,1*21
$GPGSV,2,1,07,01,16,255,48,08,74,298,58,10,55,075,56,16,26,182,51,1*61
$GPGSV,2,2,07,21,46,264,53,23,27,047,49,27,69,122,56,,,,,1*56
$GPRMC,000304.00,A,4852.7055026,N,00218.0685056,E,32.44,150.21,180502,0.0,E,A*01
$GPGGA,000304.00,4852.7055026,N,00218.0685056,E,1,07,1.0,-7.234,M,0.000,M,0.0,*57
$GPGSA,A,3,01,08,10,16,21,23,27,,,,,,2.0,1.2,1.6,1*21
$GPGSV,2,1,07,01,16,255,47,08,74,298,60,10,55,075,57,16,26,182,49,1*6D
$GPGSV,2,2,07,21,46,264,54,23,27,047,50,27,69,122,57,,,,,1*58
$GPRMC,000305.00,A,4852.6975087,N,00218.0777300,E,32.05,149.55,180502,0.0,E,A*03
$GPGGA,000305.00,4852.6975087,N,00218.0777300,E,1,07,1.0,-6.032,M,0.000,M,0.0,*5E
$GPGSA,A,3,01,08,10,16,21,23,27,,,,,,2.0,1.2,1.6,1*21
$GPGSV,2,1,07,01,16,255,47,08,74,298,56,10,55,075,56,16,26,182,49,1*69
$GPGSV,2,2,07,21,46,264,54,23,27,047,50,27,69,122,55,,,,,1*5A
$GPRMC,000306.00,A,4852.6885072,N,00218.0844797,E,32.95,150.90,180502,0.0,E,A*09
$GPGGA,000306.00,4852.6885072,N,00218.0844797,E,1,07,1.0,-4.625,M,0.000,M,0.0,*5E
$GPGSA,A,3,01,08,10,16,21,23,27,,,,,,2.0,1.2,1.6,1*21
$GPGSV,2,1,07,01,16,255,47,08,74,298,58,10,55,075,54,16,26,182,51,1*6C
$GPGSV,2,2,07,21,46,264,54,23,27,047,51,27,69,122,57,,,,,1*59
$GPRMC,000307.00,A,4852.6818829,N,00218.0898854,E,29.43,153.17,180502,0.0,E,A*06
$GPGGA,000307.00,4852.6818829,N,00218.0898854,E,1,07,1.0,-7.706,M,0.000,M,0.0,*5F
$GPGSA,A,3,01,08,10,16,21,23,27,,,,,,2.0,1.2,1.6,1*21
$GPGSV,2,1,07,01,16,255,47,08,74,298,57,10,55,075,55,16,26,182,50,1*63
$GPGSV,2,2,07,21,46,264,54,23,27,047,51,27,69,122,56,,,,,1*58
$GPRMC,000308.00,A,4852.6765651,N,00218.0926000,E,18.97,159.29,180502,0.0,E,A*0C
$GPGGA,000308.00,4852.6765651,N,00218.0926000,E,1,07,1.0,-8.459,M,0.000,M,0.0,*5F
$GPGSA,A,3,01,08,10,16,21,23,27,,,,,,2.0,1.2,1.6,1*21
$GPGSV,2,1,07,01,16,255,49,08,74,298,55,10,55,075,54,16,26,182,50,1*6E
$GPGSV,2,2,07,21,46,264,52,23,27,047,51,27,69,122,55,,,,,1*5D
$GPRMC,000309.00,A,4852.6737809,N,00218.0936258,E,10.84,180.54,180502,0.0,E,A*03
$GPGGA,000309.00,4852.6737809,N,00218.0936258,E,1,07,1.0,-12.476,M,0.000,M,0.0,*62
$GPGSA,A,3,01,08,10,16,21,23,27,,,,,,2.0,1.2,1.6,1*21
$GPGSV,2,1,07,01,16,255,48,08,74,298,56,10,55,075,53,16,26,182,52,1*69
$GPGSV,2,2,07,21,46,264,53,23,27,047,50,27,69,122,56,,,,,1*5E
$GPRMC,000310.00,A,4852.6703319,N,00218.0930751,E,11.39,203.56,180502,0.0,E,A*01
$GPGGA,000310.00,4852.6703319,N,00218.0930751,E,1,07,1.0,-9.164,M,0.000,M,0.0,*51
$GPGSA,A,3,01,08,10,16,21,23,27,,,,,,2.0,1.2,1.6,1*21
$GPGSV,2,1,07,01,16,255,49,08,74,298,58,10,55,075,56,16,26,182,51,1*60
$GPGSV,2,2,07,21,46,264,53,23,27,047,51,27,69,122,58,,,,,1*51
$GPRMC,000311.00,A,4852.6652411,N,00218.0908948,E,20.05,225.81,180502,0.0,E,A*04
$GPGGA,000311.00,4852.6652411,N,00218.0908948,E,1,07,1.0,-4.037,M,0.000,M,0.0,*5D
$GPGSA,A,3,01,08,10,16,21,23,27,,,,,,2.0,1.2,1.6,1*21
$GPGSV,2,1,07,01,16,255,46,08,74,298,57,10,55,075,56,16,25,182,50,1*62
$GPGSV,2,2,07,21,46,264,53,23,27,047,51,27,69,122,58,,,,,1*51
$GPRMC,000312.00,A,4852.6610442,N,00218.0836589,E,28.81,232.28,180502,0.0,E,A*0B
$GPGGA,000312.00,4852.6610442,N,00218.0836589,E,1,07,1.0,-5.535,M,0.000,M,0.0,*55
$GPGSA,A,3,01,08,10,16,21,23,27,,,,,,2.0,1.2,1.6,1*21
$GPGSV,2,1,07,01,16,255,47,08,74,298,56,10,55,075,54,16,25,182,50,1*60
$GPGSV,2,2,07,21,46,264,52,23,27,047,49,27,69,122,58,,,,,1*59
$GPRMC,000313.00,A,4852.6564498,N,00218.0702724,E,32.93,233.58,180502,0.0,E,A*0E
$GPGGA,000313.00,4852.6564498,N,00218.0702724,E,1,07,1.0,-5.332,M,0.000,M,0.0,*5F
$GPGSA,A,3,01,08,10,16,21,23,27,,,,,,2.0,1.2,1.6,1*21
$GPGSV,2,1,07,01,16,255,49,08,74,298,56,10,55,075,54,16,25,182,50,1*6E
$GPGSV,2,2,07,21,46,264,53,23,27,047,50,27,69,122,56,,,,,1*5E
$GPRMC,000314.00,A,4852.6510492,N,00218.0604828,E,32.17,233.59,180502,0.0,E,A*09
$GPGGA,000314.00,4852.6510492,N,00218.0604828,E,1,07,1.0,-9.140,M,0.000,M,0.0,*5E
$GPGSA,A,3,01,08,10,16,21,23,27,,,,,,2.0,1.2,1.6,1*21
$GPGSV,2,1,07,01,16,255,50,08,74,298,58,10,55,075,56,16,25,182,50,1*6A
$GPGSV,2,2,07,21,46,264,54,23,27,047,51,27,69,122,57,,,,,1*59
$GPRMC,000315.00,A,4852.6456805,N,00218.0505180,E,31.41,231.94,180502,0.0,E,A*03
$GPGGA,000315.00,4852.6456805,N,00218.0505180,E,1,07,1.0,-12.027,M,0.000,M,0.0,*6D
$GPGSA,A,3,01,08,10,16,21,23,27,,,,,,2.0,1.2,1.6,1*21
$GPGSV,2,1,07,01,16,255,49,08,74,298,57,10,55,075,56,16,25,182,50,1*6D
$GPGSV,2,2,07,21,46,264,54,23,27,047,52,27,69,122,57,,,,,1*5A
$GPRMC,000316.00,A,4852.6415603,N,00218.0399121,E,23.12,227.43,180502,0.0,E,A*0F
$GPGGA,000316.00,4852.6415603,N,00218.0399121,E,1,07,1.0,-11.444,M,0.000,M,0.0,*6B
$GPGSA,A,3,01,08,10,16,21,23,27,,,,,,2.0,1.2,1.6,1*21
$GPGSV,2,1,07,01,16,255,48,08,74,298,56,10,55,074,56,16,25,182,50,1*6C
$GPGSV,2,2,07,21,46,264,54,23,27,047,52,27,69,122,58,,,,,1*55
$GPRMC,000317.00,A,4852.6340110,N,00218.0353297,E,13.37,215.22,180502,0.0,E,A*06
$GPGGA,000317.00,4852.6340110,N,00218.0353297,E,1,07,1.0,1.045,M,0.000,M,0.0,*79
$GPGSA,A,3,01,08,10,16,21,23,27,,,,,,2.0,1.2,1.6,1*21
$GPGSV,2,1,07,01,16,255,49,08,74,298,56,10,55,074,57,16,25,182,51,1*6D
$GPGSV,2,2,07,21,46,264,53,23,26,047,50,27,69,122,56,,,,,1*5F
$GPRMC,000318.00,A,4852.6334858,N,00218.0363133,E,7.79,185.37,180502,0.0,E,A*30
$GPGGA,000318.00,4852.6334858,N,00218.0363133,E,1,07,1.0,-5.845,M,0.000,M,0.0,*5F
$GPGSA,A,3,01,08,10,16,21,23,27,,,,,,2.0,1.2,1.6,1*21
$GPGSV,2,1,07,01,16,255,49,08,74,298,58,10,55,074,56,16,25,182,50,1*63
$GPGSV,2,2,07,21,46,264,54,23,26,047,50,27,69,122,57,,,,,1*59
$GPRMC,000319.00,A,4852.6319605,N,00218.0378143,E,15.60,158.40,180502,0.0,E,A*0E
$GPGGA,000319.00,4852.6319605,N,00218.0378143,E,1,07,1.0,-11.039,M,0.000,M,0.0,*6C
$GPGSA,A,3,01,08,10,16,21,23,27,,,,,,2.0,1.2,1.6,1*21
$GPGSV,2,1,07,01,16,255,48,08,74,298,56,10,55,074,57,16,25,182,51,1*6C
$GPGSV,2,2,07,21,46,264,54,23,26,047,49,27,69,122,56,,,,,1*50
$GPRMC,000320.00,A,4852.6260560,N,00218.0407184,E,23.75,145.16,180502,0.0,E,A*01
$GPGGA,000320.00,4852.6260560,N,00218.0407184,E,1,07,1.0,-12.014,M,0.000,M,0.0,*61
$GPGSA,A,3,01,08,10,16,21,23,27,,,,,,2.0,1.2,1.6,1*21
$GPGSV,2,1,07,01,16,255,48,08,74,298,57,10,55,074,56,16,25,182,50,1*6D
$GPGSV,2,2,07,21,46,264,54,23,26,047,50,27,69,122,55,,,,,1*5B
$GPRMC,000321.00,A,4852.6226792,N,00218.0438335,E,21.71,137.20,180502,0.0,E,A*0F
$GPGGA,000321.00,4852.6226792,N,00218.0438335,E,1,07,1.0,-10.899,M,0.000,M,0.0,*66
$GPGSA,A,3,01,08,10,16,21,23,27,,,,,,2.0,1.2,1.6,1*21
$GPGSV,2,1,07,01,16,255,48,08,74,298,56,10,55,074,57,16,25,182,49,1*65
$GPGSV,2,2,07,21,46,264,55,23,26,047,49,27,69,122,56,,,,,1*51
$GPRMC,000322.00,A,4852.6176784,N,00218.0515809,E,23.76,130.16,180502,0.0,E,A*00
$GPGGA,000322.00,4852.6176784,N,00218.0515809,E,1,07,1.0,-7.954,M,0.000,M,0.0,*58
$GPGSA,A,3,01,08,10,16,21,23,27,,,,,,2.0,1.2,1.6,1*21
$GPGSV,2,1,07,01,16,255,50,08,74,298,58,10,55,074,55,16,25,182,52,1*6A
$GPGSV,2,2,07,21,46,264,54,23,26,047,48,27,69,122,56,,,,,1*51
$GPRMC,000323.00,A,4852.6116774,N,00218.0614656,E,31.66,125.89,180502,0.0,E,A*0E
$GPGGA,000323.00,4852.6116774,N,00218.0614656,E,1,07,1.0,-4.739,M,0.000,M,0.0,*50
$GPGSA,A,3,01,08,10,16,21,23,27,,,,,,2.0,1.2,1.6,1*21
$GPGSV,2,1,07,01,16,255,49,08,74,298,56,10,55,074,53,16,25,182,51,1*69
$GPGSV,2,2,07,21,46,264,52,23,26,047,50,27,69,122,55,,,,,1*5D
$GPRMC,000324.00,A,4852.6064641,N,00218.0737303,E,32.74,126.25,180502,0.0,E,A*0A
$GPGGA,000324.00,4852.6064641,N,00218.0737303,E,1,07,1.0,-2.146,M,0.000,M,0.0,*59
$GPGSA,A,3,01,08,10,16,21,23,27,,,,,,2.0,1.2,1.6,1*21
$GPGSV,2,1,07,01,16,255,48,08,74,298,55,10,55,074,54,16,25,182,49,1*65
$GPGSV,2,2,07,21,46,264,52,23,26,047,52,27,69,122,56,,,,,1*5C
$GPRMC,000325.00,A,4852.6026606,N,00218.0863841,E,29.37,128.11,180502,0.0,E,A*09
$GPGGA,000325.00,4852.6026606,N,00218.0863841,E,1,07,1.0,-8.197,M,0.000,M,0.0,*58
$GPGSA,A,3,01,08,10,16,21,23,27,,,,,,2.0,1.2,1.6,1*21
$GPGSV,2,1,07,01,16,255,47,08,74,298,57,10,55,074,55,16,25,182,49,1*69
$GPGSV,2,2,07,21,46,264,53,23,26,047,52,27,69,122,56,,,,,1*5D
$GPRMC,000326.00,A,4852.5969747,N,00218.0933622,E,20.25,135.57,180502,0.0,E,A*04
$GPGGA,000326.00,4852.5969747,N,00218.0933622,E,1,07,1.0,-4.960,M,0.000,M,0.0,*5D
$GPGSA,A,3,01,08,10,16,21,23,27,,,,,,2.0,1.2,1.6,1*21
$GPGSV,2,1,07,01,16,255,50,08,74,298,56,10,55,074,57,16,25,182,48,1*6D
$GPGSV,2,2,07,21,46,264,52,23,26,047,52,27,69,122,56,,,,,1*5C
$GPRMC,000327.00,A,4852.5956578,N,00218.0951130,E,9.84,151.58,180502,0.0,E,A*3A
$GPGGA,000327.00,4852.5956578,N,00218.0951130,E,1,07,1.0,-5.872,M,0.000,M,0.0,*5D
$GPGSA,A,3,01,08,10,16,21,23,27,,,,,,2.0,1.2,1.6,1*21
$GPGSV,2,1,07,01,16,255,48,08,74,298,56,10,55,074,55,16,25,182,48,1*66
$GPGSV,2,2,07,21,46,264,53,23,26,047,50,27,69,122,57,,,,,1*5E
$GPRMC,000328.00,A,4852.5929364,N,00218.0952395,E,5.28,189.45,180502,0.0,E,A*3B
$GPGGA,000328.00,4852.5929364,N,00218.0952395,E,1,07,1.0,-4.478,M,0.000,M,0.0,*58
$GPGSA,A,3,01,08,10,16,21,23,27,,,,,,2.0,1.2,1.6,1*21
$GPGSV,2,1,07,01,16,255,48,08,74,298,56,10,55,074,55,16,25,182,50,1*6F
$GPGSV,2,2,07,21,46,264,54,23,26,047,50,27,69,122,58,,,,,1*56
$GPRMC,000329.00,A,4852.5892901,N,00218.0935056,E,13.52,227.83,180502,0.0,E,A*08
$GPGGA,000329.00,4852.5892901,N,00218.0935056,E,1,07,1.0,-1.131,M,0.000,M,0.0,*51
$GPGSA,A,3,01,08,10,16,21,23,27,,,,,,2.0,1.2,1.6,1*21
$GPGSV,2,1,07,01,16,255,47,08,74,298,55,10,55,074,55,16,25,182,50,1*63
$GPGSV,2,2,07,21,46,264,52,23,26,047,50,27,69,122,56,,,,,1*5E
$GPRMC,000330.00,A,4852.5863677,N,00218.0880100,E,22.69,242.23,180502,0.0,E,A*0E
$GPGGA,000330.00,4852.5863677,N,00218.0880100,E,1,07,1.0,-0.117,M,0.000,M,0.0,*51
$GPGSA,A,3,01,08,10,16,21,23,27,,,,,,2.0,1.2,1.6,1*21
$GPGSV,2,1,07,01,16,255,47,08,75,298,56,10,55,074,56,16,25,182,50,1*62
$GPGSV,2,2,07,21,46,264,52,23,26,047,50,27,69,122,55,,,,,1*5D
$GPRMC,000331.00,A,4852.5839327,N,00218.0783948,E,31.47,241.71,180502,0.0,E,A*02
$GPGGA,000331.00,4852.5839327,N,00218.0783948,E,1,07,1.0,-5.265,M,0.000,M,0.0,*54
$GPGSA,A,3,01,08,10,16,21,23,27,,,,,,2.0,1.2,1.6,1*21
$GPGSV,2,1,07,01,16,255,50,08,75,298,57,10,55,074,55,16,25,182,50,1*66
$GPGSV,2,2,07,21,46,264,54,23,26,047,50,27,69,122,57,,,,,1*59
$GPRMC,000332.00,A,4852.5793988,N,00218.0646376,E,32.36,235.43,180502,0.0,E,A*09
$GPGGA,000332.00,4852.5793988,N,00218.0646376,E,1,07,1.0,-2.425,M,0.000,M,0.0,*5D
$GPGSA,A,3,01,08,10,16,21,23,27,,,,,,2.0,1.2,1.6,1*21
$GPGSV,2,1,07,01,16,255,49,08,75,298,57,10,55,074,55,16,25,182,52,1*6C
$GPGSV,2,2,07,21,46,264,54,23,26,047,51,27,69,122,57,,,,,1*58
$GPRMC,000333.00,A,4852.5750103,N,00218.0537016,E,31.67,237.95,180502,0.0,E,A*02
$GPGGA,000333.00,4852.5750103,N,00218.0537016,E,1,07,1.0,-6.042,M,0.000,M,0.0,*59
$GPGSA,A,3,01,08,10,16,21,23,27,,,,,,2.0,1.2,1.6,1*21
$GPGSV,2,1,07,01,16,255,49,08,75,298,54,10,55,074,56,16,25,182,52,1*6C
$GPGSV,2,2,07,21,46,264,56,23,26,047,51,27,69,122,57,,,,,1*5A
$GPRMC,000334.00,A,4852.5699213,N,00218.0432524,E,32.95,241.66,180502,0.0,E,A*00
$GPGGA,000334.00,4852.5699213,N,00218.0432524,E,1,07,1.0,-9.160,M,0.000,M,0.0,*56
$GPGSA,A,3,01,08,10,16,21,23,27,,,,,,2.0,1.2,1.6,1*21
$GPGSV,2,1,07,01,16,255,48,08,75,298,56,10,55,074,56,16,25,182,51,1*6C
$GPGSV,2,2,07,21,46,264,56,23,26,047,52,27,69,122,58,,,,,1*56
$GPRMC,000335.00,A,4852.5660391,N,00218.0304646,E,32.49,239.23,180502,0.0,E,A*06
$GPGGA,000335.00,4852.5660391,N,00218.0304646,E,1,07,1.0,-6.945,M,0.000,M,0.0,*5F
$GPGSA,A,3,01,08,10,16,21,23,27,,,,,,2.0,1.2,1.6,1*21
$GPGSV,2,1,07,01,16,255,48,08,75,298,56,10,55,074,55,16,25,182,50,1*6E
$GPGSV,2,2,07,21,46,264,54,23,26,047,50,27,69,122,57,,,,,1*59
$GPRMC,000336.00,A,4852.5612825,N,00218.0189707,E,32.41,239.14,180502,0.0,E,A*0B
$GPGGA,000336.00,4852.5612825,N,00218.0189707,E,1,07,1.0,-4.256,M,0.000,M,0.0,*55
$GPGSA,A,3,01,08,10,16,21,23,27,,,,,,2.0,1.2,1.6,1*21
$GPGSV,2,1,07,01,16,255,50,08,75,298,56,10,55,074,55,16,25,182,50,1*67
$GPGSV,2,2,07,21,46,264,54,23,26,047,49,27,69,122,58,,,,,1*5E
$GPRMC,000337.00,A,4852.5547175,N,00218.0094026,E,32.29,240.96,180502,0.0,E,A*06
$GPGGA,000337.00,4852.5547175,N,00218.0094026,E,1,07,1.0,-1.177,M,0.000,M,0.0,*57
$GPGSA,A,3,01,08,10,16,21,23,27,,,,,,2.0,1.2,1.6,1*21
$GPGSV,2,1,07,01,16,255,48,08,75,298,58,10,55,074,56,16,25,182,50,1*63
$GPGSV,2,2,07,21,46,264,54,23,26,047,50,27,69,122,59,,,,,1*57
$GPRMC,000338.00,A,4852.5511293,N,00217.9963466,E,32.63,239.68,180502,0.0,E,A*07
$GPGGA,000338.00,4852.5511293,N,00217.9963466,E,1,07,1.0,-3.017,M,0.000,M,0.0,*52
$GPGSA,A,3,01,08,10,16,21,23,27,,,,,,2.0,1.2,1.6,1*21
$GPGSV,2,1,07,01,16,255,49,08,75,298,55,10,55,074,54,16,25,182,50,1*6D
$GPGSV,2,2,07,21,46,264,54,23,26,047,51,27,69,122,57,,,,,1*58
$GPRMC,000339.00,A,4852.5480854,N,00217.9824382,E,32.39,236.81,180502,0.0,E,A*06
$GPGGA,000339.00,4852.5480854,N,00217.9824382,E,1,07,1.0,-8.555,M,0.000,M,0.0,*5C
$GPGSA,A,3,01,08,10,16,21,23,27,,,,,,2.0,1.2,1.6,1*21
$GPGSV,2,1,07,01,17,255,50,08,75,298,57,10,55,074,56,16,25,182,50,1*64
$GPGSV,2,2,07,21,46,264,55,23,26,047,53,27,69,122,58,,,,,1*54
$GPRMC,000340.00,A,4852.5423890,N,00217.9724374,E,32.36,233.80,180502,0.0,E,A*04
$GPGGA,000340.00,4852.5423890,N,00217.9724374,E,1,07,1.0,-6.516,M,0.000,M,0.0,*5C
$GPGSA,A,3,01,08,10,16,21,23,27,,,,,,2.0,1.2,1.6,1*21
$GPGSV,2,1,07,01,17,255,50,08,75,298,57,10,55,074,56,16,25,182,51,1*65
$GPGSV,2,2,07,21,46,264,54,23,26,047,51,27,69,122,57,,,,,1*58
$GPRMC,000341.00,A,4852.5372597,N,00217.9621359,E,32.40,231.88,180502,0.0,E,A*0C
$GPGGA,000341.00,4852.5372597,N,00217.9621359,E,1,07,1.0,-7.060,M,0.000,M,0.0,*5A
$GPGSA,A,3,01,08,10,16,21,23,27,,,,,,2.0,1.2,1.6,1*21
$GPGSV,2,1,07,01,17,255,50,08,75,298,58,10,55,074,57,16,25,182,50,1*6A
$GPGSV,2,2,07,21,46,264,54,23,26,047,50,27,69,122,58,,,,,1*56
$GPRMC,000342.00,A,4852.5316412,N,00217.9506271,E,32.24,234.51,180502,0.0,E,A*0F
$GPGGA,000342.00,4852.5316412,N,00217.9506271,E,1,07,1.0,-7.802,M,0.000,M,0.0,*56
$GPGSA,A,3,01,08,10,16,21,23,27,,,,,,2.0,1.2,1.6,1*21
$GPGSV,2,1,07,01,17,255,50,08,75,298,58,10,55,074,58,16,25,182,50,1*65
$GPGSV,2,2,07,21,46,264,54,23,26,047,50,27,69,122,58,,,,,1*56
$GPRMC,000343.00,A,4852.5261267,N,00217.9390412,E,32.29,231.76,180502,0.0,E,A*0C
$GPGGA,000343.00,4852.5261267,N,00217.9390412,E,1,07,1.0,-4.209,M,0.000,M,0.0,*5A
$GPGSA,A,3,01,08,10,16,21,23,27,,,,,,2.0,1.2,1.6,1*21
$GPGSV,2,1,07,01,17,255,48,08,75,298,58,10,55,074,58,16,25,182,49,1*64
$GPGSV,2,2,07,21,46,264,55,23,26,047,52,27,69,122,57,,,,,1*5A
$GPRMC,000344.00,A,4852.5209262,N,00217.9281282,E,32.40,233.32,180502,0.0,E,A*03
$GPGGA,000344.00,4852.5209262,N,00217.9281282,E,1,07,1.0,-5.996,M,0.000,M,0.0,*54
$GPGSA,A,3,01,08,10,16,21,23,27,,,,,,2.0,1.2,1.6,1*21
$GPGSV,2,1,07,01,17,255,48,08,75,298,59,10,55,074,56,16,25,182,48,1*6A
$GPGSV,2,2,07,21,46,264,55,23,26,047,51,27,69,122,58,,,,,1*56
$GPRMC,000345.00,A,4852.5144982,N,00217.9194011,E,32.16,237.90,180502,0.0,E,A*0D
$GPGGA,000345.00,4852.5144982,N,00217.9194011,E,1,07,1.0,-2.839,M,0.000,M,0.0,*56
$GPGSA,A,3,01,08,10,16,21,23,27,,,,,,2.0,1.2,1.6,1*21
$GPGSV,2,1,07,01,17,255,48,08,75,298,59,10,55,074,55,16,25,182,49,1*68
$GPGSV,2,2,07,21,46,264,54,23,26,047,52,27,69,122,57,,,,,1*5B
$GPRMC,000346.00,A,4852.5099050,N,00217.9072148,E,32.49,239.56,180502,0.0,E,A*03
$GPGGA,000346.00,4852.5099050,N,00217.9072148,E,1,07,1.0,-2.583,M,0.000,M,0.0,*5A
$GPGSA,A,3,01,08,10,16,21,23,27,,,,,,2.0,1.2,1.6,1*21
$GPGSV,2,1,07,01,17,255,51,08,75,298,58,10,55,074,57,16,25,182,50,1*6B
$GPGSV,2,2,07,21,46,264,56,23,26,047,52,27,69,122,57,,,,,1*59
$GPRMC,000347.00,A,4852.5069493,N,00217.8923470,E,32.19,240.43,180502,0.0,E,A*0B
$GPGGA,000347.00,4852.5069493,N,00217.8923470,E,1,07,1.0,-4.275,M,0.000,M,0.0,*55
$GPGSA,A,3,01,08,10,16,21,23,27,,,,,,2.0,1.2,1.6,1*21
$GPGSV,2,1,07,01,17,255,50,08,75,298,56,10,55,074,55,16,25,182,51,1*67
$GPGSV,2,2,07,21,46,264,53,23,26,047,52,27,69,122,52,,,,,1*59
$GPRMC,000348.00,A,4852.5024886,N,00217.8812717,E,32.23,240.33,180502,0.0,E,A*0A
$GPGGA,000348.00,4852.5024886,N,00217.8812717,E,1,07,1.0,-7.226,M,0.000,M,0.0,*5F
$GPGSA,A,3,01,08,10,16,21,23,27,,,,,,2.0,1.2,1.6,1*21
$GPGSV,2,1,07,01,17,255,51,08,75,298,56,10,55,074,55,16,25,182,51,1*66
$GPGSV,2,2,07,21,46,264,54,23,26,047,50,27,69,122,54,,,,,1*5A
