     2.11           OBSERVATION DATA    G                   RINEX VERSION / TYPE
BLANK OR G = GPS,  R = GLONASS,  E = GALILEO,  M = MIXED    COMMENT             
GNSS-SDR            joel                 6-MAY-25 12:49     PGM / RUN BY / DATE 
GPS OBSERVATION DATA FILE GENERATED BY GNSS-SDR             COMMENT             
GNSS-SDR VERSION 0.0.16                                     COMMENT             
See https://gnss-sdr.org                                    COMMENT             
DEFAULT MARKER NAME                                         MARKER NAME         
joel                CTTC                                    OBSERVER / AGENCY   
GNSS-SDR            Software Receiver   0.0.16              REC # / TYPE / VERS 
Antenna number      Antenna type                            ANT # / TYPE        
        0.0000        0.0000        0.0000                  APPROX POSITION XYZ 
        0.0000        0.0000        0.0000                  ANTENNA: DELTA H/E/N
     1     1                                                WAVELENGTH FACT L1/2
     4    C1    L1    D1    S1                              # / TYPES OF OBSERV 
  2002    05    18    00    00   42.1200000     GPS         TIME OF FIRST OBS   
    18                                                      LEAP SECONDS        
                                                            END OF HEADER       
 02  5 18 00 00 43.0000000  0  8G01G10G23G16G21G27G07G08                        
  23763610.517 7 124878615.129 7      3398.650 7        46.766                  
  21313644.904 9 112003970.881 9      -796.912 9        54.661                  
  23001131.945 8 120871770.131 8     -2817.795 8        49.699                  
  23471206.221 8 123342021.968 8     -3664.463 8        49.436                  
  21783603.639 8 114473610.642 8      1786.582 8        53.412                  
  20479393.186 9 107619904.333 9     -1372.423 9        54.039                  
  24961662.731 7 131174429.740 7     -1907.851 7        46.018                  
  20445717.404 9 107442974.727 9       867.810 9        56.106                  
 02  5 18 00 00 44.0000000  0  8G01G10G23G16G21G27G07G08                        
  23762963.622 7 124875218.031 7      3399.230 7        46.471                  
  21313797.166 8 112004769.285 8      -798.018 8        53.900                  
  23001669.552 8 120874589.404 8     -2820.640 8        50.231                  
  23471903.774 8 123345685.723 8     -3662.382 8        50.779                  
  21783268.363 9 114471823.452 9      1787.026 9        54.191                  
  20479648.373 9 107621276.885 9     -1372.214 9        55.026                  
  24962022.595 7 131176334.254 7     -1906.794 7        45.619                  
  20445554.921 9 107442106.847 9       867.796 9        56.743                  
 02  5 18 00 00 45.0000000  0  8G01G10G23G16G21G27G07G08                        
  23762318.872 7 124871821.092 7      3398.201 7        47.325                  
  21313949.839 9 112005568.286 9      -798.643 9        54.789                  
  23002205.247 8 120877409.088 8     -2822.011 8        51.403                  
  23472599.504 8 123349349.679 8     -3664.483 8        50.667                  
  21782928.780 8 114470036.567 8      1785.729 8        53.303                  
  20479908.654 9 107622649.915 9     -1374.172 9        55.331                  
  24962386.748 7 131178239.105 7     -1904.828 7        46.913                  
  20445392.098 9 107441239.432 9       867.087 9        58.100                  
 02  5 18 00 00 46.0000000  0  8G01G10G23G16G21G27G07G08                        
  23761671.245 8 124868424.308 8      3399.860 8        48.365                  
  21314102.762 9 112006367.884 9      -799.447 9        54.218                  
  23002744.535 8 120880229.153 8     -2819.800 8        50.963                  
  23473298.147 8 123353013.828 8     -3665.189 8        49.316                  
  21782584.301 8 114468249.974 8      1785.666 8        53.361                  
  20480175.724 9 107624023.420 9     -1374.115 9        56.588                  
  24962749.239 7 131180144.321 7     -1906.193 7        44.881                  
  20445229.705 9 107440372.495 9       866.424 9        56.863                  
 02  5 18 00 00 47.0000000  0  8G01G10G23G16G21G27G07G08                        
  23761024.547 7 124865027.690 7      3399.022 7        47.806                  
  21314254.560 8 112007168.135 8      -800.977 8        53.817                  
  23003277.996 8 120883049.631 8     -2821.579 8        50.209                  
  23473995.253 8 123356678.152 8     -3664.131 8        50.224                  
  21782245.075 8 114466463.686 8      1785.691 8        52.045                  
  20480437.898 9 107625397.402 9     -1373.975 9        56.300                  
  24963110.086 7 131182049.896 7     -1907.639 7        45.342                  
  20445066.114 9 107439506.035 9       866.123 9        56.079                  
 02  5 18 00 00 48.0000000  0  8G01G10G23G16G21G27G07G08                        
  23760379.190 7 124861631.226 7      3397.901 7        47.221                  
  21314407.661 9 112007968.982 9      -800.654 9        56.989                  
  23003815.479 8 120885870.458 8     -2822.830 8        50.673                  
  23474691.305 8 123360342.693 8     -3665.738 8        50.286                  
  21781907.601 8 114464677.690 8      1787.299 8        52.471                  
  20480693.461 9 107626771.862 9     -1374.545 9        57.003                  
  24963476.025 7 131183955.815 7     -1906.181 7        46.095                  
  20444898.860 9 107438640.039 9       865.135 9        57.893                  
 02  5 18 00 00 49.0000000  0  8G01G10G23G16G21G27G07G08                        
  23759732.671 8 124858234.918 8      3395.701 8        48.668                  
  21314560.352 9 112008770.427 9      -801.338 9        57.440                  
  23004353.408 8 120888691.682 8     -2821.188 8        49.436                  
  23475390.395 8 123364007.427 8     -3665.067 8        50.437                  
  21781568.072 8 114462891.998 8      1785.603 8        53.412                  
  20480955.046 9 107628146.798 9     -1375.310 9        55.625                  
  24963835.014 7 131185862.091 7     -1906.672 7        47.052                  
  20444730.891 9 107437774.507 9       865.708 9        56.989                  
 02  5 18 00 00 50.0000000  0  8G01G10G23G16G21G27G07G08                        
  23759085.508 7 124854838.792 7      3397.149 7        47.182                  
  21314713.222 9 112009572.491 9      -802.903 9        56.396                  
  23004888.942 8 120891513.307 8     -2821.248 8        49.866                  
  23476087.055 8 123367672.340 8     -3664.933 8        48.701                  
  21781224.843 8 114461106.602 8      1782.092 8        53.945                  
  20481222.384 9 107629522.211 9     -1376.431 9        57.319                  
  24964200.936 7 131187768.724 7     -1909.258 7        47.907                  
  20444563.851 9 107436909.453 9       864.688 9        58.808                  
 02  5 18 00 00 51.0000000  0  8G01G10G23G16G21G27G07G08                        
  23758440.276 7 124851442.814 7      3398.397 7        47.351                  
  21314866.002 9 112010375.185 9      -802.619 9        55.107                  
  23005427.765 8 120894335.328 8     -2822.160 8        50.084                  
  23476784.304 8 123371337.452 8     -3667.389 8        50.174                  
  21780886.958 8 114459321.500 8      1784.639 8        53.307                  
  20481484.380 9 107630898.100 9     -1375.754 9        55.153                  
  24964561.318 7 131189675.702 7     -1908.738 7        46.808                  
  20444395.757 9 107436044.875 9       864.359 9        54.287                  
 02  5 18 00 00 52.0000000  0  8G01G10G23G16G21G27G07G08                        
  23757794.650 7 124848046.981 7      3396.859 7        47.995                  
  21315019.300 9 112011178.477 9      -803.421 9        54.061                  
  23005962.853 8 120897157.753 8     -2823.306 8        51.069                  
  23477482.911 8 123375002.757 8     -3667.767 8        49.518                  
  21780550.556 8 114457536.711 8      1782.856 8        51.690                  
  20481740.425 9 107632274.467 9     -1376.286 9        58.592                  
  24964925.775 7 131191583.040 7     -1906.371 7        45.612                  
  20444231.970 9 107435180.764 9       863.635 9        56.044                  
 02  5 18 00 00 53.0000000  0  8G01G10G23G16G21G27G07G08                        
  23757147.237 8 124844651.333 8      3396.064 8        48.443                  
  21315172.366 9 112011982.366 9      -804.671 9        54.714                  
  23006501.532 8 120899980.564 8     -2822.851 8        49.606                  
  23478179.374 8 123378668.260 8     -3665.545 8        49.891                  
  21780208.382 8 114455752.243 8      1783.239 8        51.520                  
  20482002.867 9 107633651.310 9     -1377.096 9        57.182                  
  24965289.374 7 131193490.733 7     -1904.287 7        46.894                  
  20444070.148 9 107434317.115 9       863.751 9        57.514                  
 02  5 18 00 00 54.0000000  0  8G01G10G23G16G21G27G07G08                        
  23756501.415 7 124841255.830 7      3396.245 7        47.154                  
  21315325.575 9 112012786.873 9      -803.455 9        54.375                  
  23007037.460 8 120902803.774 8     -2822.275 8        50.427                  
  23478876.749 8 123382333.952 8     -3664.835 8        50.315                  
  21779866.190 8 114453968.060 8      1784.921 8        53.936                  
  20482270.349 9 107635028.630 9     -1376.797 9        57.764                  
  24965649.703 7 131195398.772 7     -1907.810 7        46.853                  
  20443907.915 9 107433453.946 9       862.346 9        55.141                  
 02  5 18 00 00 55.0000000  0  8G01G10G23G16G21G27G07G08                        
  23755855.593 8 124837860.477 8      3393.450 8        48.756                  
  21315479.106 9 112013592.013 9      -805.247 9        54.034                  
  23007574.531 8 120905627.370 8     -2823.370 8        49.793                  
  23479575.124 8 123385999.825 8     -3667.169 8        49.841                  
  21779530.163 8 114452184.187 8      1784.359 8        53.446                  
  20482532.309 9 107636406.427 9     -1377.702 9        57.078                  
  24966016.286 7 131197307.170 7     -1909.654 7        47.622                  
  20443745.700 9 107432591.251 9       862.924 9        56.794                  
 02  5 18 00 00 56.0000000  0  8G01G10G23G16G21G27G07G08                        
  23755208.734 7 124834465.312 7      3394.548 7        46.674                  
  21315632.261 9 112014397.749 9      -806.183 9        54.723                  
  23008112.836 8 120908451.337 8     -2824.505 8        51.659                  
  23480272.570 7 123389665.913 7     -3661.444 7        47.498                  
  21779192.885 8 114450400.603 8      1782.869 8        53.994                  
  20482788.979 9 107637784.702 9     -1379.384 9        56.277                  
  24966376.132 7 131199215.917 7     -1910.153 7        46.597                  
  20443584.861 9 107431729.023 9       862.324 9        56.145                  
 02  5 18 00 00 57.0000000  0  8G01G10G23G16G21G27G07G08                        
  23754563.091 8 124831070.292 8      3393.081 8        48.608                  
  21315785.846 9 112015204.081 9      -806.171 9        55.417                  
  23008649.443 8 120911275.702 8     -2823.161 8        50.690                  
  23480969.801 7 123393332.175 7     -3665.060 7        47.214                  
  21778849.425 8 114448617.327 8      1783.567 8        52.040                  
  20483051.868 9 107639163.464 9     -1378.588 9        55.785                  
  24966742.018 7 131201125.015 7     -1912.657 7        45.769                  
  20443422.557 9 107430867.258 9       861.599 9        58.032                  
 02  5 18 00 00 58.0000000  0  8G01G10G23G16G21G27G07G08                        
  23753918.037 8 124827675.425 8      3394.410 8        48.339                  
  21315939.448 9 112016011.032 9      -806.548 9        55.843                  
  23009189.016 8 120914100.464 8     -2826.138 8        50.132                  
  23481668.659 8 123396998.632 8     -3664.167 8        48.295                  
  21778508.537 8 114446834.338 8      1783.292 8        51.964                  
  20483319.636 9 107640542.717 9     -1379.564 9        56.357                  
  24967103.562 7 131203034.474 7     -1909.070 7        45.899                  
  20443256.571 9 107430005.971 9       861.167 9        57.035                  
 02  5 18 00 00 59.0000000  0  8G01G10G23G16G21G27G07G08                        
  23753270.982 8 124824280.739 8      3395.338 8        49.283                  
  21316093.354 9 112016818.615 9      -807.877 9        56.441                  
  23009724.782 8 120916925.628 8     -2824.564 8        49.835                  
  23482364.907 8 123400665.298 8     -3666.674 8        48.737                  
  21778173.458 8 114445051.659 8      1781.686 8        50.869                  
  20483582.078 9 107641922.444 9     -1379.045 9        56.998                  
  24967467.590 7 131204944.277 7     -1904.334 7        44.999                  
  20443090.604 9 107429145.162 9       859.456 9        55.213                  
 02  5 18 00 01  0.0000000  0  8G01G10G23G16G21G27G07G08                        
  23752625.195 8 124820886.197 8      3393.682 8        49.528                  
  21316246.938 9 112017626.795 9      -808.972 9        57.284                  
  23010263.426 8 120919751.186 8     -2824.625 8        51.351                  
  23483062.639 8 123404332.127 8     -3664.419 8        48.603                  
  21777835.036 8 114443269.266 8      1782.130 8        52.537                  
  20483839.106 9 107643302.650 9     -1379.842 9        57.515                  
  24967832.118 7 131206854.442 7     -1908.844 7        47.152                  
  20442924.118 9 107428284.816 9       859.942 9        56.756                  
 02  5 18 00 01  1.0000000  0  8G01G10G23G16G21G27G07G08                        
  23751980.302 8 124817491.819 8      3390.788 8        50.022                  
  21316401.022 9 112018435.570 9      -809.395 9        55.355                  
  23010801.963 8 120922577.139 8     -2828.057 8        49.820                  
  23483761.890 8 123407999.172 8     -3669.929 8        49.540                  
  21777492.398 9 114441487.194 9      1782.201 9        54.308                  
  20484102.049 9 107644683.331 9     -1380.484 9        56.633                  
  24968193.090 7 131208764.949 7     -1910.824 7        46.927                  
  20442756.989 9 107427424.935 9       858.891 9        56.529                  
 02  5 18 00 01  2.0000000  0  8G01G10G23G16G21G27G07G08                        
  23751333.551 8 124814097.607 8      3394.172 8        49.314                  
  21316555.268 9 112019244.968 9      -809.801 9        54.447                  
  23011337.730 8 120925403.443 8     -2826.550 8        50.014                  
  23484458.442 8 123411666.410 8     -3668.565 8        49.174                  
  21777152.725 8 114439705.433 8      1781.607 8        50.998                  
  20484370.316 9 107646064.491 9     -1381.511 9        55.471                  
  24968560.156 7 131210675.817 7     -1916.560 7        45.270                  
  20442591.504 9 107426565.531 9       859.130 9        57.172                  
 02  5 18 00 01  3.0000000  0  8G01G10G23G16G21G27G07G08                        
  23750687.049 8 124810703.554 8      3391.547 8        48.946                  
  21316709.531 9 112020054.993 9      -811.026 9        55.417                  
  23011877.928 8 120928230.165 8     -2826.588 8        51.020                  
  23485156.585 8 123415333.821 8     -3665.757 8        51.245                  
  21776817.913 8 114437923.968 8      1780.388 8        51.796                  
  20484633.491 9 107647446.127 9     -1382.226 9        55.342                  
  24968920.341 7 131212587.025 7     -1911.025 7        44.475                  
  20442429.772 9 107425706.603 9       859.160 9        55.684                  
 02  5 18 00 01  4.0000000  0  8G01G10G23G16G21G27G07G08                        
  23750042.621 8 124807309.650 8      3394.321 8        48.982                  
  21316863.616 9 112020865.618 9      -811.154 9        54.755                  
  23012413.409 8 120931057.270 8     -2827.070 8        52.874                  
  23485854.942 8 123419001.437 8     -3667.562 8        52.059                  
  21776478.420 9 114436142.802 9      1781.070 9        54.136                  
  20484890.716 9 107648828.239 9     -1382.573 9        55.800                  
  24969286.871 7 131214498.593 7     -1912.936 7        46.212                  
  20442268.397 9 107424848.144 9       857.735 9        56.497                  
 02  5 18 00 01  5.0000000  0  8G01G10G23G16G21G27G07G08                        
  23749396.102 8 124803915.918 8      3396.749 8        48.193                  
  21317017.772 9 112021676.834 9      -811.458 9        55.896                  
  23012953.036 8 120933884.777 8     -2828.923 8        50.786                  
  23486552.012 8 123422669.246 8     -3667.779 8        49.304                  
  21776135.067 8 114434361.934 8      1780.514 8        53.828                  
  20485153.355 9 107650210.829 9     -1383.436 9        56.059                  
  24969649.791 7 131216410.508 7     -1909.746 7        46.536                  
  20442107.450 9 107423990.145 9       857.933 9        56.536                  
 02  5 18 00 01  6.0000000  0  8G01G10G23G16G21G27G07G08                        
  23748750.119 8 124800522.340 8      3393.287 8        48.327                  
  21317171.624 9 112022488.673 9      -812.962 9        56.006                  
  23013490.911 8 120936712.682 8     -2829.848 8        48.915                  
  23487250.995 8 123426337.245 8     -3668.431 8        49.070                  
  21775797.521 8 114432581.365 8      1779.856 8        51.950                  
  20485422.141 9 107651593.895 9     -1384.073 9        57.154                  
  24970012.585 7 131218322.779 7     -1909.617 7        45.746                  
  20441946.379 9 107423132.627 9       856.945 9        57.542                  
 02  5 18 00 01  7.0000000  0  8G01G10G23G16G21G27G07G08                        
  23748104.833 8 124797128.928 8      3391.401 8        49.548                  
  21317325.780 9 112023301.143 9      -812.083 9        54.894                  
  23014028.751 8 120939540.984 8     -2827.131 8        49.285                  
  23487949.102 8 123430005.433 8     -3667.893 8        50.083                  
  21775462.369 8 114430801.093 8      1781.404 8        52.903                  
  20485686.638 9 107652977.437 9     -1383.016 9        56.525                  
  24970379.454 7 131220235.395 7     -1911.840 7        46.180                  
  20441785.808 9 107422275.583 9       856.718 9        57.378                  
 02  5 18 00 01  8.0000000  0  8G01G10G23G16G21G27G07G08                        
  23747458.850 8 124793735.681 8      3393.239 8        48.590                  
  21317480.133 9 112024114.211 9      -813.595 9        57.636                  
  23014567.931 8 120942369.642 8     -2828.145 8        50.016                  
  23488646.691 8 123433673.814 8     -3668.020 8        50.619                  
  21775123.269 8 114429021.121 8      1779.381 8        52.524                  
  20485944.059 9 107654361.457 9     -1384.826 9        56.573                  
  24970739.462 8 131222148.370 8     -1912.233 8        48.121                  
  20441624.558 9 107421419.015 9       856.276 9        59.414                  
 02  5 18 00 01  9.0000000  0  8G01G10G23G16G21G27G07G08                        
  23746812.563 8 124790342.577 8      3394.747 8        48.088                  
  21317634.092 9 112024927.875 9      -813.334 9        55.935                  
  23015105.038 8 120945198.689 8     -2831.173 8        50.544                  
  23489344.708 8 123437342.381 8     -3663.516 8        48.595                  
  21774779.791 8 114427241.442 8      1779.878 8        53.734                  
  20486206.358 9 107655745.954 9     -1384.645 9        55.351                  
  24971108.082 7 131224061.696 7     -1914.325 7        47.623                  
  20441460.038 9 107420562.915 9       856.062 9        57.646                  
 02  5 18 00 01 10.0000000  0  8G01G10G23G16G21G27G07G08                        
  23746168.617 8 124786949.644 8      3393.820 8        49.911                  
  21317788.356 9 112025742.146 9      -814.534 9        54.974                  
  23015645.648 8 120948028.145 8     -2827.936 8        50.357                  
  23490043.655 8 123441011.147 8     -3668.168 8        49.212                  
  21774442.727 8 114425462.080 8      1779.628 8        53.855                  
  20486475.252 9 107657130.928 9     -1386.217 9        55.703                  
  24971468.911 8 131225975.373 8     -1911.222 8        48.166                  
  20441295.267 9 107419707.280 9       855.337 9        57.124                  
 02  5 18 00 01 11.0000000  0  8G01G10G23G16G21G27G07G08                        
  23745521.705 7 124783556.874 7      3393.555 7        47.299                  
  21317943.798 9 112026557.061 9      -815.277 9        55.938                  
  23016181.450 8 120950857.997 8     -2827.782 8        50.649                  
  23490740.333 8 123444680.099 8     -3669.419 8        50.728                  
  21774108.398 8 114423683.024 8      1778.112 8        51.645                  
  20486740.767 9 107658516.377 9     -1385.632 9        56.855                  
  24971834.779 8 131227889.396 8     -1911.729 8        48.346                  
  20441129.550 9 107418852.119 9       855.012 9        56.847                  
 02  5 18 00 01 12.0000000  0  8G01G10G23G16G21G27G07G08                        
  23744875.686 8 124780164.264 8      3391.739 8        49.600                  
  21318098.276 9 112027372.573 9      -816.072 9        57.118                  
  23016721.130 8 120953688.234 8     -2830.704 8        51.034                  
  23491439.780 8 123448349.240 8     -3667.422 8        51.448                  
  21773768.118 8 114421904.279 8      1777.945 8        53.210                  
  20486998.975 9 107659902.305 9     -1386.356 9        56.117                  
  24972197.681 7 131229803.772 7     -1910.296 7        47.589                  
  20440964.565 9 107417997.437 9       855.027 9        57.341                  
 02  5 18 00 01 13.0000000  0  8G01G10G23G16G21G27G07G08                        
  23744230.435 8 124776771.821 8      3392.402 8        49.000                  
  21318253.433 9 112028188.678 9      -816.638 9        57.566                  
  23017260.328 8 120956518.862 8     -2832.052 8        50.506                  
  23492138.244 8 123452018.574 8     -3669.563 8        50.635                  
  21773425.605 8 114420125.820 8      1778.419 8        52.610                  
  20487260.613 9 107661288.709 9     -1386.021 9        57.498                  
  24972563.871 7 131231718.505 7     -1914.233 7        46.650                  
  20440798.759 9 107417143.230 9       854.444 9        55.990                  
 02  5 18 00 01 14.0000000  0  8G01G10G23G16G21G27G07G08                        
  23743586.186 8 124773379.527 8      3390.530 8        48.457                  
  21318409.054 9 112029005.392 9      -818.156 9        54.547                  
  23017797.507 8 120959349.867 8     -2830.196 8        50.616                  
  23492834.922 8 123455688.110 8     -3668.624 8        50.233                  
  21773090.274 8 114418347.666 8      1777.617 8        52.113                  
  20487529.988 9 107662675.590 9     -1386.142 9        56.654                  
  24972928.149 7 131233633.593 7     -1915.652 7        46.455                  
  20440636.437 9 107416289.477 9       852.999 9        54.588                  
 02  5 18 00 01 15.0000000  0  8G01G10G23G16G21G27G07G08                        
  23742939.774 8 124769987.394 8      3393.185 8        48.402                  
  21318564.371 9 112029822.752 9      -817.842 9        55.267                  
  23018338.384 8 120962181.268 8     -2830.886 8        50.225                  
  23493534.744 8 123459357.823 8     -3671.282 8        49.086                  
  21772755.034 8 114416569.803 8      1777.588 8        52.801                  
  20487796.291 9 107664062.947 9     -1387.743 9        56.225                  
  24973289.425 7 131235549.025 7     -1916.869 7        46.970                  
  20440476.455 9 107415436.200 9       853.888 9        55.975                  
 02  5 18 00 01 16.0000000  0  8G01G10G23G16G21G27G07G08                        
  23742293.219 7 124766595.436 7      3391.460 7        47.473                  
  21318720.118 9 112030640.705 9      -818.158 9        55.526                  
  23018874.759 8 120965013.065 8     -2832.919 8        50.722                  
  23494232.583 8 123463027.741 8     -3667.587 8        49.646                  
  21772413.432 8 114414792.252 8      1777.282 8        52.671                  
  20488055.677 9 107665450.782 9     -1387.676 9        57.322                  
  24973656.651 7 131237464.800 7     -1915.740 7        46.612                  
  20440316.045 9 107414583.400 9       853.211 9        56.873                  
 02  5 18 00 01 17.0000000  0  8G01G10G23G16G21G27G07G08                        
  23741649.559 7 124763203.628 7      3393.333 7        46.760                  
  21318875.739 9 112031459.256 9      -818.447 9        55.760                  
  23019415.404 8 120967845.258 8     -2832.011 8        50.330                  
  23494930.601 8 123466697.840 8     -3667.110 8        50.532                  
  21772072.705 8 114413014.985 8      1777.723 8        53.996                  
  20488316.762 9 107666839.094 9     -1389.205 9        58.699                  
  24974018.856 8 131239380.935 8     -1917.829 8        49.362                  
  20440155.921 9 107413731.078 9       851.649 9        57.657                  
 02  5 18 00 01 18.0000000  0  8G01G10G23G16G21G27G07G08                        
  23741004.219 8 124759811.974 8      3389.539 8        48.198                  
  21319031.807 9 112032278.404 9      -819.768 9        55.336                  
  23019953.762 8 120970677.836 8     -2829.962 8        49.881                  
  23495629.959 8 123470368.125 8     -3668.615 8        49.758                  
  21771737.161 8 114411238.020 8      1778.791 8        53.317                  
  20488585.333 9 107668227.882 9     -1387.889 9        57.123                  
  24974387.816 7 131241297.416 7     -1917.035 7        47.985                  
  20439995.314 9 107412879.220 9       851.385 9        57.616                  
 02  5 18 00 01 19.0000000  0  8G01G10G23G16G21G27G07G08                        
  23740357.736 7 124756420.505 7      3394.578 7        47.612                  
  21319187.107 9 112033098.206 9      -821.555 9        54.964                  
  23020492.888 8 120973510.788 8     -2833.230 8        50.412                  
  23496328.208 8 123474038.616 8     -3670.302 8        50.876                  
  21771402.241 8 114409461.368 8      1776.606 8        52.888                  
  20488852.939 9 107669617.147 9     -1389.820 9        57.026                  
  24974749.824 8 131243214.253 8     -1918.716 8        48.254                  
  20439836.226 9 107412027.828 9       851.413 9        56.800                  
 02  5 18 00 01 20.0000000  0  8G01G10G23G16G21G27G07G08                        
  23739713.254 7 124753029.119 7      3388.723 7        46.936                  
  21319344.569 8 112033918.642 8      -821.276 8        53.314                  
  23021032.961 8 120976344.321 8     -2833.946 8        50.908                  
  23497025.583 8 123477708.980 8     -3667.804 8        50.341                  
  21771060.764 8 114407685.005 8      1776.987 8        50.934                  
  20489114.185 9 107671006.828 9     -1389.176 9        55.760                  
  24975115.174 7 131245131.524 7     -1921.286 7        47.058                  
  20439675.726 9 107411176.972 9       850.111 9        56.965                  
 02  5 18 00 01 21.0000000  0  8G01G10G23G16G21G27G07G08                        
  23739067.985 7 124749635.300 7      3393.849 7        46.829                  
  21319501.137 9 112034740.996 9      -824.501 9        54.529                  
  23021572.606 8 120979186.406 8     -2848.712 8        51.015                  
  23497722.778 8 123481366.053 8     -3645.269 8        50.182                  
  21770720.735 8 114405908.586 8      1776.807 8        51.622                  
  20489374.000 9 107672393.935 9     -1385.535 9        55.615                  
  24975482.597 7 131247053.079 7     -1926.580 7        46.547                  
  20439512.672 9 107410328.990 9       846.206 9        56.193                  
 02  5 18 00 01 22.0000000  0  8G01G10G23G16G21G27G07G08                        
  23738418.982 7 124746237.248 7      3401.182 7        47.540                  
  21319659.475 8 112035566.197 8      -826.485 8        53.647                  
  23022116.628 8 120982042.770 8     -2862.706 8        50.762                  
  23498414.274 8 123485000.452 8     -3626.734 8        49.954                  
  21770385.512 8 114404131.830 8      1776.070 8        53.968                  
  20489640.231 9 107673776.334 9     -1380.712 9        56.509                  
  24975847.393 7 131248981.648 7     -1930.368 7        46.072                  
  20439350.385 9 107409485.537 9       841.489 9        56.189                  
 02  5 18 00 01 23.0000000  0  8G01G10G23G16G21G27G07G08                        
  23737771.981 7 124742834.967 7      3403.649 7        47.995                  
  21319817.490 9 112036394.283 9      -830.098 9        54.833                  
  23022663.134 8 120984913.357 8     -2876.513 8        49.273                  
  23499100.998 8 123488612.138 8     -3603.339 8        49.525                  
  21770049.860 8 114402354.750 8      1777.759 8        52.805                  
  20489906.497 9 107675154.034 9     -1376.084 9        55.917                  
  24976220.213 7 131250917.256 7     -1940.268 7        45.966                  
  20439188.813 9 107408646.624 9       836.511 9        56.845                  
 02  5 18 00 01 24.0000000  0  8G01G10G23G16G21G27G07G08                        
  23737127.249 8 124739429.595 8      3403.926 8        49.155                  
  21319975.953 9 112037224.671 9      -830.342 9        56.634                  
  23023209.355 8 120987794.634 8     -2881.563 8        50.626                  
  23499786.490 8 123492207.006 8     -3595.065 8        50.586                  
  21769707.919 8 114400577.510 8      1777.779 8        53.910                  
  20490165.383 9 107676528.342 9     -1375.021 9        56.135                  
  24976584.508 7 131252858.138 7     -1943.353 7        45.532                  
  20439028.028 9 107407811.191 9       835.859 9        54.859                  
 02  5 18 00 01 25.0000000  0  8G01G10G23G16G21G27G07G08                        
  23736474.726 8 124736024.126 8      3404.252 8        48.915                  
  21320134.308 9 112038055.810 9      -830.852 9        55.861                  
  23023759.899 8 120990677.041 8     -2881.485 8        49.876                  
  23500470.981 8 123495800.823 8     -3592.864 8        49.945                  
  21769367.800 8 114398800.551 8      1775.836 8        53.419                  
  20490422.465 9 107677902.825 9     -1374.985 9        55.549                  
  24976956.863 7 131254799.715 7     -1943.986 7        47.111                  
  20438867.939 9 107406976.429 9       835.865 9        56.576                  
 02  5 18 00 01 26.0000000  0  8G01G10G23G16G21G27G07G08                        
  23735826.652 8 124732618.854 8      3404.256 8        50.263                  
  21320292.735 9 112038887.580 9      -830.988 9        56.909                  
  23024308.889 8 120993559.880 8     -2882.516 8        51.635                  
  23501154.953 8 123499394.814 8     -3594.455 8        49.077                  
  21769033.613 8 114397023.916 8      1776.992 8        53.860                  
  20490687.552 9 107679277.761 9     -1375.108 9        55.480                  
  24977323.553 7 131256741.621 7     -1943.625 7        47.864                  
  20438706.582 9 107406142.141 9       833.968 9        57.309                  
 02  5 18 00 01 27.0000000  0  8G01G10G23G16G21G27G07G08                        
  23735180.329 7 124729213.789 7      3403.293 7        47.701                  
  21320451.483 9 112039719.960 9      -833.467 9        55.923                  
  23024855.789 8 120996443.092 8     -2881.782 8        50.835                  
  23501835.781 7 123502988.998 7     -3594.239 7        47.945                  
  21768697.354 8 114395247.613 8      1776.221 8        51.996                  
  20490953.086 9 107680653.160 9     -1374.230 9        55.735                  
  24977695.122 8 131258683.881 8     -1941.255 8        49.740                  
  20438546.529 9 107405308.298 9       833.537 9        55.856                  
 02  5 18 00 01 28.0000000  0  8G01G10G23G16G21G27G07G08                        
  23734531.934 7 124725809.023 7      3404.599 7        45.160                  
  21320610.267 9 112040552.899 9      -831.748 9        55.109                  
  23025405.833 8 120999326.611 8     -2885.068 8        52.056                  
  23502520.969 7 123506583.360 7     -3594.450 7        47.311                  
  21768355.680 8 114393471.730 8      1774.825 8        53.974                  
  20491211.472 9 107682028.968 9     -1375.112 9        55.226                  
  24978061.687 8 131260626.622 8     -1945.117 8        49.461                  
  20438388.424 9 107404474.941 9       832.865 9        56.354                  
 02  5 18 00 01 29.0000000  0  8G01G10G23G16G21G27G07G08                        
  23733884.843 7 124722405.210 7      3402.120 7        47.169                  
  21320767.962 8 112041386.014 8      -831.793 8        53.835                  
  23025955.502 8 121002209.919 8     -2884.220 8        49.453                  
  23503204.191 8 123510178.071 8     -3594.479 8        49.183                  
  21768016.383 8 114391696.713 8      1776.058 8        52.701                  
  20491469.322 9 107683405.024 9     -1375.034 9        55.961                  
  24978435.060 8 131262570.427 8     -1943.676 8        48.455                  
  20438231.498 9 107403642.229 9       831.926 9        57.057                  
 02  5 18 00 01 30.0000000  0  8G01G10G23G16G21G27G07G08                        
  23733238.985 8 124719006.540 8      3391.770 8        49.922                  
  21320925.423 9 112042216.986 9      -827.943 9        54.650                  
  23026500.865 8 121005085.016 8     -2868.103 8        50.136                  
  23503891.719 8 123513783.903 8     -3618.099 8        49.873                  
  21767682.786 8 114389924.528 8      1771.051 8        53.068                  
  20491735.445 9 107684783.063 9     -1379.955 9        55.185                  
  24978801.572 7 131264514.500 7     -1940.925 7        46.420                  
  20438074.180 9 107402808.823 9       834.390 9        58.192                  
 02  5 18 00 01 31.0000000  0  8G01G10G23G16G21G27G07G08                        
  23732593.288 8 124715617.811 8      3384.934 8        49.158                  
  21321081.438 8 112043043.119 8      -824.408 8        52.621                  
  23027045.334 8 121007942.340 8     -2849.501 8        51.076                  
  23504582.839 8 123517414.038 8     -3642.329 8        51.145                  
  21767347.617 8 114388157.214 8      1765.188 8        52.517                  
  20492002.176 9 107686165.355 9     -1385.485 9        56.119                  
  24979174.873 7 131266457.438 7     -1942.808 7        45.519                  
  20437915.967 9 107401973.046 9       837.689 9        55.799                  
 02  5 18 00 01 32.0000000  0  8G01G10G23G16G21G27G07G08                        
  23731949.914 8 124712237.555 8      3374.327 8        48.504                  
  21321237.452 8 112043865.256 8      -819.167 8        53.183                  
  23027586.819 8 121010785.256 8     -2839.067 8        50.563                  
  23505275.478 8 123521063.594 8     -3653.322 8        50.728                  
  21767008.910 9 114386394.211 9      1759.125 9        54.498                  
  20492262.492 9 107687550.966 9     -1384.438 9        55.793                  
  24979543.029 7 131268400.037 7     -1952.236 7        44.922                  
  20437759.095 9 107401135.617 9       836.326 9        55.886                  
 02  5 18 00 01 33.0000000  0  8G01G10G23G16G21G27G07G08                        
  23731312.633 8 124708874.229 8      3352.174 8        49.655                  
  21321391.769 9 112044678.070 9      -806.909 9        54.166                  
  23028124.748 8 121013618.448 8     -2827.169 8        49.552                  
  23505969.243 8 123524710.322 8     -3644.396 8        49.073                  
  21766674.009 8 114384644.661 8      1738.720 8        52.066                  
  20492520.985 9 107688930.657 9     -1375.240 9        55.487                  
  24979917.063 7 131270362.543 7     -1972.923 7        46.929                  
  20437602.187 9 107400304.014 9       827.268 9        56.387                  
 02  5 18 00 01 34.0000000  0  8G01G10G23G16G21G27G07G08                        
  23730675.048 8 124705533.461 8      3331.919 8        48.710                  
  21321543.995 8 112045478.193 8      -795.421 8        52.837                  
  23028663.374 8 121016439.434 8     -2816.443 8        51.486                  
  23506663.222 8 123528351.285 8     -3639.279 8        49.688                  
  21766346.559 8 114382913.155 8      1724.342 8        52.470                  
  20492785.483 9 107690301.673 9     -1367.199 9        57.264                  
  24980294.207 7 131272352.441 7     -1998.506 7        46.912                  
  20437446.905 9 107399480.421 9       819.544 9        56.333                  
 02  5 18 00 01 35.0000000  0  8G01G10G23G16G21G27G07G08                        
  23730040.626 8 124702204.951 8      3329.828 8        48.528                  
  21321694.971 9 112046271.798 9      -793.883 9        54.080                  
  23029196.442 8 121019253.789 8     -2815.949 8        52.233                  
  23507355.183 8 123531989.679 8     -3638.065 8        48.901                  
  21766022.576 8 114381191.443 8      1721.464 8        52.260                  
  20493049.390 9 107691668.374 9     -1366.215 9        57.627                  
  24980677.229 7 131274357.002 7     -2004.990 7        47.359                  
  20437291.606 9 107398661.272 9       818.261 9        57.264                  
 02  5 18 00 01 36.0000000  0  8G01G10G23G16G21G27G07G08                        
  23729406.723 8 124698877.370 8      3327.797 8        48.188                  
  21321846.714 9 112047065.542 9      -794.915 9        54.072                  
  23029733.853 8 121022067.662 8     -2811.963 8        51.947                  
  23508049.037 8 123535628.908 8     -3638.069 8        49.403                  
  21765695.322 8 114379470.537 8      1720.312 8        51.576                  
  20493305.489 9 107693035.478 9     -1366.565 9        54.880                  
  24981056.839 7 131276362.425 7     -2009.071 7        46.594                  
  20437136.610 9 107397842.662 9       817.444 9        54.841                  
 02  5 18 00 01 37.0000000  0  8G01G10G23G16G21G27G07G08                        
  23728775.374 7 124695550.060 7      3324.749 7        47.662                  
  21321997.064 9 112047859.832 9      -793.494 9        55.524                  
  23030267.637 8 121024881.791 8     -2813.585 8        50.298                  
  23508739.639 8 123539268.457 8     -3638.208 8        49.602                  
  21765364.013 8 114377750.032 8      1720.784 8        52.817                  
  20493561.874 9 107694403.035 9     -1367.704 9        54.728                  
  24981441.827 7 131278368.229 7     -2005.361 7        46.212                  
  20436982.722 9 107397024.490 9       818.947 9        54.699                  
 02  5 18 00 01 38.0000000  0  8G01G10G23G16G21G27G07G08                        
  23728142.972 8 124692222.948 8      3328.276 8        48.284                  
  21322148.004 9 112048654.755 9      -795.059 9        56.169                  
  23030805.030 8 121027696.288 8     -2813.450 8        49.758                  
  23509433.064 8 123542908.204 8     -3638.592 8        49.545                  
  21765034.740 8 114376029.827 8      1720.386 8        53.702                  
  20493827.318 9 107695771.046 9     -1368.515 9        55.974                  
  24981819.810 7 131280374.385 7     -2006.877 7        47.103                  
  20436827.797 9 107396206.765 9       817.163 9        55.498                  
 02  5 18 00 01 39.0000000  0  8G01G10G23G16G21G27G07G08                        
  23727507.389 7 124688896.000 7      3327.312 7        47.836                  
  21322299.658 9 112049450.301 9      -795.653 9        56.434                  
  23031340.957 8 121030511.146 8     -2814.381 8        49.883                  
  23510127.579 8 123546548.145 8     -3639.897 8        49.796                  
  21764708.559 8 114374309.919 8      1720.646 8        53.036                  
  20494090.529 9 107697139.509 9     -1368.485 9        56.698                  
  24982205.817 8 131282380.905 8     -2007.416 8        48.083                  
  20436670.621 9 107395389.500 9       817.620 9        55.785                  
 02  5 18 00 01 40.0000000  0  8G01G10G23G16G21G27G07G08                        
  23726874.432 7 124685569.250 7      3323.915 7        47.168                  
  21322450.866 9 112050246.439 9      -796.659 9        55.395                  
  23031875.491 8 121033326.418 8     -2814.499 8        50.694                  
  23510818.914 8 123550188.299 8     -3641.872 8        51.047                  
  21764384.111 8 114372590.339 8      1718.199 8        53.251                  
  20494345.555 9 107698508.425 9     -1368.858 9        56.829                  
  24982584.265 8 131284387.781 8     -2004.851 8        48.195                  
  20436514.643 9 107394572.679 9       815.959 9        56.584                  
 02  5 18 00 01 41.0000000  0  8G01G10G23G16G21G27G07G08                        
  23726241.940 8 124682242.740 8      3323.953 8        48.102                  
  21322602.628 9 112051043.150 9      -796.624 9        56.630                  
  23032412.956 8 121036141.988 8     -2814.926 8        50.431                  
  23511510.731 8 123553828.706 8     -3639.911 8        50.039                  
  21764058.698 8 114370871.080 8      1718.475 8        53.217                  
  20494603.959 9 107699877.806 9     -1369.132 9        56.275                  
  24982968.145 7 131286395.027 7     -2008.939 7        46.816                  
  20436358.039 9 107393756.309 9       816.662 9        56.581                  
 02  5 18 00 01 42.0000000  0  8G01G10G23G16G21G27G07G08                        
  23725609.895 7 124678916.786 7      3323.822 7        47.209                  
  21322754.389 9 112051840.270 9      -797.524 9        57.156                  
  23032945.220 8 121038957.428 8     -2815.744 8        51.270                  
  23512204.478 8 123557469.798 8     -3644.108 8        51.116                  
  21763729.694 8 114369152.354 8      1718.462 8        53.684                  
  20494870.261 9 107701247.651 9     -1369.762 9        58.111                  
  24983348.916 7 131288402.773 7     -2007.246 7        44.863                  
  20436202.006 9 107392940.370 9       816.023 9        55.938                  
 02  5 18 00 01 43.0000000  0  8G01G10G23G16G21G27G07G08                        
  23724978.064 7 124675592.346 7      3324.454 7        47.821                  
  21322905.972 8 112052637.229 8      -795.517 8        52.299                  
  23033483.382 8 121041771.567 8     -2815.950 8        50.234                  
  23512897.117 8 123561112.744 8     -3642.711 8        50.613                  
  21763398.545 8 114367434.761 8      1718.220 8        53.400                  
  20495133.311 9 107702618.010 9     -1369.937 9        57.214                  
  24983731.760 7 131290411.487 7     -2012.057 7        45.975                  
  20436045.885 9 107392124.895 9       814.394 9        54.815                  
 02  5 18 00 01 44.0000000  0  8G01G10G23G16G21G27G07G08                        
  23724345.805 8 124672268.866 8      3318.578 8        48.491                  
  21323057.734 9 112053434.344 9      -797.246 9        54.343                  
  23034018.505 8 121044585.046 8     -2811.719 8        48.345                  
  23513591.346 8 123564756.891 8     -3644.998 8        50.143                  
  21763072.239 9 114365717.933 9      1717.437 9        54.051                  
  20495388.106 9 107703988.869 9     -1371.301 9        57.117                  
  24984114.157 7 131292420.901 7     -2012.123 7        47.022                  
  20435890.049 9 107391309.825 9       814.809 9        57.277                  
 02  5 18 00 01 45.0000000  0  8G01G10G23G16G21G27G07G08                        
  23723711.526 8 124668945.691 8      3326.532 8        48.822                  
  21323209.835 8 112054231.986 8      -797.729 8        52.741                  
  23034552.396 8 121047398.732 8     -2814.519 8        49.258                  
  23514282.770 8 123568401.411 8     -3643.635 8        50.541                  
  21762748.417 8 114364001.475 8      1716.149 8        53.400                  
  20495647.832 9 107705360.194 9     -1371.395 9        56.899                  
  24984495.554 7 131294430.710 7     -2008.313 7        46.611                  
  20435733.516 9 107390495.208 9       814.375 9        55.930                  
 02  5 18 00 01 46.0000000  0  8G01G10G23G16G21G27G07G08                        
  23723079.463 8 124665622.709 8      3320.940 8        48.704                  
  21323360.918 9 112055030.262 9      -797.974 9        54.231                  
  23035087.734 8 121050212.782 8     -2816.039 8        51.222                  
  23514978.411 8 123572046.154 8     -3643.884 8        50.175                  
  21762424.773 8 114362285.338 8      1716.313 8        52.046                  
  20495914.867 8 107706731.947 8     -1370.981 8        53.978                  
  24984879.648 7 131296440.900 7     -2009.068 7        47.423                  
  20435577.806 9 107389681.058 9       813.676 9        54.212                  
 02  5 18 00 01 47.0000000  0  8G01G10G23G16G21G27G07G08                        
  23722448.186 7 124662299.877 7      3323.609 7        47.825                  
  21323513.215 9 112055829.105 9      -800.011 9        55.801                  
  23035624.073 8 121053027.248 8     -2813.385 8        50.839                  
  23515674.964 8 123575691.062 8     -3645.183 8        50.557                  
  21762097.931 8 114360569.509 8      1716.988 8        52.182                  
  20496176.362 9 107708104.153 9     -1372.921 9        55.950                  
  24985260.348 7 131298451.434 7     -2008.478 7        45.756                  
  20435421.130 9 107388867.369 9       813.510 9        55.394                  
 02  5 18 00 01 48.0000000  0  8G01G10G23G16G21G27G07G08                        
  23721814.318 8 124658977.229 8      3322.243 8        49.284                  
  21323665.138 9 112056628.569 9      -800.534 9        54.138                  
  23036163.253 8 121055842.077 8     -2815.273 8        49.449                  
  23516364.708 8 123579336.162 8     -3645.159 8        48.647                  
  21761768.890 9 114358853.957 9      1715.517 9        54.371                  
  20496431.657 9 107709476.835 9     -1374.061 9        54.462                  
  24985645.372 7 131300462.312 7     -2015.626 7        44.817                  
  20435265.937 9 107388054.112 9       813.851 9        54.132                  
 02  5 18 00 01 49.0000000  0  8G01G10G23G16G21G27G07G08                        
  23721181.129 7 124655654.726 7      3323.872 7        47.344                  
  21323817.435 9 112057428.691 9      -800.504 9        55.477                  
  23036695.124 8 121058657.348 8     -2814.154 8        50.814                  
  23517060.724 8 123582981.389 8     -3644.091 8        48.245                  
  21761439.350 8 114357138.694 8      1714.919 8        52.296                  
  20496693.080 9 107710849.973 9     -1374.020 9        55.739                  
  24986025.303 7 131302473.490 7     -2012.452 7        44.747                  
  20435109.726 9 107387241.305 9       812.958 9        55.017                  
 02  5 18 00 01 50.0000000  0  8G01G10G23G16G21G27G07G08                        
  23720550.138 7 124652332.207 7      3323.509 7        47.613                  
  21323969.965 9 112058229.516 9      -802.451 9        57.042                  
  23037232.160 8 121061473.234 8     -2816.012 8        51.364                  
  23517751.130 8 123586626.608 8     -3643.258 8        48.934                  
  21761113.758 8 114355423.628 8      1713.956 8        53.028                  
  20496960.115 9 107712223.549 9     -1373.207 9        55.084                  
  24986411.167 7 131304484.968 7     -2013.033 7        45.836                  
  20434955.499 9 107386428.991 9       812.341 9        57.354                  
 02  5 18 00 01 51.0000000  0  8G01G10G23G16G21G27G07G08                        
  23719918.289 8 124649007.789 8      3327.940 8        48.841                  
  21324122.495 9 112059032.159 9      -806.796 9        54.868                  
  23037768.302 8 121064291.156 8     -2820.397 8        50.879                  
  23518446.128 8 123590271.468 8     -3647.680 8        49.259                  
  21760789.739 8 114353707.352 8      1720.038 8        49.924                  
  20497221.217 9 107713598.132 9     -1377.485 9        55.084                  
  24986791.384 7 131306494.800 7     -2004.613 7        45.778                  
  20434799.359 9 107385616.612 9       814.456 9        54.660                  
 02  5 18 00 01 52.0000000  0  8G01G10G23G16G21G27G07G08                        
  23719284.833 8 124645667.156 8      3350.359 8        48.733                  
  21324277.384 8 112059845.138 8      -819.128 8        53.726                  
  23038305.892 8 121067119.043 8     -2833.245 8        52.292                  
  23519139.821 8 123593920.162 8     -3648.554 8        49.712                  
  21760463.719 8 114351978.474 8      1734.373 8        52.491                  
  20497478.621 9 107714979.646 9     -1384.454 9        55.014                  
  24987171.833 7 131308485.565 7     -1980.044 7        46.445                  
  20434644.256 9 107384799.387 9       819.867 9        54.386                  
 02  5 18 00 01 53.0000000  0  8G01G10G23G16G21G27G07G08                        
  23718645.354 8 124642318.686 8      3343.867 8        48.191                  
  21324432.487 9 112060663.420 9      -816.769 9        54.443                  
  23038847.198 8 121069955.512 8     -2840.892 8        50.529                  
  23519833.622 8 123597563.360 8     -3635.413 8        49.964                  
  21760131.999 9 114350244.491 9      1730.216 9        54.433                  
  20497742.224 9 107716362.635 9     -1380.546 9        55.299                  
  24987548.726 7 131310470.826 7     -1991.134 7        46.162                  
  20434489.082 9 107383981.687 9       814.401 9        55.542                  
 02  5 18 00 01 54.0000000  0  8G01G10G23G16G21G27G07G08                        
  23718006.929 8 124638977.261 8      3344.226 8        48.440                  
  21324588.430 9 112061478.123 9      -813.879 9        54.928                  
  23039384.787 8 121072794.725 8     -2841.151 8        49.756                  
  23520525.117 8 123601191.933 8     -3625.727 8        51.910                  
  21759800.064 9 114348517.771 9      1727.150 9        54.121                  
  20498009.652 9 107717739.446 9     -1375.714 9        55.472                  
  24987929.283 7 131312471.144 7     -2004.698 7        45.298                  
  20434335.372 9 107383169.678 9       810.555 9        55.833                  
 02  5 18 00 01 55.0000000  0  8G01G10G23G16G21G27G07G08                        
  23717374.312 8 124635636.183 8      3341.097 8        48.711                  
  21324744.159 9 112062293.322 9      -815.124 9        55.948                  
  23039928.006 8 121075635.539 8     -2841.218 8        50.498                  
  23521214.272 8 123604817.861 8     -3626.490 8        51.197                  
  21759471.720 8 114346791.871 8      1727.492 8        53.046                  
  20498271.308 9 107719115.824 9     -1376.238 9        57.439                  
  24988310.608 7 131314473.382 7     -2004.607 7        46.211                  
  20434181.985 9 107382358.828 9       809.788 9        56.311                  
 02  5 18 00 01 56.0000000  0  8G01G10G23G16G21G27G07G08                        
  23716738.604 8 124632295.026 8      3338.738 8        48.864                  
  21324900.245 9 112063109.288 9      -815.645 9        56.945                  
  23040467.704 8 121078477.047 8     -2840.277 8        50.446                  
  23521903.712 8 123608443.729 8     -3623.728 8        49.539                  
  21759145.718 8 114345066.082 8      1724.929 8        51.053                  
  20498527.532 9 107720492.680 9     -1377.559 9        58.279                  
  24988690.861 7 131316475.762 7     -2002.834 7        47.901                  
  20434028.454 9 107381548.408 9       809.974 9        55.380                  
 02  5 18 00 01 57.0000000  0  8G01G10G23G16G21G27G07G08                        
  23716098.893 8 124628953.977 8      3341.905 8        49.066                  
  21325056.116 9 112063925.931 9      -817.803 9        56.640                  
  23041007.813 8 121081318.983 8     -2842.964 8        49.686                  
  23522595.297 8 123612069.722 8     -3627.478 8        49.428                  
  21758819.751 8 114343340.537 8      1725.314 8        52.353                  
  20498790.546 9 107721870.001 9     -1377.498 9        55.371                  
  24989073.633 8 131318478.466 8     -2003.267 8        48.054                  
  20433874.691 9 107380738.428 9       809.970 9        55.005                  
 02  5 18 00 01 58.0000000  0  8G01G10G23G16G21G27G07G08                        
  23715463.292 8 124625613.092 8      3341.567 8        48.433                  
  21325212.148 9 112064743.159 9      -817.880 9        54.914                  
  23041550.531 8 121084161.314 8     -2841.081 8        49.843                  
  23523284.005 8 123615695.889 8     -3628.935 8        49.245                  
  21758490.479 8 114341615.318 8      1725.609 8        53.866                  
  20499057.921 9 107723247.785 9     -1377.378 9        57.058                  
  24989452.975 7 131320481.481 7     -2002.720 7        47.900                  
  20433721.268 9 107379928.902 9       809.429 9        57.377                  
 02  5 18 00 01 59.0000000  0  8G01G10G23G16G21G27G07G08                        
  23714833.981 7 124622272.358 7      3340.006 7        47.930                  
  21325368.091 9 112065561.005 9      -817.481 9        54.973                  
  23042089.550 8 121087004.050 8     -2842.980 8        50.533                  
  23523974.518 8 123619322.249 8     -3627.292 8        49.825                  
  21758158.579 8 114339890.395 8      1725.772 8        51.924                  
  20499319.791 9 107724626.024 9     -1378.951 9        56.835                  
  24989837.552 7 131322484.841 7     -2002.067 7        44.405                  
  20433568.041 9 107379119.841 9       809.320 9        56.541                  
 02  5 18 00 02  0.0000000  0  8G01G10G23G16G21G27G07G08                        
  23714197.164 7 124618931.813 7      3341.861 7        47.199                  
  21325524.195 9 112066379.485 9      -819.080 9        54.519                  
  23042632.590 8 121089847.196 8     -2844.047 8        50.500                  
  23524664.941 8 123622948.785 8     -3627.006 8        50.841                  
  21757829.343 9 114338165.781 9      1723.997 9        54.292                  
  20499576.605 9 107726004.716 9     -1380.006 9        57.652                  
  24990215.767 7 131324488.535 7     -2002.265 7        46.481                  
  20433414.850 9 107378311.231 9       809.096 9        57.569                  
 02  5 18 00 02  1.0000000  0  8G01G10G23G16G21G27G07G08                        
  23713556.756 8 124615591.429 8      3339.652 8        48.040                  
  21325680.192 8 112067198.584 8      -819.433 8        51.923                  
  23043172.824 8 121092690.739 8     -2841.222 8        49.153                  
  23525354.078 8 123626575.502 8     -3626.333 8        50.350                  
  21757503.126 8 114336441.467 8      1724.833 8        53.201                  
  20499839.976 9 107727383.860 9     -1379.909 9        54.750                  
  24990599.058 7 131326492.577 7     -2007.728 7        45.326                  
  20433261.480 9 107377503.052 9       807.326 9        54.038                  
 02  5 18 00 02  2.0000000  0  8G01G10G23G16G21G27G07G08                        
  23712921.924 8 124612251.234 8      3339.702 8        49.217                  
  21325835.992 8 112068018.315 8      -820.640 8        52.552                  
  23043713.058 8 121095534.678 8     -2843.807 8        48.544                  
  23526045.448 8 123630202.381 8     -3624.388 8        50.233                  
  21757178.785 9 114334717.449 9      1723.053 9        54.716                  
  20500107.511 9 107728763.444 9     -1379.475 9        56.591                  
  24990977.631 7 131328496.944 7     -2003.836 7        45.914                  
  20433108.682 9 107376695.326 9       807.336 9        54.587                  
 02  5 18 00 02  3.0000000  0  8G01G10G23G16G21G27G07G08                        
  23712288.270 8 124608911.203 8      3340.395 8        51.308                  
  21325992.471 9 112068838.665 9      -820.743 9        55.499                  
