$GPRMC,000030.00,A,4852.4428342,N,00217.6069105,E,0.94,0.00,180502,0.0,E,A*38
$GPGGA,000030.00,4852.4428342,N,00217.6069105,E,1,07,1.0,-7.888,M,0.000,M,0.0,*58
$GPGSA,A,3,01,08,10,16,21,23,27,,,,,,2.0,1.2,1.6,1*21
$GPGSV,2,1,07,01,15,255,47,08,73,299,56,10,56,076,55,16,27,182,50,1*66
$GPGSV,2,2,07,21,45,263,54,23,28,048,50,27,70,120,54,,,,,1*55
$GPRMC,000031.00,A,4852.4409506,N,00217.6095898,E,0.60,0.00,180502,0.0,E,A*39
$GPGGA,000031.00,4852.4409506,N,00217.6095898,E,1,07,1.0,-6.103,M,0.000,M,0.0,*59
$GPGSA,A,3,01,08,10,16,21,23,27,,,,,,2.0,1.2,1.6,1*21
$GPGSV,2,1,07,01,15,255,46,08,73,299,57,10,56,076,54,16,27,182,51,1*66
$GPGSV,2,2,07,21,45,263,54,23,28,048,50,27,70,120,55,,,,,1*54
$GPRMC,000032.00,A,4852.4400081,N,00217.6111624,E,0.35,0.00,180502,0.0,E,A*3D
$GPGGA,000032.00,4852.4400081,N,00217.6111624,E,1,07,1.0,-7.711,M,0.000,M,0.0,*59
$GPGSA,A,3,01,08,10,16,21,23,27,,,,,,2.0,1.2,1.6,1*21
$GPGSV,2,1,07,01,15,255,47,08,73,299,58,10,56,076,55,16,27,182,51,1*69
$GPGSV,2,2,07,21,45,263,53,23,28,048,52,27,70,120,55,,,,,1*51
$GPRMC,000033.00,A,4852.4408973,N,00217.6080620,E,1.22,0.00,180502,0.0,E,A*3A
$GPGGA,000033.00,4852.4408973,N,00217.6080620,E,1,07,1.0,-10.980,M,0.000,M,0.0,*69
$GPGSA,A,3,01,08,10,16,21,23,27,,,,,,2.0,1.2,1.6,1*21
$GPGSV,2,1,07,01,15,255,48,08,73,299,57,10,56,076,54,16,27,182,49,1*61
$GPGSV,2,2,07,21,45,263,53,23,28,048,51,27,70,120,56,,,,,1*51
$GPRMC,000034.00,A,4852.4416379,N,00217.6092657,E,0.59,0.00,180502,0.0,E,A*3C
$GPGGA,000034.00,4852.4416379,N,00217.6092657,E,1,07,1.0,-15.753,M,0.000,M,0.0,*67
$GPGSA,A,3,01,08,10,16,21,23,27,,,,,,2.0,1.2,1.6,1*21
$GPGSV,2,1,07,01,15,255,48,08,73,299,56,10,56,076,54,16,27,182,50,1*68
$GPGSV,2,2,07,21,45,263,52,23,28,048,50,27,70,120,56,,,,,1*51
$GPRMC,000035.00,A,4852.4399929,N,00217.6105805,E,0.72,0.00,180502,0.0,E,A*3D
$GPGGA,000035.00,4852.4399929,N,00217.6105805,E,1,07,1.0,-9.418,M,0.000,M,0.0,*5E
$GPGSA,A,3,01,08,10,16,21,23,27,,,,,,2.0,1.2,1.6,1*21
$GPGSV,2,1,07,01,15,255,47,08,73,299,58,10,56,076,57,16,27,182,50,1*6A
$GPGSV,2,2,07,21,45,263,52,23,27,048,51,27,70,120,57,,,,,1*5E
$GPRMC,000036.00,A,4852.4407644,N,00217.6092305,E,0.27,0.00,180502,0.0,E,A*3E
$GPGGA,000036.00,4852.4407644,N,00217.6092305,E,1,07,1.0,-5.324,M,0.000,M,0.0,*59
$GPGSA,A,3,01,08,10,16,21,23,27,,,,,,2.0,1.2,1.6,1*21
$GPGSV,2,1,07,01,15,255,49,08,73,299,57,10,56,076,58,16,27,182,50,1*64
$GPGSV,2,2,07,21,45,263,54,23,27,048,50,27,70,120,56,,,,,1*58
$GPRMC,000037.00,A,4852.4424417,N,00217.6068245,E,1.15,0.00,180502,0.0,E,A*3A
$GPGGA,000037.00,4852.4424417,N,00217.6068245,E,1,07,1.0,-8.705,M,0.000,M,0.0,*57
$GPGSA,A,3,01,08,10,16,21,23,27,,,,,,2.0,1.2,1.6,1*21
$GPGSV,2,1,07,01,15,255,47,08,73,299,59,10,56,076,56,16,27,182,49,1*62
$GPGSV,2,2,07,21,45,263,54,23,27,048,50,27,70,120,57,,,,,1*59
$GPRMC,000038.00,A,4852.4421184,N,00217.6064538,E,0.89,0.00,180502,0.0,E,A*3A
$GPGGA,000038.00,4852.4421184,N,00217.6064538,E,1,07,1.0,-4.126,M,0.000,M,0.0,*58
$GPGSA,A,3,01,08,10,16,21,23,27,,,,,,2.0,1.2,1.6,1*21
$GPGSV,2,1,07,01,15,255,47,08,73,299,54,10,56,076,55,16,27,182,50,1*64
$GPGSV,2,2,07,21,45,263,53,23,27,048,50,27,70,120,55,,,,,1*5C
$GPRMC,000039.00,A,4852.4417442,N,00217.6088132,E,0.48,0.00,180502,0.0,E,A*30
$GPGGA,000039.00,4852.4417442,N,00217.6088132,E,1,07,1.0,-2.219,M,0.000,M,0.0,*56
$GPGSA,A,3,01,08,10,16,21,23,27,,,,,,2.0,1.2,1.6,1*21
$GPGSV,2,1,07,01,15,255,48,08,73,299,56,10,56,076,54,16,27,182,50,1*68
$GPGSV,2,2,07,21,45,263,52,23,27,048,51,27,70,121,58,,,,,1*50
$GPRMC,000040.00,A,4852.4409669,N,00217.6080505,E,0.24,0.00,180502,0.0,E,A*38
$GPGGA,000040.00,4852.4409669,N,00217.6080505,E,1,07,1.0,-3.961,M,0.000,M,0.0,*51
$GPGSA,A,3,01,08,10,16,21,23,27,,,,,,2.0,1.2,1.6,1*21
$GPGSV,2,1,07,01,15,255,48,08,73,299,58,10,56,076,55,16,27,182,50,1*67
$GPGSV,2,2,07,21,45,263,52,23,27,048,50,27,70,121,57,,,,,1*5E
$GPRMC,000041.00,A,4852.4421025,N,00217.6071678,E,0.53,0.00,180502,0.0,E,A*3A
$GPGGA,000041.00,4852.4421025,N,00217.6071678,E,1,07,1.0,-9.872,M,0.000,M,0.0,*5A
$GPGSA,A,3,01,08,10,16,21,23,27,,,,,,2.0,1.2,1.6,1*21
$GPGSV,2,1,07,01,15,255,47,08,73,299,55,10,56,076,54,16,27,182,50,1*64
$GPGSV,2,2,07,21,45,263,54,23,27,048,50,27,70,121,58,,,,,1*57
$GPRMC,000042.00,A,4852.4418714,N,00217.6087133,E,0.90,0.00,180502,0.0,E,A*38
$GPGGA,000042.00,4852.4418714,N,00217.6087133,E,1,07,1.0,-11.820,M,0.000,M,0.0,*69
$GPGSA,A,3,01,08,10,16,21,23,27,,,,,,2.0,1.2,1.6,1*21
$GPGSV,2,1,07,01,15,255,49,08,73,299,57,10,56,076,54,16,27,182,50,1*68
$GPGSV,2,2,07,21,45,263,54,23,27,048,50,27,70,121,57,,,,,1*58
$GPRMC,000043.00,A,4852.4400780,N,00217.6107511,E,1.56,0.00,180502,0.0,E,A*3B
$GPGGA,000043.00,4852.4400780,N,00217.6107511,E,1,07,1.0,-10.729,M,0.000,M,0.0,*66
$GPGSA,A,3,01,08,10,16,21,23,27,,,,,,2.0,1.2,1.6,1*21
$GPGSV,2,1,07,01,15,255,47,08,73,299,56,10,56,076,55,16,27,182,48,1*6F
$GPGSV,2,2,07,21,45,263,54,23,27,048,52,27,70,121,56,,,,,1*5B
$GPRMC,000044.00,A,4852.4403533,N,00217.6099969,E,0.56,0.00,180502,0.0,E,A*31
$GPGGA,000044.00,4852.4403533,N,00217.6099969,E,1,07,1.0,-12.269,M,0.000,M,0.0,*6E
$GPGSA,A,3,01,08,10,16,21,23,27,,,,,,2.0,1.2,1.6,1*21
$GPGSV,2,1,07,01,15,255,48,08,73,299,58,10,56,076,56,16,27,182,47,1*62
$GPGSV,2,2,07,21,45,263,52,23,27,048,51,27,70,121,56,,,,,1*5E
$GPRMC,000045.00,A,4852.4414597,N,00217.6076958,E,0.92,0.00,180502,0.0,E,A*33
$GPGGA,000045.00,4852.4414597,N,00217.6076958,E,1,07,1.0,-11.079,M,0.000,M,0.0,*64
$GPGSA,A,3,01,08,10,16,21,23,27,,,,,,2.0,1.2,1.6,1*21
$GPGSV,2,1,07,01,15,255,48,08,73,299,57,10,56,076,56,16,27,182,48,1*62
$GPGSV,2,2,07,21,45,263,52,23,27,048,50,27,70,121,56,,,,,1*5F
$GPRMC,000046.00,A,4852.4413317,N,00217.6090319,E,0.71,0.00,180502,0.0,E,A*33
$GPGGA,000046.00,4852.4413317,N,00217.6090319,E,1,07,1.0,-13.073,M,0.000,M,0.0,*61
$GPGSA,A,3,01,08,10,16,21,23,27,,,,,,2.0,1.2,1.6,1*21
$GPGSV,2,1,07,01,15,255,49,08,73,299,55,10,56,076,56,16,27,182,49,1*60
$GPGSV,2,2,07,21,45,263,51,23,27,048,50,27,70,121,57,,,,,1*5D
$GPRMC,000047.00,A,4852.4403929,N,00217.6093825,E,0.91,0.00,180502,0.0,E,A*3D
$GPGGA,000047.00,4852.4403929,N,00217.6093825,E,1,07,1.0,-6.036,M,0.000,M,0.0,*54
$GPGSA,A,3,01,08,10,16,21,23,27,,,,,,2.0,1.2,1.6,1*21
$GPGSV,2,1,07,01,15,255,50,08,73,299,57,10,56,076,57,16,27,182,48,1*6A
$GPGSV,2,2,07,21,45,263,52,23,27,048,51,27,70,121,58,,,,,1*50
$GPRMC,000048.00,A,4852.4414589,N,00217.6070570,E,1.84,0.00,180502,0.0,E,A*37
$GPGGA,000048.00,4852.4414589,N,00217.6070570,E,1,07,1.0,-0.650,M,0.000,M,0.0,*5B
$GPGSA,A,3,01,08,10,16,21,23,27,,,,,,2.0,1.2,1.6,1*21
$GPGSV,2,1,07,01,15,255,50,08,73,299,56,10,56,076,55,16,27,182,50,1*60
$GPGSV,2,2,07,21,45,263,54,23,27,048,50,27,70,121,57,,,,,1*58
$GPRMC,000049.00,A,4852.4427635,N,00217.6060336,E,0.41,0.00,180502,0.0,E,A*3F
$GPGGA,000049.00,4852.4427635,N,00217.6060336,E,1,07,1.0,-5.678,M,0.000,M,0.0,*54
$GPGSA,A,3,01,08,10,16,21,23,27,,,,,,2.0,1.2,1.6,1*21
$GPGSV,2,1,07,01,15,255,49,08,73,299,57,10,56,076,54,16,27,182,49,1*60
$GPGSV,2,2,07,21,45,263,51,23,27,048,50,27,70,121,56,,,,,1*5C
$GPRMC,000050.00,A,4852.4417278,N,00217.6071148,E,0.78,0.00,180502,0.0,E,A*38
$GPGGA,000050.00,4852.4417278,N,00217.6071148,E,1,07,1.0,-6.505,M,0.000,M,0.0,*53
$GPGSA,A,3,01,08,10,16,21,23,27,,,,,,2.0,1.2,1.6,1*21
$GPGSV,2,1,07,01,15,255,49,08,73,299,56,10,56,076,56,16,27,182,51,1*6A
$GPGSV,2,2,07,21,45,263,52,23,27,048,51,27,70,121,55,,,,,1*5D
$GPRMC,000051.00,A,4852.4413492,N,00217.6090730,E,0.43,0.00,180502,0.0,E,A*31
$GPGGA,000051.00,4852.4413492,N,00217.6090730,E,1,07,1.0,-5.003,M,0.000,M,0.0,*52
$GPGSA,A,3,01,08,10,16,21,23,27,,,,,,2.0,1.2,1.6,1*21
$GPGSV,2,1,07,01,15,255,49,08,73,299,56,10,56,076,55,16,27,182,52,1*6A
$GPGSV,2,2,07,21,45,263,54,23,27,048,53,27,70,121,56,,,,,1*5A
$GPRMC,000052.00,A,4852.4406401,N,00217.6079018,E,0.76,0.00,180502,0.0,E,A*30
$GPGGA,000052.00,4852.4406401,N,00217.6079018,E,1,07,1.0,-5.030,M,0.000,M,0.0,*55
$GPGSA,A,3,01,08,10,16,21,23,27,,,,,,2.0,1.2,1.6,1*21
$GPGSV,2,1,07,01,15,255,48,08,73,299,56,10,56,076,56,16,27,182,49,1*62
$GPGSV,2,2,07,21,45,263,54,23,27,048,51,27,70,121,56,,,,,1*58
$GPRMC,000053.00,A,4852.4416640,N,00217.6079315,E,0.41,0.00,180502,0.0,E,A*3D
$GPGGA,000053.00,4852.4416640,N,00217.6079315,E,1,07,1.0,-10.817,M,0.000,M,0.0,*65
$GPGSA,A,3,01,08,10,16,21,23,27,,,,,,2.0,1.2,1.6,1*21
$GPGSV,2,1,07,01,15,255,48,08,73,299,58,10,56,076,56,16,27,182,49,1*6C
$GPGSV,2,2,07,21,45,263,52,23,27,048,49,27,70,121,57,,,,,1*56
$GPRMC,000054.00,A,4852.4413367,N,00217.6098455,E,0.53,0.00,180502,0.0,E,A*30
$GPGGA,000054.00,4852.4413367,N,00217.6098455,E,1,07,1.0,-14.426,M,0.000,M,0.0,*61
$GPGSA,A,3,01,08,10,16,21,23,27,,,,,,2.0,1.2,1.6,1*21
$GPGSV,2,1,07,01,15,255,50,08,73,299,58,10,56,076,55,16,27,182,50,1*6E
$GPGSV,2,2,07,21,45,263,53,23,27,048,49,27,70,121,56,,,,,1*56
$GPRMC,000055.00,A,4852.4397521,N,00217.6109609,E,0.55,0.00,180502,0.0,E,A*3A
$GPGGA,000055.00,4852.4397521,N,00217.6109609,E,1,07,1.0,-11.106,M,0.000,M,0.0,*6F
$GPGSA,A,3,01,08,10,16,21,23,27,,,,,,2.0,1.2,1.6,1*21
$GPGSV,2,1,07,01,15,255,48,08,73,299,60,10,56,076,58,16,27,182,50,1*61
$GPGSV,2,2,07,21,45,263,52,23,27,048,50,27,70,121,56,,,,,1*5F
$GPRMC,000056.00,A,4852.4405393,N,00217.6094615,E,1.73,0.00,180502,0.0,E,A*37
$GPGGA,000056.00,4852.4405393,N,00217.6094615,E,1,07,1.0,-9.278,M,0.000,M,0.0,*54
$GPGSA,A,3,01,08,10,16,21,23,27,,,,,,2.0,1.2,1.6,1*21
$GPGSV,2,1,07,01,15,255,48,08,73,299,58,10,56,076,56,16,27,182,48,1*6D
$GPGSV,2,2,07,21,45,263,54,23,27,048,50,27,70,121,55,,,,,1*5A
$GPRMC,000057.00,A,4852.4411410,N,00217.6086442,E,1.14,0.00,180502,0.0,E,A*3D
$GPGGA,000057.00,4852.4411410,N,00217.6086442,E,1,07,1.0,-8.286,M,0.000,M,0.0,*5F
$GPGSA,A,3,01,08,10,16,21,23,27,,,,,,2.0,1.2,1.6,1*21
$GPGSV,2,1,07,01,16,255,50,08,73,299,57,10,56,076,55,16,27,182,49,1*6A
$GPGSV,2,2,07,21,45,263,54,23,27,048,50,27,70,121,56,,,,,1*59
$GPRMC,000058.00,A,4852.4416810,N,00217.6096051,E,1.10,0.00,180502,0.0,E,A*3A
$GPGGA,000058.00,4852.4416810,N,00217.6096051,E,1,07,1.0,-11.938,M,0.000,M,0.0,*6A
$GPGSA,A,3,01,08,10,16,21,23,27,,,,,,2.0,1.2,1.6,1*21
$GPGSV,2,1,07,01,16,255,47,08,73,299,57,10,56,076,56,16,27,182,51,1*66
$GPGSV,2,2,07,21,45,263,52,23,27,048,51,27,70,121,57,,,,,1*5F
$GPRMC,000059.00,A,4852.4414263,N,00217.6088604,E,0.64,0.00,180502,0.0,E,A*3C
$GPGGA,000059.00,4852.4414263,N,00217.6088604,E,1,07,1.0,-4.430,M,0.000,M,0.0,*5F
$GPGSA,A,3,01,08,10,16,21,23,27,,,,,,2.0,1.2,1.6,1*21
$GPGSV,2,1,07,01,16,255,50,08,73,299,57,10,56,076,57,16,26,182,52,1*63
$GPGSV,2,2,07,21,45,263,53,23,27,048,51,27,70,121,56,,,,,1*5F
$GPRMC,000100.00,A,4852.4417419,N,00217.6069861,E,0.75,0.00,180502,0.0,E,A*3B
$GPGGA,000100.00,4852.4417419,N,00217.6069861,E,1,07,1.0,1.459,M,0.000,M,0.0,*7F
$GPGSA,A,3,01,08,10,16,21,23,27,,,,,,2.0,1.2,1.6,1*21
$GPGSV,2,1,07,01,16,255,49,08,73,299,56,10,56,076,58,16,26,182,51,1*66
$GPGSV,2,2,07,21,45,263,52,23,27,048,50,27,70,121,58,,,,,1*51
$GPRMC,000101.00,A,4852.4420717,N,00217.6081429,E,0.58,0.00,180502,0.0,E,A*3A
$GPGGA,000101.00,4852.4420717,N,00217.6081429,E,1,07,1.0,-4.345,M,0.000,M,0.0,*53
$GPGSA,A,3,01,08,10,16,21,23,27,,,,,,2.0,1.2,1.6,1*21
$GPGSV,2,1,07,01,16,255,48,08,73,299,54,10,56,076,54,16,26,182,50,1*68
$GPGSV,2,2,07,21,45,263,52,23,27,048,50,27,70,121,57,,,,,1*5E
$GPRMC,000102.00,A,4852.4419573,N,00217.6084842,E,0.76,0.00,180502,0.0,E,A*3B
$GPGGA,000102.00,4852.4419573,N,00217.6084842,E,1,07,1.0,-6.723,M,0.000,M,0.0,*58
$GPGSA,A,3,01,08,10,16,21,23,27,,,,,,2.0,1.2,1.6,1*21
$GPGSV,2,1,07,01,16,255,48,08,73,299,56,10,56,076,55,16,26,182,49,1*63
$GPGSV,2,2,07,21,45,263,53,23,27,048,50,27,70,121,56,,,,,1*5E
$GPRMC,000103.00,A,4852.4417928,N,00217.6088604,E,0.96,0.00,180502,0.0,E,A*38
$GPGGA,000103.00,4852.4417928,N,00217.6088604,E,1,07,1.0,-7.344,M,0.000,M,0.0,*51
$GPGSA,A,3,01,08,10,16,21,23,27,,,,,,2.0,1.2,1.6,1*21
$GPGSV,2,1,07,01,16,255,48,08,73,299,57,10,56,076,56,16,26,182,50,1*69
$GPGSV,2,2,07,21,45,263,53,23,27,048,51,27,70,121,57,,,,,1*5E
$GPRMC,000104.00,A,4852.4405191,N,00217.6091218,E,1.32,0.00,180502,0.0,E,A*38
$GPGGA,000104.00,4852.4405191,N,00217.6091218,E,1,07,1.0,-3.792,M,0.000,M,0.0,*55
$GPGSA,A,3,01,08,10,16,21,23,27,,,,,,2.0,1.2,1.6,1*21
$GPGSV,2,1,07,01,16,255,47,08,73,299,58,10,56,076,56,16,26,182,50,1*69
$GPGSV,2,2,07,21,45,263,54,23,27,048,50,27,70,121,59,,,,,1*56
$GPRMC,000105.00,A,4852.4413565,N,00217.6096197,E,0.56,0.00,180502,0.0,E,A*31
$GPGGA,000105.00,4852.4413565,N,00217.6096197,E,1,07,1.0,-8.792,M,0.000,M,0.0,*54
$GPGSA,A,3,01,08,10,16,21,23,27,,,,,,2.0,1.2,1.6,1*21
$GPGSV,2,1,07,01,16,255,48,08,73,299,58,10,56,076,55,16,26,182,50,1*65
$GPGSV,2,2,07,21,45,263,53,23,27,048,50,27,70,121,57,,,,,1*5F
$GPRMC,000106.00,A,4852.4412329,N,00217.6108305,E,1.11,0.00,180502,0.0,E,A*30
$GPGGA,000106.00,4852.4412329,N,00217.6108305,E,1,07,1.0,-14.800,M,0.000,M,0.0,*6E
$GPGSA,A,3,01,08,10,16,21,23,27,,,,,,2.0,1.2,1.6,1*21
$GPGSV,2,1,07,01,16,255,48,08,73,299,57,10,56,076,55,16,26,182,51,1*6B
$GPGSV,2,2,07,21,45,263,53,23,27,048,50,27,70,121,57,,,,,1*5F
$GPRMC,000107.00,A,4852.4400714,N,00217.6104112,E,1.31,0.00,180502,0.0,E,A*32
$GPGGA,000107.00,4852.4400714,N,00217.6104112,E,1,07,1.0,-12.318,M,0.000,M,0.0,*6A
$GPGSA,A,3,01,08,10,16,21,23,27,,,,,,2.0,1.2,1.6,1*21
$GPGSV,2,1,07,01,16,255,47,08,73,299,57,10,56,076,53,16,26,182,50,1*63
$GPGSV,2,2,07,21,45,263,51,23,27,048,51,27,70,121,56,,,,,1*5D
$GPRMC,000108.00,A,4852.4389736,N,00217.6102819,E,10.55,173.97,180502,0.0,E,A*06
$GPGGA,000108.00,4852.4389736,N,00217.6102819,E,1,07,1.0,-7.770,M,0.000,M,0.0,*59
$GPGSA,A,3,01,08,10,16,21,23,27,,,,,,2.0,1.2,1.6,1*21
$GPGSV,2,1,07,01,16,255,47,08,73,299,56,10,56,076,54,16,26,182,50,1*65
$GPGSV,2,2,07,21,45,263,52,23,27,048,51,27,70,121,56,,,,,1*5E
$GPRMC,000109.00,A,4852.4352050,N,00217.6100039,E,18.74,175.74,180502,0.0,E,A*0E
$GPGGA,000109.00,4852.4352050,N,00217.6100039,E,1,07,1.0,-10.575,M,0.000,M,0.0,*60
$GPGSA,A,3,01,08,10,16,21,23,27,,,,,,2.0,1.2,1.6,1*21
$GPGSV,2,1,07,01,16,255,48,08,73,299,56,10,56,076,54,16,26,182,50,1*6A
$GPGSV,2,2,07,21,45,263,54,23,27,048,51,27,70,121,56,,,,,1*58
$GPRMC,000110.00,A,4852.4287248,N,00217.6107769,E,28.44,175.24,180502,0.0,E,A*04
$GPGGA,000110.00,4852.4287248,N,00217.6107769,E,1,07,1.0,-12.213,M,0.000,M,0.0,*6A
$GPGSA,A,3,01,08,10,16,21,23,27,,,,,,2.0,1.2,1.6,1*21
$GPGSV,2,1,07,01,16,255,48,08,73,299,57,10,56,076,55,16,26,182,50,1*6A
$GPGSV,2,2,07,21,45,263,53,23,27,048,49,27,70,121,56,,,,,1*56
$GPRMC,000111.00,A,4852.4209404,N,00217.6114777,E,31.81,174.91,180502,0.0,E,A*0E
$GPGGA,000111.00,4852.4209404,N,00217.6114777,E,1,07,1.0,-7.237,M,0.000,M,0.0,*5C
$GPGSA,A,3,01,08,10,16,21,23,27,,,,,,2.0,1.2,1.6,1*21
$GPGSV,2,1,07,01,16,255,49,08,73,299,55,10,56,076,57,16,26,182,50,1*6B
$GPGSV,2,2,07,21,45,263,54,23,27,048,51,27,70,121,56,,,,,1*58
$GPRMC,000112.00,A,4852.4115236,N,00217.6107661,E,32.50,174.18,180502,0.0,E,A*0E
$GPGGA,000112.00,4852.4115236,N,00217.6107661,E,1,07,1.0,-3.599,M,0.000,M,0.0,*55
$GPGSA,A,3,01,08,10,16,21,23,27,,,,,,2.0,1.2,1.6,1*21
$GPGSV,2,1,07,01,16,255,49,08,73,299,56,10,56,076,56,16,26,182,50,1*69
$GPGSV,2,2,07,21,45,263,54,23,27,048,50,27,70,121,56,,,,,1*59
$GPRMC,000113.00,A,4852.4030258,N,00217.6120304,E,32.24,174.59,180502,0.0,E,A*04
$GPGGA,000113.00,4852.4030258,N,00217.6120304,E,1,07,1.0,-4.427,M,0.000,M,0.0,*5A
$GPGSA,A,3,01,08,10,16,21,23,27,,,,,,2.0,1.2,1.6,1*21
$GPGSV,2,1,07,01,16,255,50,08,73,299,57,10,56,076,57,16,26,182,49,1*69
$GPGSV,2,2,07,21,45,263,54,23,27,048,52,27,70,121,56,,,,,1*5B
$GPRMC,000114.00,A,4852.3938696,N,00217.6142710,E,32.36,174.19,180502,0.0,E,A*01
$GPGGA,000114.00,4852.3938696,N,00217.6142710,E,1,07,1.0,-8.129,M,0.000,M,0.0,*5F
$GPGSA,A,3,01,08,10,16,21,23,27,,,,,,2.0,1.2,1.6,1*21
$GPGSV,2,1,07,01,16,255,48,08,73,299,56,10,56,076,56,16,26,182,48,1*61
$GPGSV,2,2,07,21,45,263,52,23,27,048,51,27,70,121,56,,,,,1*5E
$GPRMC,000115.00,A,4852.3847497,N,00217.6141585,E,32.83,174.51,180502,0.0,E,A*05
$GPGGA,000115.00,4852.3847497,N,00217.6141585,E,1,07,1.0,-4.037,M,0.000,M,0.0,*5B
$GPGSA,A,3,01,08,10,16,21,23,27,,,,,,2.0,1.2,1.6,1*21
$GPGSV,2,1,07,01,16,255,45,08,73,299,56,10,56,076,55,16,26,182,47,1*60
$GPGSV,2,2,07,21,45,263,54,23,27,048,52,27,70,121,55,,,,,1*58
$GPRMC,000116.00,A,4852.3744587,N,00217.6162793,E,32.80,173.89,180502,0.0,E,A*0F
$GPGGA,000116.00,4852.3744587,N,00217.6162793,E,1,07,1.0,-1.053,M,0.000,M,0.0,*57
$GPGSA,A,3,01,08,10,16,21,23,27,,,,,,2.0,1.2,1.6,1*21
$GPGSV,2,1,07,01,16,255,47,08,73,299,57,10,56,076,54,16,26,182,49,1*6C
$GPGSV,2,2,07,21,45,263,53,23,27,048,50,27,70,121,56,,,,,1*5E
$GPRMC,000117.00,A,4852.3678994,N,00217.6193393,E,23.61,168.99,180502,0.0,E,A*00
$GPGGA,000117.00,4852.3678994,N,00217.6193393,E,1,07,1.0,-5.883,M,0.000,M,0.0,*5D
$GPGSA,A,3,01,08,10,16,21,23,27,,,,,,2.0,1.2,1.6,1*21
$GPGSV,2,1,07,01,16,255,50,08,73,298,58,10,56,076,55,16,26,182,50,1*6D
$GPGSV,2,2,07,21,45,263,53,23,27,048,50,27,70,121,55,,,,,1*5D
$GPRMC,000118.00,A,4852.3633591,N,00217.6213831,E,13.84,157.66,180502,0.0,E,A*05
$GPGGA,000118.00,4852.3633591,N,00217.6213831,E,1,07,1.0,-8.941,M,0.000,M,0.0,*5E
$GPGSA,A,3,01,08,10,16,21,23,27,,,,,,2.0,1.2,1.6,1*21
$GPGSV,2,1,07,01,16,255,49,08,73,298,56,10,56,076,52,16,26,182,51,1*6D
$GPGSV,2,2,07,21,45,263,52,23,27,048,51,27,70,121,56,,,,,1*5E
$GPRMC,000119.00,A,4852.3591840,N,00217.6243846,E,11.96,137.66,180502,0.0,E,A*0C
$GPGGA,000119.00,4852.3591840,N,00217.6243846,E,1,07,1.0,-8.242,M,0.000,M,0.0,*58
$GPGSA,A,3,01,08,10,16,21,23,27,,,,,,2.0,1.2,1.6,1*21
$GPGSV,2,1,07,01,16,255,48,08,74,298,56,10,56,076,53,16,26,182,51,1*6A
$GPGSV,2,2,07,21,45,263,54,23,27,048,50,27,70,121,56,,,,,1*59
$GPRMC,000120.00,A,4852.3554372,N,00217.6313048,E,22.46,124.92,180502,0.0,E,A*03
$GPGGA,000120.00,4852.3554372,N,00217.6313048,E,1,07,1.0,-5.350,M,0.000,M,0.0,*5C
$GPGSA,A,3,01,08,10,16,21,23,27,,,,,,2.0,1.2,1.6,1*21
$GPGSV,2,1,07,01,16,255,50,08,74,298,56,10,56,076,54,16,26,182,49,1*6D
$GPGSV,2,2,07,21,45,263,52,23,27,048,50,27,70,121,56,,,,,1*5F
$GPRMC,000121.00,A,4852.3517728,N,00217.6404559,E,31.00,119.78,180502,0.0,E,A*00
$GPGGA,000121.00,4852.3517728,N,00217.6404559,E,1,07,1.0,-8.662,M,0.000,M,0.0,*5C
$GPGSA,A,3,01,08,10,16,21,23,27,,,,,,2.0,1.2,1.6,1*21
$GPGSV,2,1,07,01,16,255,49,08,74,298,56,10,56,076,53,16,26,182,50,1*6A
$GPGSV,2,2,07,21,45,263,52,23,27,048,52,27,70,121,57,,,,,1*5C
$GPRMC,000122.00,A,4852.3482698,N,00217.6535143,E,32.37,119.74,180502,0.0,E,A*03
$GPGGA,000122.00,4852.3482698,N,00217.6535143,E,1,07,1.0,-15.597,M,0.000,M,0.0,*61
$GPGSA,A,3,01,08,10,16,21,23,27,,,,,,2.0,1.2,1.6,1*21
$GPGSV,2,1,07,01,16,255,48,08,74,298,57,10,56,076,54,16,26,182,49,1*65
$GPGSV,2,2,07,21,45,263,52,23,27,048,52,27,70,121,58,,,,,1*53
$GPRMC,000123.00,A,4852.3432340,N,00217.6653852,E,32.84,118.12,180502,0.0,E,A*0A
$GPGGA,000123.00,4852.3432340,N,00217.6653852,E,1,07,1.0,-11.801,M,0.000,M,0.0,*67
$GPGSA,A,3,01,08,10,16,21,23,27,,,,,,2.0,1.2,1.6,1*21
$GPGSV,2,1,07,01,16,255,48,08,74,298,55,10,56,076,54,16,26,182,50,1*6F
$GPGSV,2,2,07,21,45,263,52,23,27,048,52,27,70,121,55,,,,,1*5E
$GPRMC,000124.00,A,4852.3380616,N,00217.6784640,E,32.98,118.27,180502,0.0,E,A*08
$GPGGA,000124.00,4852.3380616,N,00217.6784640,E,1,07,1.0,-10.708,M,0.000,M,0.0,*69
$GPGSA,A,3,01,08,10,16,21,23,27,,,,,,2.0,1.2,1.6,1*21
$GPGSV,2,1,07,01,16,255,48,08,74,298,55,10,56,076,56,16,26,182,50,1*6D
$GPGSV,2,2,07,21,45,263,53,23,27,048,50,27,70,121,55,,,,,1*5D
$GPRMC,000125.00,A,4852.3345296,N,00217.6888801,E,32.50,118.16,180502,0.0,E,A*02
$GPGGA,000125.00,4852.3345296,N,00217.6888801,E,1,07,1.0,-11.987,M,0.000,M,0.0,*6D
$GPGSA,A,3,01,08,10,16,21,23,27,,,,,,2.0,1.2,1.6,1*21
$GPGSV,2,1,07,01,16,255,48,08,74,298,56,10,56,076,56,16,26,182,50,1*6E
$GPGSV,2,2,07,21,45,263,54,23,27,048,50,27,70,121,56,,,,,1*59
$GPRMC,000126.00,A,4852.3316580,N,00217.6993643,E,32.19,118.00,180502,0.0,E,A*0E
$GPGGA,000126.00,4852.3316580,N,00217.6993643,E,1,07,1.0,-13.510,M,0.000,M,0.0,*6B
$GPGSA,A,3,01,08,10,16,21,23,27,,,,,,2.0,1.2,1.6,1*21
$GPGSV,2,1,07,01,16,255,48,08,74,298,56,10,56,076,56,16,26,182,50,1*6E
$GPGSV,2,2,07,21,45,263,53,23,27,048,50,27,70,121,57,,,,,1*5F
$GPRMC,000127.00,A,4852.3261086,N,00217.7136815,E,32.68,117.23,180502,0.0,E,A*0E
$GPGGA,000127.00,4852.3261086,N,00217.7136815,E,1,07,1.0,-11.320,M,0.000,M,0.0,*64
$GPGSA,A,3,01,08,10,16,21,23,27,,,,,,2.0,1.2,1.6,1*21
$GPGSV,2,1,07,01,16,255,47,08,74,298,56,10,56,076,56,16,26,182,51,1*60
$GPGSV,2,2,07,21,45,263,53,23,27,048,51,27,70,121,57,,,,,1*5E
$GPRMC,000128.00,A,4852.3206431,N,00217.7262846,E,32.98,117.93,180502,0.0,E,A*08
$GPGGA,000128.00,4852.3206431,N,00217.7262846,E,1,07,1.0,-7.756,M,0.000,M,0.0,*54
$GPGSA,A,3,01,08,10,16,21,23,27,,,,,,2.0,1.2,1.6,1*21
$GPGSV,2,1,07,01,16,255,48,08,74,298,56,10,56,076,57,16,26,182,50,1*6F
$GPGSV,2,2,07,21,45,263,53,23,27,048,50,27,70,121,56,,,,,1*5E
$GPRMC,000129.00,A,4852.3189180,N,00217.7373717,E,32.03,116.71,180502,0.0,E,A*07
$GPGGA,000129.00,4852.3189180,N,00217.7373717,E,1,07,1.0,-12.774,M,0.000,M,0.0,*60
$GPGSA,A,3,01,08,10,16,21,23,27,,,,,,2.0,1.2,1.6,1*21
$GPGSV,2,1,07,01,16,255,47,08,74,298,56,10,56,076,57,16,26,182,51,1*61
$GPGSV,2,2,07,21,45,263,54,23,27,048,51,27,70,121,58,,,,,1*56
$GPRMC,000130.00,A,4852.3147932,N,00217.7473174,E,32.62,117.08,180502,0.0,E,A*00
$GPGGA,000130.00,4852.3147932,N,00217.7473174,E,1,07,1.0,-10.054,M,0.000,M,0.0,*68
$GPGSA,A,3,01,08,10,16,21,23,27,,,,,,2.0,1.2,1.6,1*21
$GPGSV,2,1,07,01,16,255,48,08,74,298,55,10,56,076,52,16,26,182,50,1*69
$GPGSV,2,2,07,21,45,263,54,23,27,048,50,27,70,121,57,,,,,1*58
$GPRMC,000131.00,A,4852.3103161,N,00217.7604449,E,32.81,114.47,180502,0.0,E,A*03
$GPGGA,000131.00,4852.3103161,N,00217.7604449,E,1,07,1.0,-5.116,M,0.000,M,0.0,*5D
$GPGSA,A,3,01,08,10,16,21,23,27,,,,,,2.0,1.2,1.6,1*21
$GPGSV,2,1,07,01,16,255,48,08,74,298,57,10,56,076,54,16,26,182,50,1*6D
$GPGSV,2,2,07,21,45,263,54,23,27,048,48,27,70,121,57,,,,,1*51
$GPRMC,000132.00,A,4852.3059041,N,00217.7738038,E,32.19,116.03,180502,0.0,E,A*02
$GPGGA,000132.00,4852.3059041,N,00217.7738038,E,1,07,1.0,-7.118,M,0.000,M,0.0,*53
$GPGSA,A,3,01,08,10,16,21,23,27,,,,,,2.0,1.2,1.6,1*21
$GPGSV,2,1,07,01,16,255,49,08,74,298,56,10,56,076,53,16,26,182,50,1*6A
$GPGSV,2,2,07,21,45,263,54,23,27,048,49,27,70,121,57,,,,,1*50
$GPRMC,000133.00,A,4852.3037324,N,00217.7858605,E,32.98,116.44,180502,0.0,E,A*00
$GPGGA,000133.00,4852.3037324,N,00217.7858605,E,1,07,1.0,-10.259,M,0.000,M,0.0,*6B
$GPGSA,A,3,01,08,10,16,21,23,27,,,,,,2.0,1.2,1.6,1*21
$GPGSV,2,1,07,01,16,255,49,08,74,298,54,10,56,076,54,16,26,182,50,1*6F
$GPGSV,2,2,07,21,45,263,52,23,27,048,51,27,70,121,54,,,,,1*5C
$GPRMC,000134.00,A,4852.3010642,N,00217.7969877,E,31.95,114.87,180502,0.0,E,A*0C
$GPGGA,000134.00,4852.3010642,N,00217.7969877,E,1,07,1.0,-6.452,M,0.000,M,0.0,*5E
$GPGSA,A,3,01,08,10,16,21,23,27,,,,,,2.0,1.2,1.6,1*21
$GPGSV,2,1,07,01,16,255,48,08,74,298,56,10,56,076,56,16,26,182,50,1*6E
$GPGSV,2,2,07,21,45,263,52,23,27,048,51,27,70,121,56,,,,,1*5E
$GPRMC,000135.00,A,4852.2941086,N,00217.8089984,E,32.16,115.37,180502,0.0,E,A*08
$GPGGA,000135.00,4852.2941086,N,00217.8089984,E,1,07,1.0,-0.901,M,0.000,M,0.0,*55
$GPGSA,A,3,01,08,10,16,21,23,27,,,,,,2.0,1.2,1.6,1*21
$GPGSV,2,1,07,01,16,255,49,08,74,298,54,10,56,076,54,16,26,182,49,1*67
$GPGSV,2,2,07,21,45,263,54,23,27,048,50,27,70,121,54,,,,,1*5B
$GPRMC,000136.00,A,4852.2927743,N,00217.8199532,E,32.42,115.29,180502,0.0,E,A*0A
$GPGGA,000136.00,4852.2927743,N,00217.8199532,E,1,07,1.0,-2.046,M,0.000,M,0.0,*51
$GPGSA,A,3,01,08,10,16,21,23,27,,,,,,2.0,1.2,1.6,1*21
$GPGSV,2,1,07,01,16,255,47,08,74,298,55,10,56,076,56,16,26,182,48,1*6B
$GPGSV,2,2,07,21,45,263,52,23,27,048,51,27,70,121,56,,,,,1*5E
$GPRMC,000137.00,A,4852.2880463,N,00217.8324101,E,32.77,116.43,180502,0.0,E,A*0F
$GPGGA,000137.00,4852.2880463,N,00217.8324101,E,1,07,1.0,-5.938,M,0.000,M,0.0,*5A
$GPGSA,A,3,01,08,10,16,21,23,27,,,,,,2.0,1.2,1.6,1*21
$GPGSV,2,1,07,01,16,255,48,08,74,298,57,10,56,076,57,16,26,182,49,1*66
$GPGSV,2,2,07,21,45,263,53,23,27,048,51,27,70,121,55,,,,,1*5C
$GPRMC,000138.00,A,4852.2845190,N,00217.8449338,E,29.25,116.43,180502,0.0,E,A*09
$GPGGA,000138.00,4852.2845190,N,00217.8449338,E,1,07,1.0,-3.872,M,0.000,M,0.0,*58
$GPGSA,A,3,01,08,10,16,21,23,27,,,,,,2.0,1.2,1.6,1*21
$GPGSV,2,1,07,01,16,255,49,08,74,298,55,10,56,076,55,16,26,182,49,1*67
$GPGSV,2,2,07,21,45,263,50,23,27,048,51,27,70,121,55,,,,,1*5F
$GPRMC,000139.00,A,4852.2796037,N,00217.8566537,E,21.67,124.07,180502,0.0,E,A*0F
$GPGGA,000139.00,4852.2796037,N,00217.8566537,E,1,07,1.0,-0.338,M,0.000,M,0.0,*57
$GPGSA,A,3,01,08,10,16,21,23,27,,,,,,2.0,1.2,1.6,1*21
$GPGSV,2,1,07,01,16,255,49,08,74,298,54,10,56,076,54,16,26,182,50,1*6F
$GPGSV,2,2,07,21,45,263,52,23,27,048,52,27,70,121,55,,,,,1*5E
$GPRMC,000140.00,A,4852.2756535,N,00217.8631908,E,27.95,131.47,180502,0.0,E,A*00
$GPGGA,000140.00,4852.2756535,N,00217.8631908,E,1,07,1.0,-0.420,M,0.000,M,0.0,*5D
$GPGSA,A,3,01,08,10,16,21,23,27,,,,,,2.0,1.2,1.6,1*21
$GPGSV,2,1,07,01,16,255,48,08,74,298,56,10,56,076,54,16,26,182,50,1*6C
$GPGSV,2,2,07,21,45,263,54,23,27,048,50,27,70,121,55,,,,,1*5A
$GPRMC,000141.00,A,4852.2722468,N,00217.8707185,E,32.07,133.49,180502,0.0,E,A*01
$GPGGA,000141.00,4852.2722468,N,00217.8707185,E,1,07,1.0,-7.896,M,0.000,M,0.0,*59
$GPGSA,A,3,01,08,10,16,21,23,27,,,,,,2.0,1.2,1.6,1*21
$GPGSV,2,1,07,01,16,255,48,08,74,298,56,10,56,076,55,16,26,182,52,1*6F
$GPGSV,2,2,07,21,45,263,54,23,27,048,50,27,70,121,56,,,,,1*59
$GPRMC,000142.00,A,4852.2646970,N,00217.8812011,E,32.17,133.11,180502,0.0,E,A*0E
$GPGGA,000142.00,4852.2646970,N,00217.8812011,E,1,07,1.0,-4.591,M,0.000,M,0.0,*53
$GPGSA,A,3,01,08,10,16,21,23,27,,,,,,2.0,1.2,1.6,1*21
$GPGSV,2,1,07,01,16,255,49,08,74,298,56,10,56,076,56,16,26,182,51,1*6E
$GPGSV,2,2,07,21,45,263,53,23,27,048,50,27,70,121,58,,,,,1*50
$GPRMC,000143.00,A,4852.2573256,N,00217.8931814,E,33.34,132.85,180502,0.0,E,A*04
$GPGGA,000143.00,4852.2573256,N,00217.8931814,E,1,07,1.0,-2.857,M,0.000,M,0.0,*54
$GPGSA,A,3,01,08,10,16,21,23,27,,,,,,2.0,1.2,1.6,1*21
$GPGSV,2,1,07,01,16,255,49,08,74,298,56,10,56,076,57,16,26,182,50,1*6E
$GPGSV,2,2,07,21,45,263,51,23,27,048,50,27,70,121,58,,,,,1*52
$GPRMC,000144.00,A,4852.2521102,N,00217.9026431,E,31.87,133.43,180502,0.0,E,A*02
$GPGGA,000144.00,4852.2521102,N,00217.9026431,E,1,07,1.0,-6.928,M,0.000,M,0.0,*5E
$GPGSA,A,3,01,08,10,16,21,23,27,,,,,,2.0,1.2,1.6,1*21
$GPGSV,2,1,07,01,16,255,49,08,74,298,55,10,56,076,57,16,26,182,50,1*6D
$GPGSV,2,2,07,21,45,263,52,23,27,048,50,27,70,121,55,,,,,1*5C
$GPRMC,000145.00,A,4852.2457923,N,00217.9113761,E,31.46,132.28,180502,0.0,E,A*08
$GPGGA,000145.00,4852.2457923,N,00217.9113761,E,1,07,1.0,-9.786,M,0.000,M,0.0,*50
$GPGSA,A,3,01,08,10,16,21,23,27,,,,,,2.0,1.2,1.6,1*21
$GPGSV,2,1,07,01,16,255,48,08,74,298,58,10,56,076,55,16,26,182,49,1*6B
$GPGSV,2,2,07,21,45,263,54,23,27,048,50,27,70,121,57,,,,,1*58
$GPRMC,000146.00,A,4852.2400967,N,00217.9220383,E,32.05,133.04,180502,0.0,E,A*09
$GPGGA,000146.00,4852.2400967,N,00217.9220383,E,1,07,1.0,-6.707,M,0.000,M,0.0,*5C
$GPGSA,A,3,01,08,10,16,21,23,27,,,,,,2.0,1.2,1.6,1*21
$GPGSV,2,1,07,01,16,255,48,08,74,298,56,10,56,076,55,16,26,182,50,1*6D
$GPGSV,2,2,07,21,45,263,52,23,27,048,50,27,70,121,57,,,,,1*5E
$GPRMC,000147.00,A,4852.2326520,N,00217.9318001,E,32.00,133.51,180502,0.0,E,A*02
$GPGGA,000147.00,4852.2326520,N,00217.9318001,E,1,07,1.0,-2.109,M,0.000,M,0.0,*5E
$GPGSA,A,3,01,08,10,16,21,23,27,,,,,,2.0,1.2,1.6,1*21
$GPGSV,2,1,07,01,16,255,47,08,74,298,58,10,56,076,54,16,26,182,51,1*6C
$GPGSV,2,2,07,21,45,263,54,23,27,048,50,27,70,121,58,,,,,1*57
$GPRMC,000148.00,A,4852.2265719,N,00217.9415659,E,32.41,132.42,180502,0.0,E,A*04
$GPGGA,000148.00,4852.2265719,N,00217.9415659,E,1,07,1.0,-7.798,M,0.000,M,0.0,*55
$GPGSA,A,3,01,08,10,16,21,23,27,,,,,,2.0,1.2,1.6,1*21
$GPGSV,2,1,07,01,16,255,48,08,74,298,54,10,56,076,52,16,26,182,50,1*68
$GPGSV,2,2,07,21,45,263,53,23,27,048,49,27,70,121,55,,,,,1*55
$GPRMC,000149.00,A,4852.2214894,N,00217.9523601,E,33.26,133.70,180502,0.0,E,A*00
$GPGGA,000149.00,4852.2214894,N,00217.9523601,E,1,07,1.0,-12.633,M,0.000,M,0.0,*65
$GPGSA,A,3,01,08,10,16,21,23,27,,,,,,2.0,1.2,1.6,1*21
$GPGSV,2,1,07,01,16,255,49,08,74,298,54,10,55,076,52,16,26,182,50,1*6A
$GPGSV,2,2,07,21,45,263,55,23,27,048,48,27,70,121,56,,,,,1*51
$GPRMC,000150.00,A,4852.2144829,N,00217.9626224,E,32.26,132.46,180502,0.0,E,A*08
$GPGGA,000150.00,4852.2144829,N,00217.9626224,E,1,07,1.0,-10.891,M,0.000,M,0.0,*6C
$GPGSA,A,3,01,08,10,16,21,23,27,,,,,,2.0,1.2,1.6,1*21
$GPGSV,2,1,07,01,16,255,51,08,74,298,57,10,55,076,56,16,26,182,50,1*64
$GPGSV,2,2,07,21,45,263,53,23,27,048,48,27,70,121,58,,,,,1*59
$GPRMC,000151.00,A,4852.2080233,N,00217.9722979,E,32.29,133.52,180502,0.0,E,A*0C
$GPGGA,000151.00,4852.2080233,N,00217.9722979,E,1,07,1.0,-9.250,M,0.000,M,0.0,*5C
$GPGSA,A,3,01,08,10,16,21,23,27,,,,,,2.0,1.2,1.6,1*21
$GPGSV,2,1,07,01,16,255,48,08,74,298,57,10,55,075,54,16,26,182,51,1*6C
$GPGSV,2,2,07,21,45,263,51,23,27,048,49,27,70,121,58,,,,,1*5A
$GPRMC,000152.00,A,4852.2021052,N,00217.9808511,E,31.92,134.14,180502,0.0,E,A*02
$GPGGA,000152.00,4852.2021052,N,00217.9808511,E,1,07,1.0,-8.828,M,0.000,M,0.0,*50
$GPGSA,A,3,01,08,10,16,21,23,27,,,,,,2.0,1.2,1.6,1*21
$GPGSV,2,1,07,01,16,255,48,08,74,298,56,10,55,075,54,16,26,182,51,1*6D
$GPGSV,2,2,07,21,45,263,52,23,27,048,50,27,70,121,57,,,,,1*5E
$GPRMC,000153.00,A,4852.1957696,N,00217.9910030,E,32.20,132.63,180502,0.0,E,A*04
$GPGGA,000153.00,4852.1957696,N,00217.9910030,E,1,07,1.0,-11.054,M,0.000,M,0.0,*61
$GPGSA,A,3,01,08,10,16,21,23,27,,,,,,2.0,1.2,1.6,1*21
$GPGSV,2,1,07,01,16,255,48,08,74,298,56,10,55,075,56,16,26,182,51,1*6F
$GPGSV,2,2,07,21,45,263,54,23,27,048,50,27,70,121,56,,,,,1*59
$GPRMC,000154.00,A,4852.1904116,N,00218.0035656,E,31.03,133.72,180502,0.0,E,A*07
$GPGGA,000154.00,4852.1904116,N,00218.0035656,E,1,07,1.0,-13.309,M,0.000,M,0.0,*68
$GPGSA,A,3,01,08,10,16,21,23,27,,,,,,2.0,1.2,1.6,1*21
$GPGSV,2,1,07,01,16,255,50,08,74,298,56,10,55,075,54,16,26,182,50,1*65
$GPGSV,2,2,07,21,45,263,54,23,27,048,49,27,70,121,57,,,,,1*50
$GPRMC,000155.00,A,4852.1828077,N,00218.0124945,E,23.74,137.99,180502,0.0,E,A*01
$GPGGA,000155.00,4852.1828077,N,00218.0124945,E,1,07,1.0,-9.485,M,0.000,M,0.0,*54
$GPGSA,A,3,01,08,10,16,21,23,27,,,,,,2.0,1.2,1.6,1*21
$GPGSV,2,1,07,01,16,255,48,08,74,298,57,10,55,075,56,16,26,182,50,1*6F
$GPGSV,2,2,07,21,45,263,55,23,27,048,49,27,70,121,55,,,,,1*53
$GPRMC,000156.00,A,4852.1793289,N,00218.0179586,E,19.40,146.63,180502,0.0,E,A*08
$GPGGA,000156.00,4852.1793289,N,00218.0179586,E,1,07,1.0,-10.868,M,0.000,M,0.0,*67
$GPGSA,A,3,01,08,10,16,21,23,27,,,,,,2.0,1.2,1.6,1*21
$GPGSV,2,1,07,01,16,255,49,08,74,298,55,10,55,075,54,16,26,182,50,1*6E
$GPGSV,2,2,07,21,45,263,54,23,27,048,50,27,70,121,53,,,,,1*5C
$GPRMC,000157.00,A,4852.1748895,N,00218.0203337,E,26.52,151.76,180502,0.0,E,A*07
$GPGGA,000157.00,4852.1748895,N,00218.0203337,E,1,07,1.0,-14.196,M,0.000,M,0.0,*69
$GPGSA,A,3,01,08,10,16,21,23,27,,,,,,2.0,1.2,1.6,1*21
$GPGSV,2,1,07,01,16,255,48,08,74,298,56,10,55,075,54,16,26,182,49,1*64
$GPGSV,2,2,07,21,45,263,54,23,27,048,48,27,70,121,54,,,,,1*52
$GPRMC,000158.00,A,4852.1662880,N,00218.0260374,E,32.94,156.15,180502,0.0,E,A*0A
$GPGGA,000158.00,4852.1662880,N,00218.0260374,E,1,07,1.0,-13.856,M,0.000,M,0.0,*6B
$GPGSA,A,3,01,08,10,16,21,23,27,,,,,,2.0,1.2,1.6,1*21
$GPGSV,2,1,07,01,16,255,49,08,74,298,58,10,55,075,56,16,26,182,49,1*69
$GPGSV,2,2,07,21,45,263,54,23,27,048,49,27,70,121,55,,,,,1*52
$GPRMC,000159.00,A,4852.1572801,N,00218.0338534,E,32.24,156.01,180502,0.0,E,A*00
$GPGGA,000159.00,4852.1572801,N,00218.0338534,E,1,07,1.0,-10.922,M,0.000,M,0.0,*6E
$GPGSA,A,3,01,08,10,16,21,23,27,,,,,,2.0,1.2,1.6,1*21
$GPGSV,2,1,07,01,16,255,50,08,74,298,56,10,55,075,54,16,26,182,49,1*6D
$GPGSV,2,2,07,21,45,263,54,23,27,048,52,27,70,121,57,,,,,1*5A
$GPRMC,000200.00,A,4852.1486270,N,00218.0394903,E,32.11,156.34,180502,0.0,E,A*07
$GPGGA,000200.00,4852.1486270,N,00218.0394903,E,1,07,1.0,-9.488,M,0.000,M,0.0,*5C
$GPGSA,A,3,01,08,10,16,21,23,27,,,,,,2.0,1.2,1.6,1*21
$GPGSV,2,1,07,01,16,255,47,08,74,298,56,10,55,075,54,16,26,182,49,1*6B
$GPGSV,2,2,07,21,45,263,54,23,27,048,50,27,70,121,56,,,,,1*59
$GPRMC,000201.00,A,4852.1415368,N,00218.0423986,E,32.06,155.68,180502,0.0,E,A*0E
$GPGGA,000201.00,4852.1415368,N,00218.0423986,E,1,07,1.0,-11.213,M,0.000,M,0.0,*64
$GPGSA,A,3,01,08,10,16,21,23,27,,,,,,2.0,1.2,1.6,1*21
$GPGSV,2,1,07,01,16,255,49,08,74,298,54,10,55,075,54,16,26,182,51,1*6E
$GPGSV,2,2,07,21,45,263,52,23,27,048,50,27,70,121,56,,,,,1*5F
$GPRMC,000202.00,A,4852.1341252,N,00218.0464232,E,33.10,156.89,180502,0.0,E,A*0E
$GPGGA,000202.00,4852.1341252,N,00218.0464232,E,1,07,1.0,-12.392,M,0.000,M,0.0,*65
$GPGSA,A,3,01,08,10,16,21,23,27,,,,,,2.0,1.2,1.6,1*21
$GPGSV,2,1,07,01,16,255,51,08,74,298,56,10,55,075,54,16,26,182,50,1*64
$GPGSV,2,2,07,21,45,263,52,23,27,048,50,27,70,121,56,,,,,1*5F
$GPRMC,000203.00,A,4852.1248380,N,00218.0534411,E,32.36,157.78,180502,0.0,E,A*00
$GPGGA,000203.00,4852.1248380,N,00218.0534411,E,1,07,1.0,-9.232,M,0.000,M,0.0,*50
$GPGSA,A,3,01,08,10,16,21,23,27,,,,,,2.0,1.2,1.6,1*21
$GPGSV,2,1,07,01,16,255,48,08,74,298,56,10,55,075,54,16,26,182,51,1*6D
$GPGSV,2,2,07,21,45,263,51,23,27,048,49,27,70,121,55,,,,,1*57
$GPRMC,000204.00,A,4852.1157400,N,00218.0593489,E,32.18,156.69,180502,0.0,E,A*04
$GPGGA,000204.00,4852.1157400,N,00218.0593489,E,1,07,1.0,-6.810,M,0.000,M,0.0,*5C
$GPGSA,A,3,01,08,10,16,21,23,27,,,,,,2.0,1.2,1.6,1*21
$GPGSV,2,1,07,01,16,255,48,08,74,298,56,10,55,075,55,16,26,182,50,1*6D
$GPGSV,2,2,07,21,45,263,52,23,27,048,52,27,70,121,55,,,,,1*5E
$GPRMC,000205.00,A,4852.1080425,N,00218.0642922,E,32.34,156.40,180502,0.0,E,A*0F
$GPGGA,000205.00,4852.1080425,N,00218.0642922,E,1,07,1.0,-9.722,M,0.000,M,0.0,*53
$GPGSA,A,3,01,08,10,16,21,23,27,,,,,,2.0,1.2,1.6,1*21
$GPGSV,2,1,07,01,16,255,50,08,74,298,55,10,55,075,56,16,26,182,50,1*64
$GPGSV,2,2,07,21,45,263,52,23,27,047,51,27,70,121,54,,,,,1*53
$GPRMC,000206.00,A,4852.1011580,N,00218.0669573,E,32.04,155.84,180502,0.0,E,A*03
$GPGGA,000206.00,4852.1011580,N,00218.0669573,E,1,07,1.0,-9.920,M,0.000,M,0.0,*5B
$GPGSA,A,3,01,08,10,16,21,23,27,,,,,,2.0,1.2,1.6,1*21
$GPGSV,2,1,07,01,16,255,49,08,74,298,57,10,55,075,57,16,26,182,49,1*67
$GPGSV,2,2,07,21,45,263,53,23,27,047,49,27,70,121,56,,,,,1*59
$GPRMC,000207.00,A,4852.0924105,N,00218.0722761,E,33.16,156.90,180502,0.0,E,A*0E
$GPGGA,000207.00,4852.0924105,N,00218.0722761,E,1,07,1.0,-8.710,M,0.000,M,0.0,*5E
$GPGSA,A,3,01,08,10,16,21,23,27,,,,,,2.0,1.2,1.6,1*21
$GPGSV,2,1,07,01,16,255,48,08,74,298,58,10,55,075,56,16,26,182,51,1*61
$GPGSV,2,2,07,21,45,263,53,23,27,047,52,27,69,121,56,,,,,1*5B
$GPRMC,000208.00,A,4852.0832501,N,00218.0797501,E,33.01,157.31,180502,0.0,E,A*01
$GPGGA,000208.00,4852.0832501,N,00218.0797501,E,1,07,1.0,-6.435,M,0.000,M,0.0,*57
$GPGSA,A,3,01,08,10,16,21,23,27,,,,,,2.0,1.2,1.6,1*21
$GPGSV,2,1,07,01,16,255,48,08,74,298,56,10,55,075,55,16,26,182,49,1*65
$GPGSV,2,2,07,21,45,263,54,23,27,047,50,27,69,121,55,,,,,1*5D
$GPRMC,000209.00,A,4852.0750891,N,00218.0857551,E,32.84,157.89,180502,0.0,E,A*06
$GPGGA,000209.00,4852.0750891,N,00218.0857551,E,1,07,1.0,-5.173,M,0.000,M,0.0,*5B
$GPGSA,A,3,01,08,10,16,21,23,27,,,,,,2.0,1.2,1.6,1*21
$GPGSV,2,1,07,01,16,255,50,08,74,298,56,10,55,075,54,16,26,182,50,1*65
$GPGSV,2,2,07,21,45,263,54,23,27,047,52,27,69,121,55,,,,,1*5F
$GPRMC,000210.00,A,4852.0685298,N,00218.0885265,E,24.35,160.73,180502,0.0,E,A*07
$GPGGA,000210.00,4852.0685298,N,00218.0885265,E,1,07,1.0,-6.418,M,0.000,M,0.0,*5D
$GPGSA,A,3,01,08,10,16,21,23,27,,,,,,2.0,1.2,1.6,1*21
$GPGSV,2,1,07,01,16,255,50,08,74,298,57,10,55,075,54,16,26,182,50,1*64
$GPGSV,2,2,07,21,45,263,52,23,27,047,50,27,69,121,56,,,,,1*58
$GPRMC,000211.00,A,4852.0643906,N,00218.0886826,E,15.68,170.40,180502,0.0,E,A*05
$GPGGA,000211.00,4852.0643906,N,00218.0886826,E,1,07,1.0,-7.805,M,0.000,M,0.0,*55
$GPGSA,A,3,01,08,10,16,21,23,27,,,,,,2.0,1.2,1.6,1*21
$GPGSV,2,1,07,01,16,255,48,08,74,298,57,10,55,075,54,16,26,182,51,1*6C
$GPGSV,2,2,07,21,45,263,54,23,27,047,49,27,69,121,56,,,,,1*56
$GPRMC,000212.00,A,4852.0587285,N,00218.0905305,E,19.42,183.14,180502,0.0,E,A*04
$GPGGA,000212.00,4852.0587285,N,00218.0905305,E,1,07,1.0,-3.701,M,0.000,M,0.0,*52
$GPGSA,A,3,01,08,10,16,21,23,27,,,,,,2.0,1.2,1.6,1*21
$GPGSV,2,1,07,01,16,255,48,08,74,298,54,10,55,075,54,16,26,182,50,1*6E
$GPGSV,2,2,07,21,45,263,55,23,27,047,50,27,69,121,56,,,,,1*5F
$GPRMC,000213.00,A,4852.0513666,N,00218.0903928,E,27.89,190.57,180502,0.0,E,A*0D
$GPGGA,000213.00,4852.0513666,N,00218.0903928,E,1,07,1.0,-0.682,M,0.000,M,0.0,*5D
$GPGSA,A,3,01,08,10,16,21,23,27,,,,,,2.0,1.2,1.6,1*21
$GPGSV,2,1,07,01,16,255,49,08,74,298,56,10,55,075,54,16,26,182,48,1*64
$GPGSV,2,2,07,21,45,263,54,23,27,047,51,27,69,121,56,,,,,1*5F
$GPRMC,000214.00,A,4852.0444396,N,00218.0859670,E,32.25,193.43,180502,0.0,E,A*0B
$GPGGA,000214.00,4852.0444396,N,00218.0859670,E,1,07,1.0,-4.086,M,0.000,M,0.0,*59
$GPGSA,A,3,01,08,10,16,21,23,27,,,,,,2.0,1.2,1.6,1*21
$GPGSV,2,1,07,01,16,255,47,08,74,298,55,10,55,075,53,16,26,182,49,1*6F
$GPGSV,2,2,07,21,45,263,54,23,27,047,49,27,69,121,56,,,,,1*56
$GPRMC,000215.00,A,4852.0359356,N,00218.0808509,E,32.13,193.44,180502,0.0,E,A*06
$GPGGA,000215.00,4852.0359356,N,00218.0808509,E,1,07,1.0,-5.222,M,0.000,M,0.0,*5B
$GPGSA,A,3,01,08,10,16,21,23,27,,,,,,2.0,1.2,1.6,1*21
$GPGSV,2,1,07,01,16,255,48,08,74,298,56,10,55,075,54,16,26,182,50,1*6C
$GPGSV,2,2,07,21,45,263,53,23,27,047,50,27,69,121,54,,,,,1*5B
$GPRMC,000216.00,A,4852.0272205,N,00218.0773349,E,32.61,193.49,180502,0.0,E,A*03
$GPGGA,000216.00,4852.0272205,N,00218.0773349,E,1,07,1.0,-3.332,M,0.000,M,0.0,*50
$GPGSA,A,3,01,08,10,16,21,23,27,,,,,,2.0,1.2,1.6,1*21
$GPGSV,2,1,07,01,16,255,50,08,74,298,55,10,55,075,53,16,26,182,50,1*61
$GPGSV,2,2,07,21,45,263,52,23,27,047,49,27,69,121,56,,,,,1*50
$GPRMC,000217.00,A,4852.0174050,N,00218.0763513,E,32.18,195.20,180502,0.0,E,A*0A
$GPGGA,000217.00,4852.0174050,N,00218.0763513,E,1,07,1.0,-3.414,M,0.000,M,0.0,*5D
$GPGSA,A,3,01,08,10,16,21,23,27,,,,,,2.0,1.2,1.6,1*21
$GPGSV,2,1,07,01,16,255,48,08,74,298,57,10,55,075,53,16,26,182,49,1*62
$GPGSV,2,2,07,21,45,263,53,23,27,047,49,27,69,121,55,,,,,1*52
$GPRMC,000218.00,A,4852.0082659,N,00218.0743530,E,32.48,193.59,180502,0.0,E,A*0C
$GPGGA,000218.00,4852.0082659,N,00218.0743530,E,1,07,1.0,-1.714,M,0.000,M,0.0,*57
$GPGSA,A,3,01,08,10,16,21,23,27,,,,,,2.0,1.2,1.6,1*21
$GPGSV,2,1,07,01,16,255,49,08,74,298,56,10,55,075,54,16,26,182,49,1*65
$GPGSV,2,2,07,21,45,263,51,23,27,047,48,27,69,121,56,,,,,1*52
$GPRMC,000219.00,A,4852.0004910,N,00218.0690502,E,32.11,194.38,180502,0.0,E,A*03
$GPGGA,000219.00,4852.0004910,N,00218.0690502,E,1,07,1.0,-2.505,M,0.000,M,0.0,*55
$GPGSA,A,3,01,08,10,16,21,23,27,,,,,,2.0,1.2,1.6,1*21
$GPGSV,2,1,07,01,16,255,49,08,74,298,56,10,55,075,56,16,26,182,50,1*6F
$GPGSV,2,2,07,21,45,263,51,23,27,047,50,27,69,121,56,,,,,1*5B
$GPRMC,000220.00,A,4851.9919358,N,00218.0658049,E,32.32,193.34,180502,0.0,E,A*04
$GPGGA,000220.00,4851.9919358,N,00218.0658049,E,1,07,1.0,-7.081,M,0.000,M,0.0,*54
$GPGSA,A,3,01,08,10,16,21,23,27,,,,,,2.0,1.2,1.6,1*21
$GPGSV,2,1,07,01,16,255,51,08,74,298,57,10,55,075,55,16,26,182,51,1*65
$GPGSV,2,2,07,21,45,263,51,23,27,047,50,27,69,121,57,,,,,1*5A
$GPRMC,000221.00,A,4851.9835596,N,00218.0644335,E,31.53,194.35,180502,0.0,E,A*09
$GPGGA,000221.00,4851.9835596,N,00218.0644335,E,1,07,1.0,-8.716,M,0.000,M,0.0,*5D
$GPGSA,A,3,01,08,10,16,21,23,27,,,,,,2.0,1.2,1.6,1*21
$GPGSV,2,1,07,01,16,255,49,08,74,298,54,10,55,075,54,16,26,182,51,1*6E
$GPGSV,2,2,07,21,45,263,53,23,27,047,49,27,69,121,53,,,,,1*54
$GPRMC,000222.00,A,4851.9729726,N,00218.0610550,E,33.06,192.45,180502,0.0,E,A*06
$GPGGA,000222.00,4851.9729726,N,00218.0610550,E,1,07,1.0,-4.543,M,0.000,M,0.0,*5F
$GPGSA,A,3,01,08,10,16,21,23,27,,,,,,2.0,1.2,1.6,1*21
$GPGSV,2,1,07,01,16,255,48,08,74,298,57,10,55,075,55,16,26,182,51,1*6D
$GPGSV,2,2,07,21,45,263,55,23,27,047,52,27,69,121,55,,,,,1*5E
$GPRMC,000223.00,A,4851.9643699,N,00218.0561787,E,32.63,193.37,180502,0.0,E,A*04
$GPGGA,000223.00,4851.9643699,N,00218.0561787,E,1,07,1.0,-3.563,M,0.000,M,0.0,*5E
$GPGSA,A,3,01,08,10,16,21,23,27,,,,,,2.0,1.2,1.6,1*21
$GPGSV,2,1,07,01,16,255,48,08,74,298,56,10,55,075,54,16,26,182,51,1*6D
$GPGSV,2,2,07,21,45,263,54,23,27,047,52,27,69,121,54,,,,,1*5E
$GPRMC,000224.00,A,4851.9566725,N,00218.0533850,E,32.07,194.23,180502,0.0,E,A*03
$GPGGA,000224.00,4851.9566725,N,00218.0533850,E,1,07,1.0,-7.856,M,0.000,M,0.0,*56
$GPGSA,A,3,01,08,10,16,21,23,27,,,,,,2.0,1.2,1.6,1*21
$GPGSV,2,1,07,01,16,255,48,08,74,298,55,10,55,075,54,16,26,182,50,1*6F
$GPGSV,2,2,07,21,45,263,52,23,27,047,52,27,69,121,55,,,,,1*59
$GPRMC,000225.00,A,4851.9480252,N,00218.0519220,E,32.23,194.06,180502,0.0,E,A*0A
$GPGGA,000225.00,4851.9480252,N,00218.0519220,E,1,07,1.0,-11.623,M,0.000,M,0.0,*65
$GPGSA,A,3,01,08,10,16,21,23,27,,,,,,2.0,1.2,1.6,1*21
$GPGSV,2,1,07,01,16,255,48,08,74,298,56,10,55,075,56,16,26,182,48,1*67
$GPGSV,2,2,07,21,45,263,52,23,27,047,52,27,69,121,56,,,,,1*5A
$GPRMC,000226.00,A,4851.9390270,N,00218.0477691,E,32.80,194.77,180502,0.0,E,A*07
$GPGGA,000226.00,4851.9390270,N,00218.0477691,E,1,07,1.0,-9.830,M,0.000,M,0.0,*52
$GPGSA,A,3,01,08,10,16,21,23,27,,,,,,2.0,1.2,1.6,1*21
$GPGSV,2,1,07,01,16,255,49,08,74,298,56,10,55,075,55,16,26,182,50,1*6C
$GPGSV,2,2,07,21,45,263,52,23,27,047,50,27,69,121,56,,,,,1*58
$GPRMC,000227.00,A,4851.9292341,N,00218.0446831,E,31.70,196.09,180502,0.0,E,A*07
$GPGGA,000227.00,4851.9292341,N,00218.0446831,E,1,07,1.0,-6.514,M,0.000,M,0.0,*51
$GPGSA,A,3,01,08,10,16,21,23,27,,,,,,2.0,1.2,1.6,1*21
$GPGSV,2,1,07,01,16,255,48,08,74,298,56,10,55,075,53,16,26,182,49,1*63
$GPGSV,2,2,07,21,45,263,52,23,27,047,51,27,69,121,55,,,,,1*5A
$GPRMC,000228.00,A,4851.9226956,N,00218.0423931,E,22.88,201.36,180502,0.0,E,A*0D
$GPGGA,000228.00,4851.9226956,N,00218.0423931,E,1,07,1.0,-6.883,M,0.000,M,0.0,*5C
$GPGSA,A,3,01,08,10,16,21,23,27,,,,,,2.0,1.2,1.6,1*21
$GPGSV,2,1,07,01,16,255,50,08,74,298,55,10,55,075,51,16,26,182,49,1*6B
$GPGSV,2,2,07,21,45,263,52,23,27,047,48,27,69,121,55,,,,,1*52
$GPRMC,000229.00,A,4851.9176491,N,00218.0389986,E,13.81,210.62,180502,0.0,E,A*0D
$GPGGA,000229.00,4851.9176491,N,00218.0389986,E,1,07,1.0,-10.757,M,0.000,M,0.0,*67
$GPGSA,A,3,01,08,10,16,21,23,27,,,,,,2.0,1.2,1.6,1*21
$GPGSV,2,1,07,01,16,255,48,08,74,298,54,10,55,075,54,16,26,182,50,1*6E
$GPGSV,2,2,07,21,45,263,52,23,27,047,50,27,69,121,56,,,,,1*58
$GPRMC,000230.00,A,4851.9147370,N,00218.0339980,E,15.78,229.31,180502,0.0,E,A*0E
$GPGGA,000230.00,4851.9147370,N,00218.0339980,E,1,07,1.0,-12.021,M,0.000,M,0.0,*6C
$GPGSA,A,3,01,08,10,16,21,23,27,,,,,,2.0,1.2,1.6,1*21
$GPGSV,2,1,07,01,16,255,47,08,74,298,55,10,55,075,54,16,26,182,50,1*60
$GPGSV,2,2,07,21,45,263,52,23,27,047,51,27,69,121,58,,,,,1*57
$GPRMC,000231.00,A,4851.9122345,N,00218.0256351,E,25.45,237.98,180502,0.0,E,A*05
$GPGGA,000231.00,4851.9122345,N,00218.0256351,E,1,07,1.0,-12.467,M,0.000,M,0.0,*60
$GPGSA,A,3,01,08,10,16,21,23,27,,,,,,2.0,1.2,1.6,1*21
$GPGSV,2,1,07,01,16,255,46,08,74,298,56,10,55,075,53,16,26,182,49,1*6D
$GPGSV,2,2,07,21,45,263,52,23,27,047,52,27,69,121,57,,,,,1*5B
$GPRMC,000232.00,A,4851.9067871,N,00218.0174047,E,32.48,241.56,180502,0.0,E,A*05
$GPGGA,000232.00,4851.9067871,N,00218.0174047,E,1,07,1.0,-13.211,M,0.000,M,0.0,*6E
$GPGSA,A,3,01,08,10,16,21,23,27,,,,,,2.0,1.2,1.6,1*21
$GPGSV,2,1,07,01,16,255,48,08,74,298,56,10,55,075,52,16,26,182,50,1*6A
$GPGSV,2,2,07,21,45,263,51,23,27,047,52,27,69,121,56,,,,,1*59
$GPRMC,000233.00,A,4851.9024372,N,00218.0074107,E,31.92,241.31,180502,0.0,E,A*0A
$GPGGA,000233.00,4851.9024372,N,00218.0074107,E,1,07,1.0,-10.782,M,0.000,M,0.0,*68
$GPGSA,A,3,01,08,10,16,21,23,27,,,,,,2.0,1.2,1.6,1*21
$GPGSV,2,1,07,01,16,255,49,08,74,298,56,10,55,075,54,16,26,182,50,1*6D
$GPGSV,2,2,07,21,45,263,52,23,27,047,49,27,69,121,56,,,,,1*50
$GPRMC,000234.00,A,4851.8981832,N,00217.9932448,E,32.42,239.98,180502,0.0,E,A*04
$GPGGA,000234.00,4851.8981832,N,00217.9932448,E,1,07,1.0,-8.455,M,0.000,M,0.0,*54
$GPGSA,A,3,01,08,10,16,21,23,27,,,,,,2.0,1.2,1.6,1*21
$GPGSV,2,1,07,01,16,255,49,08,74,298,56,10,55,075,53,16,26,182,49,1*62
$GPGSV,2,2,07,21,45,263,53,23,27,047,49,27,69,121,56,,,,,1*51
$GPRMC,000235.00,A,4851.8944635,N,00217.9807343,E,32.50,241.84,180502,0.0,E,A*0F
$GPGGA,000235.00,4851.8944635,N,00217.9807343,E,1,07,1.0,-11.785,M,0.000,M,0.0,*68
$GPGSA,A,3,01,08,10,16,21,23,27,,,,,,2.0,1.2,1.6,1*21
$GPGSV,2,1,07,01,16,255,48,08,74,298,56,10,55,075,54,16,26,182,50,1*6C
$GPGSV,2,2,07,21,45,263,54,23,27,047,51,27,69,121,56,,,,,1*5F
$GPRMC,000236.00,A,4851.8907953,N,00217.9689225,E,32.10,241.01,180502,0.0,E,A*04
$GPGGA,000236.00,4851.8907953,N,00217.9689225,E,1,07,1.0,-12.936,M,0.000,M,0.0,*6F
$GPGSA,A,3,01,08,10,16,21,23,27,,,,,,2.0,1.2,1.6,1*21
$GPGSV,2,1,07,01,16,255,48,08,74,298,56,10,55,075,56,16,26,182,49,1*66
$GPGSV,2,2,07,21,45,263,55,23,27,047,51,27,69,121,54,,,,,1*5C
$GPRMC,000237.00,A,4851.8865499,N,00217.9553470,E,32.47,240.42,180502,0.0,E,A*0D
$GPGGA,000237.00,4851.8865499,N,00217.9553470,E,1,07,1.0,-12.203,M,0.000,M,0.0,*6F
$GPGSA,A,3,01,08,10,16,21,23,27,,,,,,2.0,1.2,1.6,1*21
$GPGSV,2,1,07,01,16,255,48,08,74,298,56,10,55,075,55,16,26,182,49,1*65
$GPGSV,2,2,07,21,45,263,54,23,27,047,49,27,69,121,55,,,,,1*55
$GPRMC,000238.00,A,4851.8818752,N,00217.9430978,E,32.88,240.31,180502,0.0,E,A*0A
$GPGGA,000238.00,4851.8818752,N,00217.9430978,E,1,07,1.0,-6.833,M,0.000,M,0.0,*53
$GPGSA,A,3,01,08,10,16,21,23,27,,,,,,2.0,1.2,1.6,1*21
$GPGSV,2,1,07,01,16,255,48,08,74,298,56,10,55,075,56,16,26,182,50,1*6E
$GPGSV,2,2,07,21,45,263,54,23,27,047,50,27,69,121,56,,,,,1*5E
$GPRMC,000239.00,A,4851.8781457,N,00217.9330484,E,32.74,241.09,180502,0.0,E,A*02
$GPGGA,000239.00,4851.8781457,N,00217.9330484,E,1,07,1.0,-5.932,M,0.000,M,0.0,*51
$GPGSA,A,3,01,08,10,16,21,23,27,,,,,,2.0,1.2,1.6,1*21
$GPGSV,2,1,07,01,16,255,49,08,74,298,56,10,55,075,54,16,26,182,50,1*6D
$GPGSV,2,2,07,21,45,263,52,23,27,047,49,27,69,121,56,,,,,1*50
$GPRMC,000240.00,A,4851.8727381,N,00217.9213538,E,31.88,241.55,180502,0.0,E,A*03
$GPGGA,000240.00,4851.8727381,N,00217.9213538,E,1,07,1.0,-5.135,M,0.000,M,0.0,*56
$GPGSA,A,3,01,08,10,16,21,23,27,,,,,,2.0,1.2,1.6,1*21
$GPGSV,2,1,07,01,16,255,50,08,74,298,56,10,55,075,52,16,26,182,49,1*6B
$GPGSV,2,2,07,21,45,263,52,23,27,047,51,27,69,121,53,,,,,1*5C
$GPRMC,000241.00,A,4851.8697011,N,00217.9066726,E,32.53,240.82,180502,0.0,E,A*01
$GPGGA,000241.00,4851.8697011,N,00217.9066726,E,1,07,1.0,-2.919,M,0.000,M,0.0,*5B
$GPGSA,A,3,01,08,10,16,21,23,27,,,,,,2.0,1.2,1.6,1*21
$GPGSV,2,1,07,01,16,255,49,08,74,298,56,10,55,075,52,16,26,182,50,1*6B
$GPGSV,2,2,07,21,45,263,56,23,27,047,51,27,69,122,55,,,,,1*5D
$GPRMC,000242.00,A,4851.8665245,N,00217.8934046,E,32.35,242.39,180502,0.0,E,A*00
$GPGGA,000242.00,4851.8665245,N,00217.8934046,E,1,07,1.0,-4.968,M,0.000,M,0.0,*58
$GPGSA,A,3,01,08,10,16,21,23,27,,,,,,2.0,1.2,1.6,1*21
$GPGSV,2,1,07,01,16,255,48,08,74,298,56,10,55,075,53,16,26,182,51,1*6A
$GPGSV,2,2,07,21,45,263,56,23,27,047,49,27,69,122,54,,,,,1*55
$GPRMC,000243.00,A,4851.8617401,N,00217.8829442,E,32.17,241.48,180502,0.0,E,A*0A
$GPGGA,000243.00,4851.8617401,N,00217.8829442,E,1,07,1.0,-7.436,M,0.000,M,0.0,*52
$GPGSA,A,3,01,08,10,16,21,23,27,,,,,,2.0,1.2,1.6,1*21
$GPGSV,2,1,07,01,16,255,49,08,74,298,57,10,55,075,54,16,26,182,52,1*6E
$GPGSV,2,2,07,21,45,263,56,23,27,047,51,27,69,122,57,,,,,1*5F
$GPRMC,000244.00,A,4851.8577978,N,00217.8704316,E,31.84,241.75,180502,0.0,E,A*0A
$GPGGA,000244.00,4851.8577978,N,00217.8704316,E,1,07,1.0,-3.285,M,0.000,M,0.0,*5F
$GPGSA,A,3,01,08,10,16,21,23,27,,,,,,2.0,1.2,1.6,1*21
$GPGSV,2,1,07,01,16,255,50,08,74,298,58,10,55,075,56,16,26,182,52,1*6B
$GPGSV,2,2,07,21,45,263,56,23,27,047,52,27,69,122,58,,,,,1*53
$GPRMC,000245.00,A,4851.8524302,N,00217.8582291,E,31.99,242.85,180502,0.0,E,A*08
$GPGGA,000245.00,4851.8524302,N,00217.8582291,E,1,07,1.0,0.069,M,0.000,M,0.0,*73
$GPGSA,A,3,01,08,10,16,21,23,27,,,,,,2.0,1.2,1.6,1*21
$GPGSV,2,1,07,01,16,255,48,08,74,298,57,10,55,075,55,16,26,182,50,1*6C
$GPGSV,2,2,07,21,45,263,54,23,27,047,51,27,69,122,55,,,,,1*5F
$GPRMC,000246.00,A,4851.8475582,N,00217.8493219,E,32.49,241.47,180502,0.0,E,A*02
$GPGGA,000246.00,4851.8475582,N,00217.8493219,E,1,07,1.0,-1.703,M,0.000,M,0.0,*5D
$GPGSA,A,3,01,08,10,16,21,23,27,,,,,,2.0,1.2,1.6,1*21
$GPGSV,2,1,07,01,16,255,50,08,74,298,58,10,55,075,56,16,26,182,51,1*68
$GPGSV,2,2,07,21,45,263,52,23,27,047,51,27,69,122,55,,,,,1*59
$GPRMC,000247.00,A,4851.8443154,N,00217.8359212,E,31.86,242.32,180502,0.0,E,A*02
$GPGGA,000247.00,4851.8443154,N,00217.8359212,E,1,07,1.0,-5.811,M,0.000,M,0.0,*54
$GPGSA,A,3,01,08,10,16,21,23,27,,,,,,2.0,1.2,1.6,1*21
$GPGSV,2,1,07,01,16,255,48,08,74,298,58,10,55,075,55,16,26,182,49,1*6B
$GPGSV,2,2,07,21,45,264,54,23,27,047,50,27,69,122,56,,,,,1*5A
$GPRMC,000248.00,A,4851.8400789,N,00217.8217649,E,32.16,241.80,180502,0.0,E,A*0D
$GPGGA,000248.00,4851.8400789,N,00217.8217649,E,1,07,1.0,-5.923,M,0.000,M,0.0,*5B
$GPGSA,A,3,01,08,10,16,21,23,27,,,,,,2.0,1.2,1.6,1*21
$GPGSV,2,1,07,01,16,255,49,08,74,298,57,10,55,075,52,16,26,182,51,1*6B
$GPGSV,2,2,07,21,45,264,54,23,27,047,51,27,69,122,56,,,,,1*5B
$GPRMC,000249.00,A,4851.8355868,N,00217.8105714,E,32.04,240.95,180502,0.0,E,A*04
$GPGGA,000249.00,4851.8355868,N,00217.8105714,E,1,07,1.0,-8.084,M,0.000,M,0.0,*5D
$GPGSA,A,3,01,08,10,16,21,23,27,,,,,,2.0,1.2,1.6,1*21
$GPGSV,2,1,07,01,16,255,49,08,74,298,57,10,55,075,52,16,26,182,48,1*63
$GPGSV,2,2,07,21,45,264,54,23,27,047,49,27,69,122,56,,,,,1*52
$GPRMC,000250.00,A,4851.8320342,N,00217.8002587,E,32.42,243.23,180502,0.0,E,A*0F
$GPGGA,000250.00,4851.8320342,N,00217.8002587,E,1,07,1.0,-9.903,M,0.000,M,0.0,*5D
$GPGSA,A,3,01,08,10,16,21,23,27,,,,,,2.0,1.2,1.6,1*21
$GPGSV,2,1,07,01,16,255,49,08,74,298,59,10,55,075,54,16,26,182,49,1*6A
$GPGSV,2,2,07,21,46,264,54,23,27,047,50,27,69,122,56,,,,,1*59
$GPRMC,000251.00,A,4851.8273839,N,00217.7896744,E,25.14,246.61,180502,0.0,E,A*0F
$GPGGA,000251.00,4851.8273839,N,00217.7896744,E,1,07,1.0,-7.126,M,0.000,M,0.0,*5A
$GPGSA,A,3,01,08,10,16,21,23,27,,,,,,2.0,1.2,1.6,1*21
$GPGSV,2,1,07,01,16,255,50,08,74,298,58,10,55,075,54,16,26,182,51,1*6A
$GPGSV,2,2,07,21,46,264,54,23,27,047,52,27,69,122,54,,,,,1*59
$GPRMC,000252.00,A,4851.8264281,N,00217.7816145,E,15.34,256.13,180502,0.0,E,A*09
$GPGGA,000252.00,4851.8264281,N,00217.7816145,E,1,07,1.0,-10.295,M,0.000,M,0.0,*64
$GPGSA,A,3,01,08,10,16,21,23,27,,,,,,2.0,1.2,1.6,1*21
$GPGSV,2,1,07,01,16,255,48,08,74,298,58,10,55,075,56,16,26,182,51,1*61
$GPGSV,2,2,07,21,46,264,54,23,27,047,50,27,69,122,53,,,,,1*5C
$GPRMC,000253.00,A,4851.8244984,N,00217.7756379,E,15.26,273.62,180502,0.0,E,A*00
$GPGGA,000253.00,4851.8244984,N,00217.7756379,E,1,07,1.0,-6.207,M,0.000,M,0.0,*53
$GPGSA,A,3,01,08,10,16,21,23,27,,,,,,2.0,1.2,1.6,1*21
$GPGSV,2,1,07,01,16,255,50,08,74,298,57,10,55,075,55,16,26,182,49,1*6D
$GPGSV,2,2,07,21,46,264,53,23,27,047,51,27,69,122,54,,,,,1*5D
$GPRMC,000254.00,A,4851.8260404,N,00217.7684757,E,24.51,284.30,180502,0.0,E,A*0F
$GPGGA,000254.00,4851.8260404,N,00217.7684757,E,1,07,1.0,-11.429,M,0.000,M,0.0,*6D
$GPGSA,A,3,01,08,10,16,21,23,27,,,,,,2.0,1.2,1.6,1*21
$GPGSV,2,1,07,01,16,255,48,08,74,298,57,10,55,075,55,16,26,182,50,1*6C
$GPGSV,2,2,07,21,46,264,53,23,27,047,51,27,69,122,56,,,,,1*5F
$GPRMC,000255.00,A,4851.8282854,N,00217.7549091,E,33.05,287.53,180502,0.0,E,A*05
$GPGGA,000255.00,4851.8282854,N,00217.7549091,E,1,07,1.0,-13.583,M,0.000,M,0.0,*65
$GPGSA,A,3,01,08,10,16,21,23,27,,,,,,2.0,1.2,1.6,1*21
$GPGSV,2,1,07,01,16,255,47,08,74,298,57,10,55,075,56,16,26,182,51,1*61
$GPGSV,2,2,07,21,46,264,54,23,27,047,51,27,69,122,58,,,,,1*56
$GPRMC,000256.00,A,4851.8315133,N,00217.7416729,E,31.79,286.78,180502,0.0,E,A*0F
$GPGGA,000256.00,4851.8315133,N,00217.7416729,E,1,07,1.0,-12.418,M,0.000,M,0.0,*6C
$GPGSA,A,3,01,08,10,16,21,23,27,,,,,,2.0,1.2,1.6,1*21
$GPGSV,2,1,07,01,16,255,48,08,74,298,56,10,55,075,54,16,26,182,50,1*6C
$GPGSV,2,2,07,21,46,264,52,23,27,047,51,27,69,122,57,,,,,1*5F
$GPRMC,000257.00,A,4851.8334692,N,00217.7320236,E,32.59,288.58,180502,0.0,E,A*05
$GPGGA,000257.00,4851.8334692,N,00217.7320236,E,1,07,1.0,-15.093,M,0.000,M,0.0,*6B
$GPGSA,A,3,01,08,10,16,21,23,27,,,,,,2.0,1.2,1.6,1*21
$GPGSV,2,1,07,01,16,255,48,08,74,298,56,10,55,075,56,16,26,182,50,1*6E
$GPGSV,2,2,07,21,46,264,54,23,27,047,48,27,69,122,56,,,,,1*50
$GPRMC,000258.00,A,4851.8349971,N,00217.7187317,E,32.09,287.83,180502,0.0,E,A*03
$GPGGA,000258.00,4851.8349971,N,00217.7187317,E,1,07,1.0,-13.094,M,0.000,M,0.0,*60
$GPGSA,A,3,01,08,10,16,21,23,27,,,,,,2.0,1.2,1.6,1*21
$GPGSV,2,1,07,01,16,255,48,08,74,298,57,10,55,075,56,16,26,182,50,1*6F
$GPGSV,2,2,07,21,46,264,55,23,27,047,48,27,69,122,58,,,,,1*5F
$GPRMC,000259.00,A,4851.8383316,N,00217.7040590,E,32.52,287.41,180502,0.0,E,A*0C
$GPGGA,000259.00,4851.8383316,N,00217.7040590,E,1,07,1.0,-9.486,M,0.000,M,0.0,*53
$GPGSA,A,3,01,08,10,16,21,23,27,,,,,,2.0,1.2,1.6,1*21
$GPGSV,2,1,07,01,16,255,48,08,74,298,56,10,55,075,57,16,26,182,51,1*6E
$GPGSV,2,2,07,21,46,264,54,23,27,047,48,27,69,122,56,,,,,1*50
$GPRMC,000300.00,A,4851.8410245,N,00217.6918305,E,32.83,288.90,180502,0.0,E,A*0B
$GPGGA,000300.00,4851.8410245,N,00217.6918305,E,1,07,1.0,-9.794,M,0.000,M,0.0,*5B
$GPGSA,A,3,01,08,10,16,21,23,27,,,,,,2.0,1.2,1.6,1*21
$GPGSV,2,1,07,01,16,255,49,08,74,298,56,10,55,075,55,16,26,182,49,1*64
$GPGSV,2,2,07,21,46,264,56,23,27,047,50,27,69,122,56,,,,,1*5B
$GPRMC,000301.00,A,4851.8438798,N,00217.6796220,E,32.43,287.82,180502,0.0,E,A*0B
$GPGGA,000301.00,4851.8438798,N,00217.6796220,E,1,07,1.0,-10.998,M,0.000,M,0.0,*61
$GPGSA,A,3,01,08,10,16,21,23,27,,,,,,2.0,1.2,1.6,1*21
$GPGSV,2,1,07,01,16,255,50,08,74,298,58,10,55,075,55,16,26,182,50,1*6A
$GPGSV,2,2,07,21,46,264,55,23,27,047,51,27,69,122,56,,,,,1*59
$GPRMC,000302.00,A,4851.8469782,N,00217.6648739,E,32.05,288.15,180502,0.0,E,A*0B
$GPGGA,000302.00,4851.8469782,N,00217.6648739,E,1,07,1.0,-8.916,M,0.000,M,0.0,*5D
$GPGSA,A,3,01,08,10,16,21,23,27,,,,,,2.0,1.2,1.6,1*21
$GPGSV,2,1,07,01,16,255,47,08,74,298,58,10,55,075,57,16,26,182,50,1*6E
$GPGSV,2,2,07,21,46,264,55,23,27,047,52,27,69,122,56,,,,,1*5A
$GPRMC,000303.00,A,4851.8501246,N,00217.6496988,E,32.18,288.44,180502,0.0,E,A*05
$GPGGA,000303.00,4851.8501246,N,00217.6496988,E,1,07,1.0,-5.486,M,0.000,M,0.0,*52
$GPGSA,A,3,01,08,10,16,21,23,27,,,,,,2.0,1.2,1.6,1*21
$GPGSV,2,1,07,01,16,255,47,08,74,298,58,10,55,075,55,16,26,182,48,1*65
$GPGSV,2,2,07,21,46,264,54,23,27,047,53,27,69,122,55,,,,,1*59
$GPRMC,000304.00,A,4851.8536650,N,00217.6386529,E,31.26,285.90,180502,0.0,E,A*0E
$GPGGA,000304.00,4851.8536650,N,00217.6386529,E,1,07,1.0,-11.316,M,0.000,M,0.0,*68
$GPGSA,A,3,01,08,10,16,21,23,27,,,,,,2.0,1.2,1.6,1*21
$GPGSV,2,1,07,01,16,255,50,08,74,298,58,10,55,075,54,16,26,182,47,1*6D
$GPGSV,2,2,07,21,46,264,52,23,27,047,52,27,69,122,57,,,,,1*5C
$GPRMC,000305.00,A,4851.8556693,N,00217.6247233,E,32.81,287.82,180502,0.0,E,A*09
$GPGGA,000305.00,4851.8556693,N,00217.6247233,E,1,07,1.0,-7.496,M,0.000,M,0.0,*58
$GPGSA,A,3,01,08,10,16,21,23,27,,,,,,2.0,1.2,1.6,1*21
$GPGSV,2,1,07,01,16,255,49,08,74,298,56,10,55,075,55,16,26,182,52,1*6E
$GPGSV,2,2,07,21,46,264,52,23,27,047,50,27,69,122,57,,,,,1*5E
$GPRMC,000306.00,A,4851.8586460,N,00217.6113212,E,32.13,287.75,180502,0.0,E,A*0B
$GPGGA,000306.00,4851.8586460,N,00217.6113212,E,1,07,1.0,-3.757,M,0.000,M,0.0,*53
$GPGSA,A,3,01,08,10,16,21,23,27,,,,,,2.0,1.2,1.6,1*21
$GPGSV,2,1,07,01,16,255,49,08,74,298,58,10,55,075,56,16,26,182,50,1*61
$GPGSV,2,2,07,21,46,264,56,23,27,047,52,27,69,122,55,,,,,1*5A
$GPRMC,000307.00,A,4851.8616807,N,00217.5998781,E,32.01,288.00,180502,0.0,E,A*04
$GPGGA,000307.00,4851.8616807,N,00217.5998781,E,1,07,1.0,-1.994,M,0.000,M,0.0,*51
$GPGSA,A,3,01,08,10,16,21,23,27,,,,,,2.0,1.2,1.6,1*21
$GPGSV,2,1,07,01,16,255,48,08,74,298,57,10,55,075,56,16,26,182,50,1*6F
$GPGSV,2,2,07,21,46,264,56,23,27,047,50,27,69,122,55,,,,,1*58
$GPRMC,000308.00,A,4851.8632033,N,00217.5882807,E,32.86,288.39,180502,0.0,E,A*0C
$GPGGA,000308.00,4851.8632033,N,00217.5882807,E,1,07,1.0,-0.874,M,0.000,M,0.0,*52
$GPGSA,A,3,01,08,10,16,21,23,27,,,,,,2.0,1.2,1.6,1*21
$GPGSV,2,1,07,01,16,255,50,08,74,298,56,10,55,075,56,16,26,182,50,1*67
$GPGSV,2,2,07,21,46,264,54,23,27,047,50,27,69,122,56,,,,,1*59
$GPRMC,000309.00,A,4851.8668074,N,00217.5720043,E,32.55,287.13,180502,0.0,E,A*07
$GPGGA,000309.00,4851.8668074,N,00217.5720043,E,1,07,1.0,-1.737,M,0.000,M,0.0,*59
$GPGSA,A,3,01,08,10,16,21,23,27,,,,,,2.0,1.2,1.6,1*21
$GPGSV,2,1,07,01,16,255,47,08,74,298,56,10,55,075,56,16,26,182,51,1*60
$GPGSV,2,2,07,21,46,264,53,23,27,047,50,27,69,122,57,,,,,1*5F
$GPRMC,000310.00,A,4851.8707777,N,00217.5580769,E,31.78,287.66,180502,0.0,E,A*0A
$GPGGA,000310.00,4851.8707777,N,00217.5580769,E,1,07,1.0,-1.486,M,0.000,M,0.0,*53
$GPGSA,A,3,01,08,10,16,21,23,27,,,,,,2.0,1.2,1.6,1*21
$GPGSV,2,1,07,01,16,255,47,08,74,298,56,10,55,075,54,16,26,182,51,1*62
$GPGSV,2,2,07,21,46,264,54,23,27,047,50,27,69,122,57,,,,,1*58
$GPRMC,000311.00,A,4851.8733567,N,00217.5463500,E,31.64,287.08,180502,0.0,E,A*0B
$GPGGA,000311.00,4851.8733567,N,00217.5463500,E,1,07,1.0,-5.859,M,0.000,M,0.0,*5D
$GPGSA,A,3,01,08,10,16,21,23,27,,,,,,2.0,1.2,1.6,1*21
$GPGSV,2,1,07,01,16,255,49,08,74,298,56,10,55,075,54,16,26,182,50,1*6D
$GPGSV,2,2,07,21,46,264,52,23,27,047,51,27,69,122,57,,,,,1*5F
$GPRMC,000312.00,A,4851.8753782,N,00217.5340427,E,32.26,288.05,180502,0.0,E,A*02
$GPGGA,000312.00,4851.8753782,N,00217.5340427,E,1,07,1.0,-6.968,M,0.000,M,0.0,*53
$GPGSA,A,3,01,08,10,16,21,23,27,,,,,,2.0,1.2,1.6,1*21
$GPGSV,2,1,07,01,16,255,50,08,74,298,56,10,55,075,56,16,26,182,50,1*67
$GPGSV,2,2,07,21,46,264,52,23,27,047,51,27,69,122,57,,,,,1*5F
$GPRMC,000313.00,A,4851.8786200,N,00217.5206084,E,32.33,288.03,180502,0.0,E,A*08
$GPGGA,000313.00,4851.8786200,N,00217.5206084,E,1,07,1.0,-3.714,M,0.000,M,0.0,*5B
$GPGSA,A,3,01,08,10,16,21,23,27,,,,,,2.0,1.2,1.6,1*21
$GPGSV,2,1,07,01,16,255,49,08,74,298,57,10,55,075,56,16,25,182,50,1*6D
$GPGSV,2,2,07,21,46,264,53,23,27,047,52,27,69,122,58,,,,,1*52
$GPRMC,000314.00,A,4851.8813282,N,00217.5082212,E,32.87,288.06,180502,0.0,E,A*0F
$GPGGA,000314.00,4851.8813282,N,00217.5082212,E,1,07,1.0,-4.866,M,0.000,M,0.0,*5B
$GPGSA,A,3,01,08,10,16,21,23,27,,,,,,2.0,1.2,1.6,1*21
$GPGSV,2,1,07,01,16,255,48,08,74,298,57,10,55,074,55,16,25,182,50,1*6E
$GPGSV,2,2,07,21,46,264,54,23,26,047,52,27,69,122,57,,,,,1*5B
$GPRMC,000315.00,A,4851.8824406,N,00217.4966575,E,32.34,287.18,180502,0.0,E,A*0C
$GPGGA,000315.00,4851.8824406,N,00217.4966575,E,1,07,1.0,-4.329,M,0.000,M,0.0,*50
$GPGSA,A,3,01,08,10,16,21,23,27,,,,,,2.0,1.2,1.6,1*21
$GPGSV,2,1,07,01,16,255,48,08,74,298,56,10,55,074,54,16,25,182,50,1*6E
$GPGSV,2,2,07,21,46,264,56,23,26,047,50,27,69,122,56,,,,,1*5A
$GPRMC,000316.00,A,4851.8849619,N,00217.4833201,E,32.53,287.73,180502,0.0,E,A*01
$GPGGA,000316.00,4851.8849619,N,00217.4833201,E,1,07,1.0,-3.832,M,0.000,M,0.0,*57
$GPGSA,A,3,01,08,10,16,21,23,27,,,,,,2.0,1.2,1.6,1*21
$GPGSV,2,1,07,01,16,255,48,08,74,298,58,10,55,074,55,16,25,182,50,1*61
$GPGSV,2,2,07,21,46,264,54,23,26,047,49,27,69,122,56,,,,,1*50
$GPRMC,000317.00,A,4851.8893596,N,00217.4689530,E,31.95,288.77,180502,0.0,E,A*0B
$GPGGA,000317.00,4851.8893596,N,00217.4689530,E,1,07,1.0,-5.437,M,0.000,M,0.0,*50
$GPGSA,A,3,01,08,10,16,21,23,27,,,,,,2.0,1.2,1.6,1*21
$GPGSV,2,1,07,01,16,255,48,08,74,298,57,10,55,074,56,16,25,182,50,1*6D
$GPGSV,2,2,07,21,46,264,53,23,26,047,49,27,69,122,58,,,,,1*59
$GPRMC,000318.00,A,4851.8920539,N,00217.4577146,E,32.68,288.54,180502,0.0,E,A*0F
$GPGGA,000318.00,4851.8920539,N,00217.4577146,E,1,07,1.0,-9.057,M,0.000,M,0.0,*5A
$GPGSA,A,3,01,08,10,16,21,23,27,,,,,,2.0,1.2,1.6,1*21
$GPGSV,2,1,07,01,16,255,48,08,74,298,58,10,55,074,56,16,25,182,50,1*62
$GPGSV,2,2,07,21,46,264,54,23,26,047,50,27,69,122,57,,,,,1*59
