$GPRMC,000030.00,A,4852.4670254,N,00217.5810579,E,1.80,0.00,180502,0.0,E,A*3F
$GPGGA,000030.00,4852.4670254,N,00217.5810579,E,1,05,1.0,-10.957,M,0.000,M,0.0,*6C
$GPGSA,A,3,01,08,10,16,21,,,,,,,,3.7,2.1,3.1,1*26
$GPGSV,2,1,05,01,15,255,47,08,73,299,56,10,56,076,54,16,27,182,50,1*65
$GPGSV,2,2,05,21,45,263,53,,,,,,,,,,,,,1*52
$GPRMC,000031.00,A,4852.4678033,N,00217.5829811,E,2.42,184.76,180502,0.0,E,A*3D
$GPGGA,000031.00,4852.4678033,N,00217.5829811,E,1,05,1.0,-15.382,M,0.000,M,0.0,*68
$GPGSA,A,3,01,08,10,16,21,,,,,,,,3.7,2.1,3.1,1*26
$GPGSV,2,1,05,01,15,255,47,08,73,299,57,10,56,076,54,16,27,182,50,1*64
$GPGSV,2,2,05,21,45,263,54,,,,,,,,,,,,,1*55
$GPRMC,000032.00,A,4852.4680279,N,00217.5830463,E,2.54,160.50,180502,0.0,E,A*3D
$GPGGA,000032.00,4852.4680279,N,00217.5830463,E,1,05,1.0,-19.768,M,0.000,M,0.0,*6D
$GPGSA,A,3,01,08,10,16,21,,,,,,,,3.7,2.1,3.1,1*26
$GPGSV,2,1,05,01,15,255,48,08,73,299,57,10,56,076,54,16,27,182,50,1*6B
$GPGSV,2,2,05,21,45,263,53,,,,,,,,,,,,,1*52
$GPRMC,000033.00,A,4852.4681394,N,00217.5816889,E,0.68,160.50,180502,0.0,E,A*3E
$GPGGA,000033.00,4852.4681394,N,00217.5816889,E,1,05,1.0,-20.389,M,0.000,M,0.0,*62
$GPGSA,A,3,01,08,10,16,21,,,,,,,,3.7,2.1,3.1,1*26
$GPGSV,2,1,05,01,15,255,48,08,73,299,56,10,56,076,54,16,27,182,49,1*62
$GPGSV,2,2,05,21,45,263,54,,,,,,,,,,,,,1*55
$GPRMC,000034.00,A,4852.4677222,N,00217.5818973,E,2.55,181.38,180502,0.0,E,A*3B
$GPGGA,000034.00,4852.4677222,N,00217.5818973,E,1,05,1.0,-16.534,M,0.000,M,0.0,*6F
$GPGSA,A,3,01,08,10,16,21,,,,,,,,3.7,2.1,3.1,1*26
$GPGSV,2,1,05,01,15,255,48,08,73,299,56,10,56,076,54,16,27,182,50,1*6A
$GPGSV,2,2,05,21,45,263,52,,,,,,,,,,,,,1*53
$GPRMC,000035.00,A,4852.4661320,N,00217.5808781,E,0.37,181.38,180502,0.0,E,A*3A
$GPGGA,000035.00,4852.4661320,N,00217.5808781,E,1,06,1.0,-7.684,M,0.000,M,0.0,*53
$GPGSA,A,3,01,08,10,16,21,23,,,,,,,2.2,1.3,1.8,1*29
$GPGSV,2,1,06,01,15,255,47,08,73,299,58,10,56,076,57,16,27,182,50,1*6B
$GPGSV,2,2,06,21,45,263,52,23,27,048,51,,,,,,,,,1*6C
$GPRMC,000036.00,A,4852.4672768,N,00217.5796304,E,0.93,181.38,180502,0.0,E,A*3C
$GPGGA,000036.00,4852.4672768,N,00217.5796304,E,1,06,1.0,-8.329,M,0.000,M,0.0,*56
$GPGSA,A,3,01,08,10,16,21,23,,,,,,,2.2,1.3,1.8,1*29
$GPGSV,2,1,06,01,15,255,49,08,73,299,57,10,56,076,57,16,27,182,51,1*6B
$GPGSV,2,2,06,21,45,263,54,23,27,048,50,,,,,,,,,1*6B
$GPRMC,000037.00,A,4852.4677480,N,00217.5783542,E,0.60,181.38,180502,0.0,E,A*31
$GPGGA,000037.00,4852.4677480,N,00217.5783542,E,1,06,1.0,-2.632,M,0.000,M,0.0,*52
$GPGSA,A,3,01,08,10,16,21,23,,,,,,,2.2,1.3,1.8,1*29
$GPGSV,2,1,06,01,15,255,47,08,73,299,59,10,56,076,56,16,27,182,49,1*63
$GPGSV,2,2,06,21,45,263,53,23,27,048,50,,,,,,,,,1*6C
$GPRMC,000038.00,A,4852.4664009,N,00217.5801735,E,0.54,181.38,180502,0.0,E,A*39
$GPGGA,000038.00,4852.4664009,N,00217.5801735,E,1,06,1.0,-2.124,M,0.000,M,0.0,*5D
$GPGSA,A,3,01,08,10,16,21,23,,,,,,,2.2,1.3,1.8,1*29
$GPGSV,2,1,06,01,15,255,48,08,73,299,55,10,56,076,55,16,27,182,50,1*6B
$GPGSV,2,2,06,21,45,263,53,23,27,048,50,,,,,,,,,1*6C
$GPRMC,000039.00,A,4852.4669189,N,00217.5808800,E,0.80,181.38,180502,0.0,E,A*35
$GPGGA,000039.00,4852.4669189,N,00217.5808800,E,1,06,1.0,-7.811,M,0.000,M,0.0,*52
$GPGSA,A,3,01,08,10,16,21,23,,,,,,,2.2,1.3,1.8,1*29
$GPGSV,2,1,06,01,15,255,48,08,73,299,56,10,56,076,54,16,27,182,50,1*69
$GPGSV,2,2,06,21,45,263,52,23,27,048,52,,,,,,,,,1*6F
$GPRMC,000040.00,A,4852.4669684,N,00217.5786996,E,1.62,181.38,180502,0.0,E,A*3B
$GPGGA,000040.00,4852.4669684,N,00217.5786996,E,1,06,1.0,-7.032,M,0.000,M,0.0,*58
$GPGSA,A,3,01,08,10,16,21,23,,,,,,,2.2,1.3,1.8,1*29
$GPGSV,2,1,06,01,15,255,48,08,73,299,57,10,56,076,55,16,27,182,50,1*69
$GPGSV,2,2,06,21,45,263,52,23,27,048,50,,,,,,,,,1*6D
$GPRMC,000041.00,A,4852.4665667,N,00217.5803707,E,0.52,181.38,180502,0.0,E,A*3D
$GPGGA,000041.00,4852.4665667,N,00217.5803707,E,1,06,1.0,-10.929,M,0.000,M,0.0,*69
$GPGSA,A,3,01,08,10,16,21,23,,,,,,,2.2,1.3,1.8,1*29
$GPGSV,2,1,06,01,15,255,47,08,73,299,55,10,56,076,54,16,27,182,50,1*65
$GPGSV,2,2,06,21,45,263,54,23,27,048,50,,,,,,,,,1*6B
$GPRMC,000042.00,A,4852.4658059,N,00217.5820770,E,0.85,181.38,180502,0.0,E,A*30
$GPGGA,000042.00,4852.4658059,N,00217.5820770,E,1,06,1.0,-14.052,M,0.000,M,0.0,*6F
$GPGSA,A,3,01,08,10,16,21,23,,,,,,,2.2,1.3,1.8,1*29
$GPGSV,2,1,06,01,15,255,49,08,73,299,57,10,56,076,54,16,27,182,50,1*69
$GPGSV,2,2,06,21,45,263,53,23,27,048,50,,,,,,,,,1*6C
$GPRMC,000043.00,A,4852.4667886,N,00217.5812419,E,0.97,181.38,180502,0.0,E,A*39
$GPGGA,000043.00,4852.4667886,N,00217.5812419,E,1,06,1.0,-16.884,M,0.000,M,0.0,*64
$GPGSA,A,3,01,08,10,16,21,23,,,,,,,2.2,1.3,1.8,1*29
$GPGSV,2,1,06,01,15,255,47,08,73,299,56,10,56,076,54,16,27,182,48,1*6F
$GPGSV,2,2,06,21,45,263,54,23,27,048,52,,,,,,,,,1*69
$GPRMC,000044.00,A,4852.4663438,N,00217.5806384,E,0.68,181.38,180502,0.0,E,A*35
$GPGGA,000044.00,4852.4663438,N,00217.5806384,E,1,06,1.0,-13.110,M,0.000,M,0.0,*69
$GPGSA,A,3,01,08,10,16,21,23,,,,,,,2.2,1.3,1.8,1*29
$GPGSV,2,1,06,01,15,255,49,08,73,299,58,10,56,076,56,16,27,182,48,1*6D
$GPGSV,2,2,06,21,45,263,52,23,27,048,51,,,,,,,,,1*6C
$GPRMC,000045.00,A,4852.4663885,N,00217.5802185,E,0.41,181.38,180502,0.0,E,A*32
$GPGGA,000045.00,4852.4663885,N,00217.5802185,E,1,06,1.0,-10.363,M,0.000,M,0.0,*60
$GPGSA,A,3,01,08,10,16,21,23,,,,,,,2.2,1.3,1.8,1*29
$GPGSV,2,1,06,01,15,255,48,08,73,299,57,10,56,076,56,16,27,182,48,1*63
$GPGSV,2,2,06,21,45,263,52,23,27,048,50,,,,,,,,,1*6D
$GPRMC,000046.00,A,4852.4672188,N,00217.5808335,E,0.46,181.38,180502,0.0,E,A*31
$GPGGA,000046.00,4852.4672188,N,00217.5808335,E,1,06,1.0,-11.115,M,0.000,M,0.0,*66
$GPGSA,A,3,01,08,10,16,21,23,,,,,,,2.2,1.3,1.8,1*29
$GPGSV,2,1,06,01,15,255,49,08,73,299,55,10,56,076,56,16,27,182,48,1*60
$GPGSV,2,2,06,21,45,263,51,23,27,048,50,,,,,,,,,1*6E
$GPRMC,000047.00,A,4852.4662321,N,00217.5796647,E,1.54,181.38,180502,0.0,E,A*3A
$GPGGA,000047.00,4852.4662321,N,00217.5796647,E,1,06,1.0,-4.178,M,0.000,M,0.0,*50
$GPGSA,A,3,01,08,10,16,21,23,,,,,,,2.2,1.3,1.8,1*29
$GPGSV,2,1,06,01,15,255,50,08,73,299,57,10,56,076,58,16,27,182,49,1*65
$GPGSV,2,2,06,21,45,263,52,23,27,048,52,,,,,,,,,1*6F
$GPRMC,000048.00,A,4852.4673173,N,00217.5779594,E,1.33,181.38,180502,0.0,E,A*3D
$GPGGA,000048.00,4852.4673173,N,00217.5779594,E,1,06,1.0,-2.666,M,0.000,M,0.0,*58
$GPGSA,A,3,01,08,10,16,21,23,,,,,,,2.2,1.3,1.8,1*29
$GPGSV,2,1,06,01,15,255,50,08,73,299,57,10,56,076,55,16,27,182,50,1*60
$GPGSV,2,2,06,21,45,263,54,23,27,048,49,,,,,,,,,1*63
$GPRMC,000049.00,A,4852.4672517,N,00217.5791449,E,1.43,181.38,180502,0.0,E,A*3B
$GPGGA,000049.00,4852.4672517,N,00217.5791449,E,1,06,1.0,-5.468,M,0.000,M,0.0,*52
$GPGSA,A,3,01,08,10,16,21,23,,,,,,,2.2,1.3,1.8,1*29
$GPGSV,2,1,06,01,15,255,49,08,73,299,57,10,56,076,54,16,27,182,49,1*61
$GPGSV,2,2,06,21,45,263,51,23,27,048,50,,,,,,,,,1*6E
$GPRMC,000050.00,A,4852.4658329,N,00217.5809870,E,1.13,181.38,180502,0.0,E,A*3D
$GPGGA,000050.00,4852.4658329,N,00217.5809870,E,1,06,1.0,-6.824,M,0.000,M,0.0,*56
$GPGSA,A,3,01,08,10,16,21,23,,,,,,,2.2,1.3,1.8,1*29
$GPGSV,2,1,06,01,15,255,49,08,73,299,56,10,56,076,55,16,27,182,51,1*68
$GPGSV,2,2,06,21,45,263,52,23,27,048,51,,,,,,,,,1*6C
$GPRMC,000051.00,A,4852.4671726,N,00217.5807607,E,1.18,181.38,180502,0.0,E,A*37
$GPGGA,000051.00,4852.4671726,N,00217.5807607,E,1,06,1.0,-9.595,M,0.000,M,0.0,*5F
$GPGSA,A,3,01,08,10,16,21,23,,,,,,,2.2,1.3,1.8,1*29
$GPGSV,2,1,06,01,15,255,49,08,73,299,57,10,56,076,55,16,27,182,52,1*6A
$GPGSV,2,2,06,21,45,263,54,23,27,048,53,,,,,,,,,1*68
$GPRMC,000052.00,A,4852.4667811,N,00217.5797286,E,1.97,136.90,180502,0.0,E,A*3A
$GPGGA,000052.00,4852.4667811,N,00217.5797286,E,1,06,1.0,-10.239,M,0.000,M,0.0,*62
$GPGSA,A,3,01,08,10,16,21,23,,,,,,,2.2,1.3,1.8,1*29
$GPGSV,2,1,06,01,15,255,48,08,73,299,56,10,56,076,56,16,27,182,49,1*63
$GPGSV,2,2,06,21,45,263,54,23,27,048,51,,,,,,,,,1*6A
$GPRMC,000053.00,A,4852.4661884,N,00217.5818704,E,1.41,136.90,180502,0.0,E,A*3D
$GPGGA,000053.00,4852.4661884,N,00217.5818704,E,1,06,1.0,-15.901,M,0.000,M,0.0,*6B
$GPGSA,A,3,01,08,10,16,21,23,,,,,,,2.2,1.3,1.8,1*29
$GPGSV,2,1,06,01,15,255,48,08,73,299,57,10,56,076,56,16,27,182,49,1*62
$GPGSV,2,2,06,21,45,263,52,23,27,048,49,,,,,,,,,1*65
$GPRMC,000054.00,A,4852.4662717,N,00217.5830211,E,0.43,136.90,180502,0.0,E,A*34
$GPGGA,000054.00,4852.4662717,N,00217.5830211,E,1,06,1.0,-15.768,M,0.000,M,0.0,*60
$GPGSA,A,3,01,08,10,16,21,23,,,,,,,2.2,1.3,1.8,1*29
$GPGSV,2,1,06,01,15,255,49,08,73,299,57,10,56,076,55,16,27,182,50,1*68
$GPGSV,2,2,06,21,45,263,53,23,27,048,49,,,,,,,,,1*64
$GPRMC,000055.00,A,4852.4663822,N,00217.5810495,E,0.52,136.90,180502,0.0,E,A*35
$GPGGA,000055.00,4852.4663822,N,00217.5810495,E,1,06,1.0,-12.194,M,0.000,M,0.0,*63
$GPGSA,A,3,01,08,10,16,21,23,,,,,,,2.2,1.3,1.8,1*29
$GPGSV,2,1,06,01,15,255,49,08,73,299,59,10,56,076,58,16,27,182,51,1*6A
$GPGSV,2,2,06,21,45,263,52,23,27,048,50,,,,,,,,,1*6D
$GPRMC,000056.00,A,4852.4664992,N,00217.5808916,E,1.23,136.90,180502,0.0,E,A*33
$GPGGA,000056.00,4852.4664992,N,00217.5808916,E,1,06,1.0,-11.058,M,0.000,M,0.0,*60
$GPGSA,A,3,01,08,10,16,21,23,,,,,,,2.2,1.3,1.8,1*29
$GPGSV,2,1,06,01,15,255,48,08,73,299,58,10,56,076,56,16,27,182,48,1*6C
$GPGSV,2,2,06,21,45,263,54,23,27,048,50,,,,,,,,,1*6B
$GPRMC,000057.00,A,4852.4662502,N,00217.5814102,E,1.86,136.90,180502,0.0,E,A*3E
$GPGGA,000057.00,4852.4662502,N,00217.5814102,E,1,06,1.0,-6.066,M,0.000,M,0.0,*59
$GPGSA,A,3,01,08,10,16,21,23,,,,,,,2.2,1.3,1.8,1*29
$GPGSV,2,1,06,01,16,255,50,08,73,299,57,10,56,076,55,16,27,182,50,1*63
$GPGSV,2,2,06,21,45,263,54,23,27,048,50,,,,,,,,,1*6B
$GPRMC,000058.00,A,4852.4667116,N,00217.5816928,E,1.12,136.90,180502,0.0,E,A*3A
$GPGGA,000058.00,4852.4667116,N,00217.5816928,E,1,06,1.0,-5.228,M,0.000,M,0.0,*5B
$GPGSA,A,3,01,08,10,16,21,23,,,,,,,2.2,1.3,1.8,1*29
$GPGSV,2,1,06,01,16,255,48,08,73,299,57,10,56,076,56,16,27,182,51,1*68
$GPGSV,2,2,06,21,45,263,52,23,27,048,50,,,,,,,,,1*6D
$GPRMC,000059.00,A,4852.4667318,N,00217.5797579,E,0.89,136.90,180502,0.0,E,A*3A
$GPGGA,000059.00,4852.4667318,N,00217.5797579,E,1,06,1.0,-0.638,M,0.000,M,0.0,*58
$GPGSA,A,3,01,08,10,16,21,23,,,,,,,2.2,1.3,1.8,1*29
$GPGSV,2,1,06,01,16,255,50,08,73,299,57,10,56,076,57,16,26,182,52,1*62
$GPGSV,2,2,06,21,45,263,53,23,27,048,51,,,,,,,,,1*6D
$GPRMC,000100.00,A,4852.4668185,N,00217.5792587,E,0.66,136.90,180502,0.0,E,A*3B
$GPGGA,000100.00,4852.4668185,N,00217.5792587,E,1,06,1.0,0.260,M,0.000,M,0.0,*7C
$GPGSA,A,3,01,08,10,16,21,23,,,,,,,2.2,1.3,1.8,1*29
$GPGSV,2,1,06,01,16,255,49,08,73,299,56,10,56,076,57,16,26,182,50,1*69
$GPGSV,2,2,06,21,45,263,53,23,27,048,50,,,,,,,,,1*6C
$GPRMC,000101.00,A,4852.4665691,N,00217.5817054,E,0.63,136.90,180502,0.0,E,A*39
$GPGGA,000101.00,4852.4665691,N,00217.5817054,E,1,06,1.0,-4.793,M,0.000,M,0.0,*5B
$GPGSA,A,3,01,08,10,16,21,23,,,,,,,2.2,1.3,1.8,1*29
$GPGSV,2,1,06,01,16,255,48,08,73,299,55,10,56,076,55,16,26,182,50,1*69
$GPGSV,2,2,06,21,45,263,52,23,27,048,51,,,,,,,,,1*6C
$GPRMC,000102.00,A,4852.4655894,N,00217.5811204,E,0.55,136.90,180502,0.0,E,A*36
$GPGGA,000102.00,4852.4655894,N,00217.5811204,E,1,06,1.0,-5.554,M,0.000,M,0.0,*59
$GPGSA,A,3,01,08,10,16,21,23,,,,,,,2.2,1.3,1.8,1*29
$GPGSV,2,1,06,01,16,255,49,08,73,299,56,10,56,076,55,16,26,182,49,1*63
$GPGSV,2,2,06,21,45,263,53,23,27,048,50,,,,,,,,,1*6C
$GPRMC,000103.00,A,4852.4671135,N,00217.5809621,E,1.54,136.90,180502,0.0,E,A*39
$GPGGA,000103.00,4852.4671135,N,00217.5809621,E,1,06,1.0,-8.962,M,0.000,M,0.0,*52
$GPGSA,A,3,01,08,10,16,21,23,,,,,,,2.2,1.3,1.8,1*29
$GPGSV,2,1,06,01,16,255,48,08,73,299,56,10,56,076,56,16,26,182,50,1*69
$GPGSV,2,2,06,21,45,263,53,23,27,048,51,,,,,,,,,1*6D
$GPRMC,000104.00,A,4852.4663676,N,00217.5814665,E,1.60,136.90,180502,0.0,E,A*36
$GPGGA,000104.00,4852.4663676,N,00217.5814665,E,1,06,1.0,-9.865,M,0.000,M,0.0,*5D
$GPGSA,A,3,01,08,10,16,21,23,,,,,,,2.2,1.3,1.8,1*29
$GPGSV,2,1,06,01,16,255,47,08,73,299,58,10,56,076,56,16,26,182,50,1*68
$GPGSV,2,2,06,21,45,263,54,23,27,048,50,,,,,,,,,1*6B
$GPRMC,000105.00,A,4852.4656430,N,00217.5829099,E,2.02,353.11,180502,0.0,E,A*35
$GPGGA,000105.00,4852.4656430,N,00217.5829099,E,1,06,1.0,-13.273,M,0.000,M,0.0,*67
$GPGSA,A,3,01,08,10,16,21,23,,,,,,,2.2,1.3,1.8,1*29
$GPGSV,2,1,06,01,16,255,48,08,73,299,58,10,56,076,55,16,26,182,50,1*64
$GPGSV,2,2,06,21,45,263,53,23,27,048,50,,,,,,,,,1*6C
$GPRMC,000106.00,A,4852.4668573,N,00217.5825882,E,1.16,353.11,180502,0.0,E,A*35
$GPGGA,000106.00,4852.4668573,N,00217.5825882,E,1,06,1.0,-18.066,M,0.000,M,0.0,*6C
$GPGSA,A,3,01,08,10,16,21,23,,,,,,,2.2,1.3,1.8,1*29
$GPGSV,2,1,06,01,16,255,48,08,73,299,56,10,56,076,55,16,26,182,51,1*6B
$GPGSV,2,2,06,21,45,263,53,23,27,048,50,,,,,,,,,1*6C
$GPRMC,000107.00,A,4852.4662282,N,00217.5809582,E,0.84,353.11,180502,0.0,E,A*3E
$GPGGA,000107.00,4852.4662282,N,00217.5809582,E,1,06,1.0,-11.599,M,0.000,M,0.0,*61
$GPGSA,A,3,01,08,10,16,21,23,,,,,,,2.2,1.3,1.8,1*29
$GPGSV,2,1,06,01,16,255,47,08,73,299,56,10,56,076,54,16,26,182,50,1*64
$GPGSV,2,2,06,21,45,263,51,23,27,048,51,,,,,,,,,1*6F
$GPRMC,000108.00,A,4852.4658094,N,00217.5827152,E,9.66,111.16,180502,0.0,E,A*3E
$GPGGA,000108.00,4852.4658094,N,00217.5827152,E,1,06,1.0,-11.216,M,0.000,M,0.0,*67
$GPGSA,A,3,01,08,10,16,21,23,,,,,,,2.2,1.3,1.8,1*29
$GPGSV,2,1,06,01,16,255,48,08,73,299,56,10,56,076,55,16,26,182,50,1*6A
$GPGSV,2,2,06,21,45,263,52,23,27,048,51,,,,,,,,,1*6C
$GPRMC,000109.00,A,4852.4646983,N,00217.5884406,E,19.69,116.07,180502,0.0,E,A*0B
$GPGGA,000109.00,4852.4646983,N,00217.5884406,E,1,06,1.0,-10.683,M,0.000,M,0.0,*62
$GPGSA,A,3,01,08,10,16,21,23,,,,,,,2.2,1.3,1.8,1*29
$GPGSV,2,1,06,01,16,255,48,08,73,299,56,10,56,076,54,16,26,182,50,1*6B
$GPGSV,2,2,06,21,45,263,54,23,27,048,52,,,,,,,,,1*69
$GPRMC,000110.00,A,4852.4603917,N,00217.5988087,E,29.66,116.07,180502,0.0,E,A*03
$GPGGA,000110.00,4852.4603917,N,00217.5988087,E,1,06,1.0,-9.809,M,0.000,M,0.0,*52
$GPGSA,A,3,01,08,10,16,21,23,,,,,,,2.2,1.3,1.8,1*29
$GPGSV,2,1,06,01,16,255,48,08,73,299,57,10,56,076,55,16,26,182,49,1*63
$GPGSV,2,2,06,21,45,263,53,23,27,048,50,,,,,,,,,1*6C
$GPRMC,000111.00,A,4852.4574100,N,00217.6099178,E,31.49,115.92,180502,0.0,E,A*0F
$GPGGA,000111.00,4852.4574100,N,00217.6099178,E,1,06,1.0,-7.224,M,0.000,M,0.0,*5E
$GPGSA,A,3,01,08,10,16,21,23,,,,,,,2.2,1.3,1.8,1*29
$GPGSV,2,1,06,01,16,255,49,08,73,299,55,10,56,076,57,16,26,182,50,1*6A
$GPGSV,2,2,06,21,45,263,54,23,27,048,51,,,,,,,,,1*6A
$GPRMC,000112.00,A,4852.4549714,N,00217.6201308,E,32.47,115.59,180502,0.0,E,A*0D
$GPGGA,000112.00,4852.4549714,N,00217.6201308,E,1,06,1.0,-2.990,M,0.000,M,0.0,*57
$GPGSA,A,3,01,08,10,16,21,23,,,,,,,2.2,1.3,1.8,1*29
$GPGSV,2,1,06,01,16,255,48,08,73,299,56,10,56,076,56,16,26,182,50,1*69
$GPGSV,2,2,06,21,45,263,54,23,27,048,50,,,,,,,,,1*6B
$GPRMC,000113.00,A,4852.4495128,N,00217.6335396,E,31.85,113.85,180502,0.0,E,A*0E
$GPGGA,000113.00,4852.4495128,N,00217.6335396,E,1,06,1.0,-4.151,M,0.000,M,0.0,*5D
$GPGSA,A,3,01,08,10,16,21,23,,,,,,,2.2,1.3,1.8,1*29
$GPGSV,2,1,06,01,16,255,49,08,73,299,58,10,56,076,57,16,26,182,49,1*6F
$GPGSV,2,2,06,21,45,263,54,23,27,048,52,,,,,,,,,1*69
$GPRMC,000114.00,A,4852.4466678,N,00217.6447385,E,22.82,109.20,180502,0.0,E,A*06
$GPGGA,000114.00,4852.4466678,N,00217.6447385,E,1,06,1.0,-0.644,M,0.000,M,0.0,*53
$GPGSA,A,3,01,08,10,16,21,23,,,,,,,2.2,1.3,1.8,1*29
$GPGSV,2,1,06,01,16,255,48,08,73,299,57,10,56,076,56,16,26,182,48,1*61
$GPGSV,2,2,06,21,45,263,52,23,27,048,51,,,,,,,,,1*6C
$GPRMC,000115.00,A,4852.4458713,N,00217.6532531,E,14.09,98.88,180502,0.0,E,A*31
$GPGGA,000115.00,4852.4458713,N,00217.6532531,E,1,06,1.0,-4.674,M,0.000,M,0.0,*5E
$GPGSA,A,3,01,08,10,16,21,23,,,,,,,2.2,1.3,1.8,1*29
$GPGSV,2,1,06,01,16,255,46,08,73,299,57,10,56,076,55,16,26,182,49,1*6D
$GPGSV,2,2,06,21,45,263,55,23,27,048,52,,,,,,,,,1*68
$GPRMC,000116.00,A,4852.4459062,N,00217.6565103,E,11.14,71.30,180502,0.0,E,A*38
$GPGGA,000116.00,4852.4459062,N,00217.6565103,E,1,06,1.0,-6.438,M,0.000,M,0.0,*52
$GPGSA,A,3,01,08,10,16,21,23,,,,,,,2.2,1.3,1.8,1*29
$GPGSV,2,1,06,01,16,255,47,08,73,298,57,10,56,076,55,16,26,182,50,1*65
$GPGSV,2,2,06,21,45,263,54,23,27,048,52,,,,,,,,,1*69
$GPRMC,000117.00,A,4852.4481768,N,00217.6612348,E,20.94,57.68,180502,0.0,E,A*3C
$GPGGA,000117.00,4852.4481768,N,00217.6612348,E,1,06,1.0,-6.038,M,0.000,M,0.0,*51
$GPGSA,A,3,01,08,10,16,21,23,,,,,,,2.2,1.3,1.8,1*29
$GPGSV,2,1,06,01,16,255,48,08,73,298,58,10,56,076,56,16,26,182,50,1*66
$GPGSV,2,2,06,21,45,263,52,23,27,048,51,,,,,,,,,1*6C
$GPRMC,000118.00,A,4852.4520531,N,00217.6711436,E,30.05,57.07,180502,0.0,E,A*3B
$GPGGA,000118.00,4852.4520531,N,00217.6711436,E,1,06,1.0,-8.874,M,0.000,M,0.0,*58
$GPGSA,A,3,01,08,10,16,21,23,,,,,,,2.2,1.3,1.8,1*29
$GPGSV,2,1,06,01,16,255,49,08,73,298,56,10,56,076,53,16,26,182,52,1*6E
$GPGSV,2,2,06,21,45,263,52,23,27,048,50,,,,,,,,,1*6D
$GPRMC,000119.00,A,4852.4550014,N,00217.6842050,E,28.84,65.17,180502,0.0,E,A*32
$GPGGA,000119.00,4852.4550014,N,00217.6842050,E,1,06,1.0,-10.854,M,0.000,M,0.0,*6A
$GPGSA,A,3,01,08,10,16,21,23,,,,,,,2.2,1.3,1.8,1*29
$GPGSV,2,1,06,01,16,255,48,08,74,298,55,10,56,076,52,16,26,182,50,1*68
$GPGSV,2,2,06,21,45,263,54,23,27,048,52,,,,,,,,,1*69
$GPRMC,000120.00,A,4852.4578558,N,00217.6939481,E,19.15,74.10,180502,0.0,E,A*37
$GPGGA,000120.00,4852.4578558,N,00217.6939481,E,1,06,1.0,-14.204,M,0.000,M,0.0,*69
$GPGSA,A,3,01,08,10,16,21,23,,,,,,,2.2,1.3,1.8,1*29
$GPGSV,2,1,06,01,16,255,50,08,74,298,56,10,56,076,53,16,26,182,50,1*63
$GPGSV,2,2,06,21,45,263,52,23,27,048,49,,,,,,,,,1*65
$GPRMC,000121.00,A,4852.4578821,N,00217.6987347,E,18.46,87.64,180502,0.0,E,A*35
$GPGGA,000121.00,4852.4578821,N,00217.6987347,E,1,06,1.0,-11.801,M,0.000,M,0.0,*69
$GPGSA,A,3,01,08,10,16,21,23,,,,,,,2.2,1.3,1.8,1*29
$GPGSV,2,1,06,01,16,255,49,08,74,298,56,10,56,076,53,16,26,182,48,1*62
$GPGSV,2,2,06,21,45,263,53,23,27,048,52,,,,,,,,,1*6E
$GPRMC,000122.00,A,4852.4581027,N,00217.7074765,E,19.66,96.39,180502,0.0,E,A*35
$GPGGA,000122.00,4852.4581027,N,00217.7074765,E,1,06,1.0,-14.942,M,0.000,M,0.0,*61
$GPGSA,A,3,01,08,10,16,21,23,,,,,,,2.2,1.3,1.8,1*29
$GPGSV,2,1,06,01,16,255,48,08,74,298,58,10,56,076,53,16,26,182,49,1*6C
$GPGSV,2,2,06,21,45,263,54,23,27,048,52,,,,,,,,,1*69
$GPRMC,000123.00,A,4852.4562997,N,00217.7163872,E,19.63,105.21,180502,0.0,E,A*02
$GPGGA,000123.00,4852.4562997,N,00217.7163872,E,1,06,1.0,-13.349,M,0.000,M,0.0,*67
$GPGSA,A,3,01,08,10,16,21,23,,,,,,,2.2,1.3,1.8,1*29
$GPGSV,2,1,06,01,16,255,48,08,74,298,54,10,56,076,55,16,26,182,50,1*6E
$GPGSV,2,2,06,21,45,263,51,23,27,048,52,,,,,,,,,1*6C
$GPRMC,000124.00,A,4852.4575991,N,00217.7233786,E,19.87,113.77,180502,0.0,E,A*09
$GPGGA,000124.00,4852.4575991,N,00217.7233786,E,1,06,1.0,-18.312,M,0.000,M,0.0,*67
$GPGSA,A,3,01,08,10,16,21,23,,,,,,,2.2,1.3,1.8,1*29
$GPGSV,2,1,06,01,16,255,48,08,74,298,55,10,56,076,56,16,26,182,50,1*6C
$GPGSV,2,2,06,21,45,263,52,23,27,048,51,,,,,,,,,1*6C
$GPRMC,000125.00,A,4852.4515808,N,00217.7317911,E,21.05,125.32,180502,0.0,E,A*0D
$GPGGA,000125.00,4852.4515808,N,00217.7317911,E,1,06,1.0,-12.657,M,0.000,M,0.0,*68
$GPGSA,A,3,01,08,10,16,21,23,,,,,,,2.2,1.3,1.8,1*29
$GPGSV,2,1,06,01,16,255,48,08,74,298,56,10,56,076,56,16,26,182,50,1*6F
$GPGSV,2,2,06,21,45,263,53,23,27,048,50,,,,,,,,,1*6C
$GPRMC,000126.00,A,4852.4491537,N,00217.7364024,E,15.93,136.96,180502,0.0,E,A*0D
$GPGGA,000126.00,4852.4491537,N,00217.7364024,E,1,06,1.0,-11.262,M,0.000,M,0.0,*6D
$GPGSA,A,3,01,08,10,16,21,23,,,,,,,2.2,1.3,1.8,1*29
$GPGSV,2,1,06,01,16,255,49,08,74,298,56,10,56,076,55,16,26,182,50,1*6D
$GPGSV,2,2,06,21,45,263,54,23,27,048,51,,,,,,,,,1*6A
$GPRMC,000127.00,A,4852.4457322,N,00217.7398212,E,17.04,148.15,180502,0.0,E,A*0E
$GPGGA,000127.00,4852.4457322,N,00217.7398212,E,1,06,1.0,-10.592,M,0.000,M,0.0,*69
$GPGSA,A,3,01,08,10,16,21,23,,,,,,,2.2,1.3,1.8,1*29
$GPGSV,2,1,06,01,16,255,48,08,74,298,57,10,56,076,56,16,26,182,52,1*6C
$GPGSV,2,2,06,21,45,263,54,23,27,048,50,,,,,,,,,1*6B
$GPRMC,000128.00,A,4852.4388116,N,00217.7445635,E,23.50,160.50,180502,0.0,E,A*0A
$GPGGA,000128.00,4852.4388116,N,00217.7445635,E,1,06,1.0,-8.423,M,0.000,M,0.0,*52
$GPGSA,A,3,01,08,10,16,21,23,,,,,,,2.2,1.3,1.8,1*29
$GPGSV,2,1,06,01,16,255,48,08,74,298,56,10,56,076,57,16,26,182,50,1*6E
$GPGSV,2,2,06,21,45,263,53,23,27,048,50,,,,,,,,,1*6C
$GPRMC,000129.00,A,4852.4346034,N,00217.7478407,E,21.92,169.29,180502,0.0,E,A*0E
$GPGGA,000129.00,4852.4346034,N,00217.7478407,E,1,06,1.0,-8.699,M,0.000,M,0.0,*5E
$GPGSA,A,3,01,08,10,16,21,23,,,,,,,2.2,1.3,1.8,1*29
$GPGSV,2,1,06,01,16,255,47,08,74,298,56,10,56,076,56,16,26,182,51,1*61
$GPGSV,2,2,06,21,45,263,53,23,27,048,50,,,,,,,,,1*6C
$GPRMC,000130.00,A,4852.4276762,N,00217.7490904,E,23.20,172.96,180502,0.0,E,A*0D
$GPGGA,000130.00,4852.4276762,N,00217.7490904,E,1,06,1.0,-5.603,M,0.000,M,0.0,*56
$GPGSA,A,3,01,08,10,16,21,23,,,,,,,2.2,1.3,1.8,1*29
$GPGSV,2,1,06,01,16,255,48,08,74,298,55,10,56,076,52,16,26,182,51,1*69
$GPGSV,2,2,06,21,45,263,53,23,27,048,50,,,,,,,,,1*6C
$GPRMC,000131.00,A,4852.4222022,N,00217.7486250,E,17.05,164.98,180502,0.0,E,A*0A
$GPGGA,000131.00,4852.4222022,N,00217.7486250,E,1,06,1.0,0.283,M,0.000,M,0.0,*7C
$GPGSA,A,3,01,08,10,16,21,23,,,,,,,2.2,1.3,1.8,1*29
$GPGSV,2,1,06,01,16,255,49,08,74,298,57,10,56,076,53,16,26,182,50,1*6A
$GPGSV,2,2,06,21,45,263,52,23,27,048,48,,,,,,,,,1*64
$GPRMC,000132.00,A,4852.4193404,N,00217.7516528,E,10.44,147.54,180502,0.0,E,A*03
$GPGGA,000132.00,4852.4193404,N,00217.7516528,E,1,06,1.0,-2.141,M,0.000,M,0.0,*54
$GPGSA,A,3,01,08,10,16,21,23,,,,,,,2.2,1.3,1.8,1*29
$GPGSV,2,1,06,01,16,255,49,08,74,298,56,10,56,076,53,16,26,182,51,1*6A
$GPGSV,2,2,06,21,45,263,54,23,27,048,48,,,,,,,,,1*62
$GPRMC,000133.00,A,4852.4137243,N,00217.7568859,E,18.99,130.14,180502,0.0,E,A*07
$GPGGA,000133.00,4852.4137243,N,00217.7568859,E,1,06,1.0,1.160,M,0.000,M,0.0,*71
$GPGSA,A,3,01,08,10,16,21,23,,,,,,,2.2,1.3,1.8,1*29
$GPGSV,2,1,06,01,16,255,49,08,74,298,55,10,56,076,55,16,26,182,50,1*6E
$GPGSV,2,2,06,21,45,263,52,23,27,048,51,,,,,,,,,1*6C
$GPRMC,000134.00,A,4852.4128659,N,00217.7651415,E,28.07,121.00,180502,0.0,E,A*0D
$GPGGA,000134.00,4852.4128659,N,00217.7651415,E,1,06,1.0,-3.873,M,0.000,M,0.0,*5E
$GPGSA,A,3,01,08,10,16,21,23,,,,,,,2.2,1.3,1.8,1*29
$GPGSV,2,1,06,01,16,255,48,08,74,298,56,10,56,076,55,16,26,182,50,1*6C
$GPGSV,2,2,06,21,45,263,52,23,27,048,52,,,,,,,,,1*6F
$GPRMC,000135.00,A,4852.4078131,N,00217.7759627,E,31.76,117.61,180502,0.0,E,A*07
$GPGGA,000135.00,4852.4078131,N,00217.7759627,E,1,06,1.0,-4.878,M,0.000,M,0.0,*54
$GPGSA,A,3,01,08,10,16,21,23,,,,,,,2.2,1.3,1.8,1*29
$GPGSV,2,1,06,01,16,255,49,08,74,298,54,10,56,076,55,16,26,182,48,1*66
$GPGSV,2,2,06,21,45,263,53,23,27,048,49,,,,,,,,,1*64
$GPRMC,000136.00,A,4852.4035895,N,00217.7868910,E,31.94,116.83,180502,0.0,E,A*0D
$GPGGA,000136.00,4852.4035895,N,00217.7868910,E,1,06,1.0,-3.880,M,0.000,M,0.0,*5F
$GPGSA,A,3,01,08,10,16,21,23,,,,,,,2.2,1.3,1.8,1*29
$GPGSV,2,1,06,01,16,255,47,08,74,298,56,10,56,076,56,16,26,182,49,1*68
$GPGSV,2,2,06,21,45,263,53,23,27,048,50,,,,,,,,,1*6C
$GPRMC,000137.00,A,4852.3994619,N,00217.7997239,E,32.91,118.43,180502,0.0,E,A*06
$GPGGA,000137.00,4852.3994619,N,00217.7997239,E,1,06,1.0,-6.407,M,0.000,M,0.0,*56
$GPGSA,A,3,01,08,10,16,21,23,,,,,,,2.2,1.3,1.8,1*29
$GPGSV,2,1,06,01,16,255,47,08,74,298,57,10,56,076,56,16,26,182,49,1*69
$GPGSV,2,2,06,21,45,263,53,23,27,048,52,,,,,,,,,1*6E
$GPRMC,000138.00,A,4852.3939488,N,00217.8122449,E,27.14,122.92,180502,0.0,E,A*00
$GPGGA,000138.00,4852.3939488,N,00217.8122449,E,1,06,1.0,-6.500,M,0.000,M,0.0,*5A
$GPGSA,A,3,01,08,10,16,21,23,,,,,,,2.2,1.3,1.8,1*29
$GPGSV,2,1,06,01,16,255,48,08,74,298,54,10,56,076,54,16,26,182,50,1*6F
$GPGSV,2,2,06,21,45,263,51,23,27,048,51,,,,,,,,,1*6F
$GPRMC,000139.00,A,4852.3914237,N,00217.8200642,E,16.74,131.03,180502,0.0,E,A*08
$GPGGA,000139.00,4852.3914237,N,00217.8200642,E,1,06,1.0,-7.433,M,0.000,M,0.0,*5C
$GPGSA,A,3,01,08,10,16,21,23,,,,,,,2.2,1.3,1.8,1*29
$GPGSV,2,1,06,01,16,255,48,08,74,298,54,10,56,076,54,16,26,182,50,1*6F
$GPGSV,2,2,06,21,45,263,52,23,27,048,50,,,,,,,,,1*6D
$GPRMC,000140.00,A,4852.3894130,N,00217.8215911,E,8.46,158.50,180502,0.0,E,A*31
$GPGGA,000140.00,4852.3894130,N,00217.8215911,E,1,06,1.0,-9.195,M,0.000,M,0.0,*55
$GPGSA,A,3,01,08,10,16,21,23,,,,,,,2.2,1.3,1.8,1*29
$GPGSV,2,1,06,01,16,255,48,08,74,298,56,10,56,076,54,16,26,182,50,1*6D
$GPGSV,2,2,06,21,45,263,55,23,27,048,51,,,,,,,,,1*6B
$GPRMC,000141.00,A,4852.3864098,N,00217.8218655,E,10.03,190.78,180502,0.0,E,A*08
$GPGGA,000141.00,4852.3864098,N,00217.8218655,E,1,06,1.0,-9.907,M,0.000,M,0.0,*59
$GPGSA,A,3,01,08,10,16,21,23,,,,,,,2.2,1.3,1.8,1*29
$GPGSV,2,1,06,01,16,255,48,08,74,298,57,10,56,076,56,16,26,182,52,1*6C
$GPGSV,2,2,06,21,45,263,54,23,27,048,50,,,,,,,,,1*6B
$GPRMC,000142.00,A,4852.3828828,N,00217.8221207,E,20.06,205.85,180502,0.0,E,A*02
$GPGGA,000142.00,4852.3828828,N,00217.8221207,E,1,06,1.0,-15.762,M,0.000,M,0.0,*68
$GPGSA,A,3,01,08,10,16,21,23,,,,,,,2.2,1.3,1.8,1*29
$GPGSV,2,1,06,01,16,255,48,08,74,298,57,10,56,076,56,16,26,182,51,1*6F
$GPGSV,2,2,06,21,45,263,53,23,27,048,50,,,,,,,,,1*6C
$GPRMC,000143.00,A,4852.3757227,N,00217.8161027,E,30.15,210.27,180502,0.0,E,A*09
$GPGGA,000143.00,4852.3757227,N,00217.8161027,E,1,06,1.0,-16.531,M,0.000,M,0.0,*6B
$GPGSA,A,3,01,08,10,16,21,23,,,,,,,2.2,1.3,1.8,1*29
$GPGSV,2,1,06,01,16,255,48,08,74,298,56,10,56,076,56,16,26,182,49,1*67
$GPGSV,2,2,06,21,45,263,51,23,27,048,50,,,,,,,,,1*6E
$GPRMC,000144.00,A,4852.3683156,N,00217.8065797,E,32.40,220.39,180502,0.0,E,A*04
$GPGGA,000144.00,4852.3683156,N,00217.8065797,E,1,06,1.0,-16.129,M,0.000,M,0.0,*65
$GPGSA,A,3,01,08,10,16,21,23,,,,,,,2.2,1.3,1.8,1*29
$GPGSV,2,1,06,01,16,255,49,08,74,298,56,10,56,076,56,16,26,182,50,1*6E
$GPGSV,2,2,06,21,45,263,53,23,27,048,51,,,,,,,,,1*6D
$GPRMC,000145.00,A,4852.3630596,N,00217.7980071,E,29.22,220.61,180502,0.0,E,A*04
$GPGGA,000145.00,4852.3630596,N,00217.7980071,E,1,06,1.0,-14.357,M,0.000,M,0.0,*6F
$GPGSA,A,3,01,08,10,16,21,23,,,,,,,2.2,1.3,1.8,1*29
$GPGSV,2,1,06,01,16,255,48,08,74,298,58,10,56,076,54,16,26,182,49,1*6B
$GPGSV,2,2,06,21,45,263,53,23,27,048,50,,,,,,,,,1*6C
$GPRMC,000146.00,A,4852.3573869,N,00217.7918096,E,23.82,229.27,180502,0.0,E,A*0D
$GPGGA,000146.00,4852.3573869,N,00217.7918096,E,1,06,1.0,-13.421,M,0.000,M,0.0,*6C
$GPGSA,A,3,01,08,10,16,21,23,,,,,,,2.2,1.3,1.8,1*29
$GPGSV,2,1,06,01,16,255,48,08,74,298,58,10,56,076,56,16,26,182,50,1*61
$GPGSV,2,2,06,21,45,263,54,23,27,048,50,,,,,,,,,1*6B
$GPRMC,000147.00,A,4852.3529681,N,00217.7813479,E,31.65,235.67,180502,0.0,E,A*07
$GPGGA,000147.00,4852.3529681,N,00217.7813479,E,1,06,1.0,-6.699,M,0.000,M,0.0,*50
$GPGSA,A,3,01,08,10,16,21,23,,,,,,,2.2,1.3,1.8,1*29
$GPGSV,2,1,06,01,16,255,48,08,74,298,58,10,56,076,54,16,26,182,50,1*63
$GPGSV,2,2,06,21,45,263,54,23,27,048,51,,,,,,,,,1*6A
$GPRMC,000148.00,A,4852.3488601,N,00217.7691173,E,32.20,242.25,180502,0.0,E,A*05
$GPGGA,000148.00,4852.3488601,N,00217.7691173,E,1,06,1.0,-6.404,M,0.000,M,0.0,*50
$GPGSA,A,3,01,08,10,16,21,23,,,,,,,2.2,1.3,1.8,1*29
$GPGSV,2,1,06,01,16,255,49,08,74,298,55,10,55,076,52,16,26,182,50,1*6A
$GPGSV,2,2,06,21,45,263,54,23,27,048,49,,,,,,,,,1*63
$GPRMC,000149.00,A,4852.3448539,N,00217.7580623,E,32.86,247.72,180502,0.0,E,A*0A
$GPGGA,000149.00,4852.3448539,N,00217.7580623,E,1,06,1.0,-5.349,M,0.000,M,0.0,*59
$GPGSA,A,3,01,08,10,16,21,23,,,,,,,2.2,1.3,1.8,1*29
$GPGSV,2,1,06,01,16,255,49,08,74,298,58,10,55,076,55,16,26,182,49,1*68
$GPGSV,2,2,06,21,45,263,55,23,27,048,48,,,,,,,,,1*63
$GPRMC,000150.00,A,4852.3431472,N,00217.7431339,E,32.58,256.87,180502,0.0,E,A*0E
$GPGGA,000150.00,4852.3431472,N,00217.7431339,E,1,06,1.0,-1.454,M,0.000,M,0.0,*5B
$GPGSA,A,3,01,08,10,16,21,23,,,,,,,2.2,1.3,1.8,1*29
$GPGSV,2,1,06,01,16,255,50,08,74,298,58,10,55,076,55,16,26,182,51,1*69
$GPGSV,2,2,06,21,45,263,52,23,27,048,49,,,,,,,,,1*65
$GPRMC,000151.00,A,4852.3412330,N,00217.7284895,E,32.93,260.13,180502,0.0,E,A*05
$GPGGA,000151.00,4852.3412330,N,00217.7284895,E,1,06,1.0,-2.962,M,0.000,M,0.0,*54
$GPGSA,A,3,01,08,10,16,21,23,,,,,,,2.2,1.3,1.8,1*29
$GPGSV,2,1,06,01,16,255,48,08,74,298,56,10,55,075,54,16,26,182,51,1*6C
$GPGSV,2,2,06,21,45,263,52,23,27,048,48,,,,,,,,,1*64
$GPRMC,000152.00,A,4852.3397421,N,00217.7167485,E,32.57,262.80,180502,0.0,E,A*08
$GPGGA,000152.00,4852.3397421,N,00217.7167485,E,1,06,1.0,-6.675,M,0.000,M,0.0,*54
$GPGSA,A,3,01,08,10,16,21,23,,,,,,,2.2,1.3,1.8,1*29
$GPGSV,2,1,06,01,16,255,48,08,74,298,57,10,55,075,56,16,26,182,51,1*6F
$GPGSV,2,2,06,21,45,263,52,23,27,048,49,,,,,,,,,1*65
$GPRMC,000153.00,A,4852.3396694,N,00217.7036012,E,31.94,267.96,180502,0.0,E,A*05
$GPGGA,000153.00,4852.3396694,N,00217.7036012,E,1,06,1.0,-8.947,M,0.000,M,0.0,*57
$GPGSA,A,3,01,08,10,16,21,23,,,,,,,2.2,1.3,1.8,1*29
$GPGSV,2,1,06,01,16,255,50,08,74,298,56,10,55,075,56,16,26,182,51,1*67
$GPGSV,2,2,06,21,45,263,54,23,27,048,51,,,,,,,,,1*6A
$GPRMC,000154.00,A,4852.3393552,N,00217.6891948,E,32.19,276.04,180502,0.0,E,A*01
$GPGGA,000154.00,4852.3393552,N,00217.6891948,E,1,06,1.0,-8.288,M,0.000,M,0.0,*56
$GPGSA,A,3,01,08,10,16,21,23,,,,,,,2.2,1.3,1.8,1*29
$GPGSV,2,1,06,01,16,255,49,08,74,298,58,10,55,075,56,16,26,182,51,1*61
$GPGSV,2,2,06,21,45,263,56,23,27,048,49,,,,,,,,,1*61
$GPRMC,000155.00,A,4852.3402948,N,00217.6777351,E,32.01,278.92,180502,0.0,E,A*05
$GPGGA,000155.00,4852.3402948,N,00217.6777351,E,1,06,1.0,-10.396,M,0.000,M,0.0,*6D
$GPGSA,A,3,01,08,10,16,21,23,,,,,,,2.2,1.3,1.8,1*29
$GPGSV,2,1,06,01,16,255,48,08,74,298,55,10,55,075,55,16,26,182,50,1*6F
$GPGSV,2,2,06,21,45,263,54,23,27,048,50,,,,,,,,,1*6B
$GPRMC,000156.00,A,4852.3421657,N,00217.6648767,E,32.04,283.70,180502,0.0,E,A*07
$GPGGA,000156.00,4852.3421657,N,00217.6648767,E,1,06,1.0,-14.022,M,0.000,M,0.0,*6A
$GPGSA,A,3,01,08,10,16,21,23,,,,,,,2.2,1.3,1.8,1*29
$GPGSV,2,1,06,01,16,255,48,08,74,298,57,10,55,075,54,16,26,182,50,1*6C
$GPGSV,2,2,06,21,45,263,54,23,27,048,50,,,,,,,,,1*6B
$GPRMC,000157.00,A,4852.3446556,N,00217.6509638,E,33.12,288.70,180502,0.0,E,A*05
$GPGGA,000157.00,4852.3446556,N,00217.6509638,E,1,06,1.0,-14.034,M,0.000,M,0.0,*62
$GPGSA,A,3,01,08,10,16,21,23,,,,,,,2.2,1.3,1.8,1*29
$GPGSV,2,1,06,01,16,255,49,08,74,298,58,10,55,075,56,16,26,182,49,1*68
$GPGSV,2,2,06,21,45,263,54,23,27,048,48,,,,,,,,,1*62
$GPRMC,000158.00,A,4852.3480976,N,00217.6382129,E,31.96,295.54,180502,0.0,E,A*08
$GPGGA,000158.00,4852.3480976,N,00217.6382129,E,1,06,1.0,-13.849,M,0.000,M,0.0,*6E
$GPGSA,A,3,01,08,10,16,21,23,,,,,,,2.2,1.3,1.8,1*29
$GPGSV,2,1,06,01,16,255,49,08,74,298,56,10,55,075,54,16,26,182,48,1*65
$GPGSV,2,2,06,21,45,263,53,23,27,048,49,,,,,,,,,1*64
$GPRMC,000159.00,A,4852.3521332,N,00217.6281351,E,24.26,302.01,180502,0.0,E,A*06
$GPGGA,000159.00,4852.3521332,N,00217.6281351,E,1,06,1.0,-13.413,M,0.000,M,0.0,*63
$GPGSA,A,3,01,08,10,16,21,23,,,,,,,2.2,1.3,1.8,1*29
$GPGSV,2,1,06,01,16,255,48,08,74,298,57,10,55,075,55,16,26,182,49,1*65
$GPGSV,2,2,06,21,45,263,53,23,27,048,51,,,,,,,,,1*6D
$GPRMC,000200.00,A,4852.3553050,N,00217.6179639,E,23.92,306.91,180502,0.0,E,A*01
$GPGGA,000200.00,4852.3553050,N,00217.6179639,E,1,06,1.0,-7.420,M,0.000,M,0.0,*54
$GPGSA,A,3,01,08,10,16,21,23,,,,,,,2.2,1.3,1.8,1*29
$GPGSV,2,1,06,01,16,255,47,08,74,298,54,10,55,075,54,16,26,182,50,1*60
$GPGSV,2,2,06,21,45,263,53,23,27,048,50,,,,,,,,,1*6C
$GPRMC,000201.00,A,4852.3600384,N,00217.6106564,E,25.17,310.60,180502,0.0,E,A*0E
$GPGGA,000201.00,4852.3600384,N,00217.6106564,E,1,06,1.0,-8.659,M,0.000,M,0.0,*5A
$GPGSA,A,3,01,08,10,16,21,23,,,,,,,2.2,1.3,1.8,1*29
$GPGSV,2,1,06,01,16,255,49,08,74,298,56,10,55,075,56,16,26,182,48,1*67
$GPGSV,2,2,06,21,45,263,52,23,27,048,50,,,,,,,,,1*6D
$GPRMC,000202.00,A,4852.3647675,N,00217.6041169,E,23.14,315.18,180502,0.0,E,A*01
$GPGGA,000202.00,4852.3647675,N,00217.6041169,E,1,06,1.0,-5.323,M,0.000,M,0.0,*5F
$GPGSA,A,3,01,08,10,16,21,23,,,,,,,2.2,1.3,1.8,1*29
$GPGSV,2,1,06,01,16,255,49,08,74,298,56,10,55,075,55,16,26,182,50,1*6D
$GPGSV,2,2,06,21,45,263,51,23,27,048,49,,,,,,,,,1*66
$GPRMC,000203.00,A,4852.3692920,N,00217.5974101,E,26.88,322.14,180502,0.0,E,A*0D
$GPGGA,000203.00,4852.3692920,N,00217.5974101,E,1,06,1.0,-0.119,M,0.000,M,0.0,*55
$GPGSA,A,3,01,08,10,16,21,23,,,,,,,2.2,1.3,1.8,1*29
$GPGSV,2,1,06,01,16,255,46,08,74,298,57,10,55,075,54,16,26,182,50,1*62
$GPGSV,2,2,06,21,45,263,52,23,27,048,50,,,,,,,,,1*6D
$GPRMC,000204.00,A,4852.3767545,N,00217.5895210,E,33.04,327.33,180502,0.0,E,A*03
$GPGGA,000204.00,4852.3767545,N,00217.5895210,E,1,06,1.0,-1.432,M,0.000,M,0.0,*56
$GPGSA,A,3,01,08,10,16,21,23,,,,,,,2.2,1.3,1.8,1*29
$GPGSV,2,1,06,01,16,255,48,08,74,298,56,10,55,075,57,16,26,182,50,1*6E
$GPGSV,2,2,06,21,45,263,52,23,27,048,52,,,,,,,,,1*6F
$GPRMC,000205.00,A,4852.3835281,N,00217.5826147,E,31.11,334.52,180502,0.0,E,A*0F
$GPGGA,000205.00,4852.3835281,N,00217.5826147,E,1,06,1.0,-2.368,M,0.000,M,0.0,*52
$GPGSA,A,3,01,08,10,16,21,23,,,,,,,2.2,1.3,1.8,1*29
$GPGSV,2,1,06,01,16,255,47,08,74,298,56,10,55,075,57,16,26,182,50,1*61
$GPGSV,2,2,06,21,45,263,52,23,27,047,51,,,,,,,,,1*63
$GPRMC,000206.00,A,4852.3923501,N,00217.5786061,E,32.12,336.54,180502,0.0,E,A*01
$GPGGA,000206.00,4852.3923501,N,00217.5786061,E,1,06,1.0,-5.682,M,0.000,M,0.0,*5E
$GPGSA,A,3,01,08,10,16,21,23,,,,,,,2.2,1.3,1.8,1*29
$GPGSV,2,1,06,01,16,255,48,08,74,298,58,10,55,075,56,16,26,182,50,1*61
$GPGSV,2,2,06,21,45,263,53,23,27,047,52,,,,,,,,,1*61
$GPRMC,000207.00,A,4852.4007938,N,00217.5730342,E,32.47,342.76,180502,0.0,E,A*02
$GPGGA,000207.00,4852.4007938,N,00217.5730342,E,1,06,1.0,-7.626,M,0.000,M,0.0,*52
$GPGSA,A,3,01,08,10,16,21,23,,,,,,,2.2,1.3,1.8,1*29
$GPGSV,2,1,06,01,16,255,48,08,74,298,57,10,55,075,54,16,26,182,50,1*6C
$GPGSV,2,2,06,21,45,263,54,23,27,047,48,,,,,,,,,1*6D
$GPRMC,000208.00,A,4852.4092667,N,00217.5682798,E,33.21,346.57,180502,0.0,E,A*09
$GPGGA,000208.00,4852.4092667,N,00217.5682798,E,1,06,1.0,-8.675,M,0.000,M,0.0,*56
$GPGSA,A,3,01,08,10,16,21,23,,,,,,,2.2,1.3,1.8,1*29
$GPGSV,2,1,06,01,16,255,48,08,74,298,55,10,55,075,55,16,26,182,50,1*6F
$GPGSV,2,2,06,21,45,263,54,23,27,047,51,,,,,,,,,1*65
$GPRMC,000209.00,A,4852.4182303,N,00217.5661303,E,32.14,349.52,180502,0.0,E,A*09
$GPGGA,000209.00,4852.4182303,N,00217.5661303,E,1,06,1.0,-12.354,M,0.000,M,0.0,*66
$GPGSA,A,3,01,08,10,16,21,23,,,,,,,2.2,1.3,1.8,1*29
$GPGSV,2,1,06,01,16,255,49,08,74,298,57,10,55,075,54,16,26,182,50,1*6D
$GPGSV,2,2,06,21,45,263,52,23,27,047,52,,,,,,,,,1*60
$GPRMC,000210.00,A,4852.4266781,N,00217.5653885,E,32.09,355.07,180502,0.0,E,A*03
$GPGGA,000210.00,4852.4266781,N,00217.5653885,E,1,06,1.0,-13.867,M,0.000,M,0.0,*67
$GPGSA,A,3,01,08,10,16,21,23,,,,,,,2.2,1.3,1.8,1*29
$GPGSV,2,1,06,01,16,255,48,08,74,298,56,10,55,075,53,16,26,182,50,1*6A
$GPGSV,2,2,06,21,45,263,54,23,27,047,52,,,,,,,,,1*66
$GPRMC,000211.00,A,4852.4361511,N,00217.5656897,E,32.75,1.04,180502,0.0,E,A*03
$GPGGA,000211.00,4852.4361511,N,00217.5656897,E,1,06,1.0,-17.907,M,0.000,M,0.0,*6E
$GPGSA,A,3,01,08,10,16,21,23,,,,,,,2.2,1.3,1.8,1*29
$GPGSV,2,1,06,01,16,255,48,08,74,298,55,10,55,075,53,16,26,182,49,1*61
$GPGSV,2,2,06,21,45,263,53,23,27,047,50,,,,,,,,,1*63
$GPRMC,000212.00,A,4852.4447534,N,00217.5657112,E,32.98,6.82,180502,0.0,E,A*0B
$GPGGA,000212.00,4852.4447534,N,00217.5657112,E,1,06,1.0,-14.765,M,0.000,M,0.0,*65
$GPGSA,A,3,01,08,10,16,21,23,,,,,,,2.2,1.3,1.8,1*29
$GPGSV,2,1,06,01,16,255,49,08,74,298,57,10,55,075,55,16,26,182,49,1*64
$GPGSV,2,2,06,21,45,263,54,23,27,047,48,,,,,,,,,1*6D
$GPRMC,000213.00,A,4852.4532059,N,00217.5680573,E,25.16,15.56,180502,0.0,E,A*35
$GPGGA,000213.00,4852.4532059,N,00217.5680573,E,1,06,1.0,-13.222,M,0.000,M,0.0,*61
$GPGSA,A,3,01,08,10,16,21,23,,,,,,,2.2,1.3,1.8,1*29
$GPGSV,2,1,06,01,16,255,46,08,74,298,54,10,55,075,54,16,26,182,50,1*61
$GPGSV,2,2,06,21,45,263,53,23,27,047,50,,,,,,,,,1*63
$GPRMC,000214.00,A,4852.4578239,N,00217.5711715,E,16.30,15.60,180502,0.0,E,A*32
$GPGGA,000214.00,4852.4578239,N,00217.5711715,E,1,06,1.0,-10.437,M,0.000,M,0.0,*66
$GPGSA,A,3,01,08,10,16,21,23,,,,,,,2.2,1.3,1.8,1*29
$GPGSV,2,1,06,01,16,255,48,08,74,298,56,10,55,075,54,16,26,182,51,1*6C
$GPGSV,2,2,06,21,45,263,53,23,27,047,50,,,,,,,,,1*63
$GPRMC,000215.00,A,4852.4608372,N,00217.5732431,E,6.25,19.12,180502,0.0,E,A*01
$GPGGA,000215.00,4852.4608372,N,00217.5732431,E,1,06,1.0,-9.695,M,0.000,M,0.0,*5B
$GPGSA,A,3,01,08,10,16,21,23,,,,,,,2.2,1.3,1.8,1*29
$GPGSV,2,1,06,01,16,255,48,08,74,298,57,10,55,075,54,16,26,182,51,1*6D
$GPGSV,2,2,06,21,45,263,54,23,27,047,51,,,,,,,,,1*65
$GPRMC,000216.00,A,4852.4621515,N,00217.5731596,E,1.28,19.12,180502,0.0,E,A*0B
$GPGGA,000216.00,4852.4621515,N,00217.5731596,E,1,06,1.0,-10.870,M,0.000,M,0.0,*66
$GPGSA,A,3,01,08,10,16,21,23,,,,,,,2.2,1.3,1.8,1*29
$GPGSV,2,1,06,01,16,255,48,08,74,298,56,10,55,075,54,16,26,182,50,1*6D
$GPGSV,2,2,06,21,45,263,53,23,27,047,50,,,,,,,,,1*63
$GPRMC,000217.00,A,4852.4603032,N,00217.5717717,E,0.85,19.12,180502,0.0,E,A*03
$GPGGA,000217.00,4852.4603032,N,00217.5717717,E,1,06,1.0,-1.857,M,0.000,M,0.0,*5D
$GPGSA,A,3,01,08,10,16,21,23,,,,,,,2.2,1.3,1.8,1*29
$GPGSV,2,1,06,01,16,255,48,08,74,298,57,10,55,075,54,16,26,182,49,1*64
$GPGSV,2,2,06,21,45,263,52,23,27,047,50,,,,,,,,,1*62
$GPRMC,000218.00,A,4852.4622198,N,00217.5715144,E,1.11,19.12,180502,0.0,E,A*00
$GPGGA,000218.00,4852.4622198,N,00217.5715144,E,1,06,1.0,-7.138,M,0.000,M,0.0,*54
$GPGSA,A,3,01,08,10,16,21,23,,,,,,,2.2,1.3,1.8,1*29
$GPGSV,2,1,06,01,16,255,50,08,74,298,56,10,55,075,57,16,26,182,50,1*67
$GPGSV,2,2,06,21,45,263,52,23,27,047,50,,,,,,,,,1*62
$GPRMC,000219.00,A,4852.4624520,N,00217.5718054,E,0.34,19.12,180502,0.0,E,A*0B
$GPGGA,000219.00,4852.4624520,N,00217.5718054,E,1,06,1.0,-9.502,M,0.000,M,0.0,*5A
$GPGSA,A,3,01,08,10,16,21,23,,,,,,,2.2,1.3,1.8,1*29
$GPGSV,2,1,06,01,16,255,48,08,74,298,55,10,55,075,55,16,26,182,52,1*6D
$GPGSV,2,2,06,21,45,263,50,23,27,047,50,,,,,,,,,1*60
$GPRMC,000220.00,A,4852.4608007,N,00217.5719003,E,0.47,19.12,180502,0.0,E,A*08
$GPGGA,000220.00,4852.4608007,N,00217.5719003,E,1,06,1.0,-4.372,M,0.000,M,0.0,*51
$GPGSA,A,3,01,08,10,16,21,23,,,,,,,2.2,1.3,1.8,1*29
$GPGSV,2,1,06,01,16,255,50,08,74,298,55,10,55,075,54,16,26,182,50,1*67
$GPGSV,2,2,06,21,45,263,53,23,27,047,50,,,,,,,,,1*63
