     2.11           OBSERVATION DATA    G                   RINEX VERSION / TYPE
BLANK OR G = GPS,  R = GLONASS,  E = GALILEO,  M = MIXED    COMMENT             
GNSS-SDR            joel                 6-MAY-25 12:48     PGM / RUN BY / DATE 
GPS OBSERVATION DATA FILE GENERATED BY GNSS-SDR             COMMENT             
GNSS-SDR VERSION 0.0.16                                     COMMENT             
See https://gnss-sdr.org                                    COMMENT             
DEFAULT MARKER NAME                                         MARKER NAME         
joel                CTTC                                    OBSERVER / AGENCY   
GNSS-SDR            Software Receiver   0.0.16              REC # / TYPE / VERS 
Antenna number      Antenna type                            ANT # / TYPE        
        0.0000        0.0000        0.0000                  APPROX POSITION XYZ 
        0.0000        0.0000        0.0000                  ANTENNA: DELTA H/E/N
     1     1                                                WAVELENGTH FACT L1/2
     4    C1    L1    D1    S1                              # / TYPES OF OBSERV 
  2002    05    18    00    00   42.1400000     GPS         TIME OF FIRST OBS   
    18                                                      LEAP SECONDS        
                                                            END OF HEADER       
 02  5 18 00 00 43.0000000  0  7G01G21G23G10G16G07G08                           
  23763610.517 7 124878615.129 7      3398.650 7        46.768                  
  21783603.639 8 114473612.642 8      1786.582 8        53.411                  
  23001131.962 8 120871770.131 8     -2817.795 8        49.699                  
  21313644.904 9 112003972.881 9      -796.912 9        54.662                  
  23471206.221 8 123342019.968 8     -3664.463 8        49.438                  
  24961662.713 7 131174428.740 7     -1907.850 7        46.016                  
  20445717.404 9 107442977.727 9       867.810 9        56.105                  
 02  5 18 00 00 44.0000000  0  7G01G21G23G10G16G07G08                           
  23762963.622 7 124875218.031 7      3399.226 7        46.472                  
  21783268.363 9 114471825.452 9      1787.026 9        54.192                  
  23001669.570 8 120874589.404 8     -2820.638 8        50.232                  
  21313797.166 8 112004771.285 8      -798.018 8        53.901                  
  23471903.756 8 123345683.723 8     -3662.383 8        50.780                  
  24962022.595 7 131176333.254 7     -1906.793 7        45.618                  
  20445554.921 9 107442109.847 9       867.796 9        56.743                  
 02  5 18 00 00 45.0000000  0  7G01G21G23G10G16G07G08                           
  23762318.872 7 124871821.092 7      3398.201 7        47.325                  
  21782928.780 8 114470038.567 8      1785.729 8        53.305                  
  23002205.247 8 120877409.088 8     -2822.011 8        51.403                  
  21313949.839 9 112005570.286 9      -798.643 9        54.788                  
  23472599.522 8 123349347.679 8     -3664.483 8        50.669                  
  24962386.748 7 131178238.105 7     -1904.828 7        46.912                  
  20445392.098 9 107441242.432 9       867.087 9        58.101                  
 02  5 18 00 00 46.0000000  0  7G01G21G23G10G16G07G08                           
  23761671.245 8 124868424.308 8      3399.860 8        48.364                  
  21782584.319 8 114468251.974 8      1785.666 8        53.362                  
  23002744.535 8 120880229.153 8     -2819.800 8        50.963                  
  21314102.780 9 112006369.884 9      -799.447 9        54.220                  
  23473298.147 8 123353011.828 8     -3665.189 8        49.316                  
  24962749.239 7 131180143.321 7     -1906.189 7        44.882                  
  20445229.705 9 107440375.495 9       866.424 9        56.864                  
 02  5 18 00 00 47.0000000  0  7G01G21G23G10G16G07G08                           
  23761024.529 7 124865027.690 7      3399.025 7        47.804                  
  21782245.075 8 114466465.686 8      1785.691 8        52.045                  
  23003277.996 8 120883049.631 8     -2821.579 8        50.210                  
  21314254.560 8 112007170.135 8      -800.977 8        53.818                  
  23473995.236 8 123356676.152 8     -3664.131 8        50.223                  
  24963110.086 7 131182048.896 7     -1907.638 7        45.342                  
  20445066.114 9 107439509.035 9       866.123 9        56.080                  
 02  5 18 00 00 48.0000000  0  7G01G21G23G10G16G07G08                           
  23760379.190 7 124861631.226 7      3397.901 7        47.221                  
  21781907.601 8 114464679.690 8      1787.299 8        52.471                  
  23003815.479 8 120885870.458 8     -2822.920 8        50.675                  
  21314407.661 9 112007970.982 9      -800.654 9        56.988                  
  23474691.305 8 123360340.693 8     -3665.738 8        50.285                  
  24963476.025 7 131183954.815 7     -1906.181 7        46.095                  
  20444898.842 9 107438643.039 9       865.135 9        57.893                  
 02  5 18 00 00 49.0000000  0  7G01G21G23G10G16G07G08                           
  23759732.671 8 124858234.918 8      3395.701 8        48.667                  
  21781568.089 8 114462893.998 8      1785.603 8        53.413                  
  23004353.408 8 120888691.682 8     -2821.188 8        49.437                  
  21314560.352 9 112008772.427 9      -801.338 9        57.439                  
  23475390.413 8 123364005.427 8     -3665.067 8        50.436                  
  24963835.014 7 131185861.091 7     -1906.671 7        47.051                  
  20444730.891 9 107437777.507 9       865.708 9        56.989                  
 02  5 18 00 00 50.0000000  0  7G01G21G23G10G16G07G08                           
  23759085.508 7 124854838.792 7      3397.150 7        47.182                  
  21781224.843 8 114461108.602 8      1782.092 8        53.946                  
  23004888.942 8 120891513.307 8     -2821.248 8        49.866                  
  21314713.222 9 112009574.491 9      -802.902 9        56.393                  
  23476087.055 8 123367670.340 8     -3664.933 8        48.701                  
  24964200.936 7 131187767.724 7     -1909.258 7        47.907                  
  20444563.851 9 107436912.453 9       864.688 9        58.807                  
 02  5 18 00 00 51.0000000  0  7G01G21G23G10G16G07G08                           
  23758440.276 7 124851442.814 7      3398.398 7        47.350                  
  21780886.976 8 114459323.500 8      1784.639 8        53.308                  
  23005427.765 8 120894335.328 8     -2822.160 8        50.084                  
  21314866.002 9 112010377.185 9      -802.619 9        55.106                  
  23476784.304 8 123371335.452 8     -3667.389 8        50.174                  
  24964561.318 7 131189674.702 7     -1908.738 7        46.808                  
  20444395.757 9 107436047.875 9       864.359 9        54.287                  
 02  5 18 00 00 52.0000000  0  7G01G21G23G10G16G07G08                           
  23757794.650 7 124848046.981 7      3396.860 7        47.995                  
  21780550.556 8 114457538.711 8      1782.856 8        51.691                  
  23005962.853 8 120897157.753 8     -2823.306 8        51.069                  
  21315019.300 9 112011180.477 9      -803.425 9        54.061                  
  23477482.911 8 123375000.757 8     -3667.767 8        49.518                  
  24964925.775 7 131191582.040 7     -1906.371 7        45.613                  
  20444231.970 9 107435183.764 9       863.635 9        56.043                  
 02  5 18 00 00 53.0000000  0  7G01G21G23G10G16G07G08                           
  23757147.237 8 124844651.333 8      3396.064 8        48.444                  
  21780208.382 8 114455754.243 8      1783.239 8        51.520                  
  23006501.532 8 120899980.564 8     -2822.852 8        49.606                  
  21315172.366 9 112011984.366 9      -804.671 9        54.712                  
  23478179.357 8 123378666.260 8     -3665.545 8        49.895                  
  24965289.374 7 131193489.733 7     -1904.287 7        46.894                  
  20444070.148 9 107434320.115 9       863.751 9        57.515                  
 02  5 18 00 00 54.0000000  0  7G01G21G23G10G16G07G08                           
  23756501.415 7 124841255.830 7      3396.245 7        47.154                  
  21779866.190 8 114453970.060 8      1784.921 8        53.936                  
  23007037.460 8 120902803.774 8     -2822.275 8        50.427                  
  21315325.575 9 112012788.873 9      -803.455 9        54.375                  
  23478876.749 8 123382331.952 8     -3664.835 8        50.316                  
  24965649.595 7 131195397.771 7     -1907.711 7        46.866                  
  20443907.915 9 107433456.946 9       862.346 9        55.142                  
 02  5 18 00 00 55.0000000  0  7G01G21G23G10G16G07G08                           
  23755855.611 8 124837860.477 8      3393.451 8        48.755                  
  21779530.163 8 114452186.187 8      1784.359 8        53.446                  
  23007574.531 8 120905627.370 8     -2823.332 8        49.793                  
  21315479.088 9 112013594.013 9      -805.247 9        54.035                  
  23479575.124 8 123385997.825 8     -3667.170 8        49.840                  
  24966016.268 7 131197306.170 7     -1909.653 7        47.615                  
  20443745.700 9 107432594.251 9       862.924 9        56.793                  
 02  5 18 00 00 56.0000000  0  7G01G21G23G10G16G07G08                           
  23755208.734 7 124834465.312 7      3394.548 7        46.673                  
  21779192.885 8 114450402.603 8      1782.869 8        53.995                  
  23008112.836 8 120908451.337 8     -2824.505 8        51.660                  
  21315632.261 9 112014399.749 9      -806.183 9        54.724                  
  23480272.588 7 123389663.913 7     -3661.444 7        47.497                  
  24966376.150 7 131199214.917 7     -1910.073 7        46.597                  
  20443584.861 9 107431732.022 9       862.324 9        56.144                  
 02  5 18 00 00 57.0000000  0  7G01G21G23G10G16G07G08                           
  23754563.091 8 124831070.292 8      3393.081 8        48.607                  
  21778849.425 8 114448619.327 8      1783.567 8        52.041                  
  23008649.443 8 120911275.702 8     -2823.161 8        50.688                  
  21315785.846 9 112015206.081 9      -806.169 9        55.417                  
  23480969.801 7 123393330.175 7     -3665.060 7        47.214                  
  24966742.000 7 131201124.015 7     -1912.657 7        45.768                  
  20443422.557 9 107430870.258 9       861.599 9        58.032                  
 02  5 18 00 00 58.0000000  0  7G01G21G23G10G16G07G08                           
  23753918.037 8 124827675.425 8      3394.410 8        48.339                  
  21778508.537 8 114446836.338 8      1783.292 8        51.964                  
  23009189.016 8 120914100.464 8     -2826.138 8        50.132                  
  21315939.448 9 112016013.032 9      -806.548 9        55.847                  
  23481668.659 8 123396996.632 8     -3664.167 8        48.295                  
  24967103.580 7 131203033.474 7     -1909.070 7        45.899                  
  20443256.589 9 107430008.971 9       861.169 9        57.035                  
 02  5 18 00 00 59.0000000  0  7G01G21G23G10G16G07G08                           
  23753270.982 8 124824280.739 8      3395.338 8        49.282                  
  21778173.458 8 114445053.659 8      1781.684 8        50.871                  
  23009724.782 8 120916925.628 8     -2824.564 8        49.837                  
  21316093.354 9 112016820.615 9      -807.876 9        56.442                  
  23482364.889 8 123400663.298 8     -3666.673 8        48.738                  
  24967467.590 7 131204943.277 7     -1904.334 7        44.999                  
  20443090.604 9 107429148.161 9       859.456 9        55.214                  
 02  5 18 00 01  0.0000000  0  7G01G21G23G10G16G07G08                           
  23752625.195 8 124820886.197 8      3393.682 8        49.527                  
  21777835.036 8 114443271.266 8      1782.130 8        52.536                  
  23010263.426 8 120919751.186 8     -2824.625 8        51.351                  
  21316246.938 9 112017628.795 9      -808.972 9        57.285                  
  23483062.639 8 123404330.127 8     -3664.419 8        48.603                  
  24967832.118 7 131206853.442 7     -1908.844 7        47.149                  
  20442924.118 9 107428287.816 9       859.942 9        56.757                  
 02  5 18 00 01  1.0000000  0  7G01G21G23G10G16G07G08                           
  23751980.302 8 124817491.819 8      3390.789 8        50.020                  
  21777492.398 9 114441489.194 9      1782.201 9        54.308                  
  23010801.945 8 120922577.139 8     -2828.059 8        49.820                  
  21316401.022 9 112018437.570 9      -809.395 9        55.356                  
  23483761.907 8 123407997.172 8     -3669.929 8        49.534                  
  24968193.072 7 131208763.949 7     -1910.829 7        46.929                  
  20442756.989 9 107427427.935 9       858.891 9        56.529                  
 02  5 18 00 01  2.0000000  0  7G01G21G23G10G16G07G08                           
  23751333.533 8 124814097.607 8      3394.172 8        49.311                  
  21777152.708 8 114439707.433 8      1781.608 8        50.999                  
  23011337.748 8 120925403.443 8     -2826.550 8        50.013                  
  21316555.268 9 112019246.968 9      -809.801 9        54.448                  
  23484458.442 8 123411664.410 8     -3668.565 8        49.173                  
  24968560.156 7 131210674.817 7     -1916.559 7        45.271                  
  20442591.486 9 107426568.531 9       859.130 9        57.172                  
 02  5 18 00 01  3.0000000  0  7G01G21G23G10G16G07G08                           
  23750687.049 8 124810703.554 8      3391.547 8        48.944                  
  21776817.913 8 114437925.968 8      1780.388 8        51.796                  
  23011877.946 8 120928230.165 8     -2826.589 8        51.022                  
  21316709.531 9 112020056.993 9      -811.026 9        55.417                  
  23485156.585 8 123415331.821 8     -3665.757 8        51.246                  
  24968920.341 7 131212586.025 7     -1911.025 7        44.475                  
  20442429.772 9 107425709.603 9       859.160 9        55.684                  
 02  5 18 00 01  4.0000000  0  7G01G21G23G10G16G07G08                           
  23750042.621 8 124807309.650 8      3394.321 8        48.979                  
  21776478.420 9 114436144.802 9      1781.070 9        54.135                  
  23012413.391 8 120931057.270 8     -2827.038 8        52.872                  
  21316863.634 9 112020867.618 9      -811.154 9        54.754                  
  23485854.942 8 123418999.437 8     -3667.562 8        52.061                  
  24969286.871 7 131214497.593 7     -1912.936 7        46.212                  
  20442268.397 9 107424851.144 9       857.735 9        56.496                  
 02  5 18 00 01  5.0000000  0  7G01G21G23G10G16G07G08                           
  23749396.102 8 124803915.918 8      3396.749 8        48.192                  
  21776135.067 8 114434363.934 8      1780.514 8        53.827                  
  23012953.036 8 120933884.777 8     -2828.922 8        50.787                  
  21317017.790 9 112021678.834 9      -811.458 9        55.895                  
  23486551.995 8 123422667.246 8     -3667.778 8        49.304                  
  24969649.791 7 131216409.508 7     -1909.746 7        46.536                  
  20442107.450 9 107423993.145 9       857.933 9        56.536                  
 02  5 18 00 01  6.0000000  0  7G01G21G23G10G16G07G08                           
  23748750.119 8 124800522.340 8      3393.288 8        48.329                  
  21775797.521 8 114432583.365 8      1779.856 8        51.950                  
  23013490.911 8 120936712.682 8     -2829.849 8        48.914                  
  21317171.624 9 112022490.673 9      -812.962 9        56.006                  
  23487250.995 8 123426335.245 8     -3668.431 8        49.070                  
  24970012.585 7 131218321.779 7     -1909.617 7        45.746                  
  20441946.379 9 107423135.627 9       856.945 9        57.542                  
 02  5 18 00 01  7.0000000  0  7G01G21G23G10G16G07G08                           
  23748104.797 8 124797128.927 8      3391.391 8        49.544                  
  21775462.369 8 114430803.093 8      1781.404 8        52.902                  
  23014028.751 8 120939540.984 8     -2827.129 8        49.287                  
  21317325.780 9 112023303.143 9      -812.083 9        54.893                  
  23487949.102 8 123430003.433 8     -3667.893 8        50.082                  
  24970379.454 7 131220234.395 7     -1911.840 7        46.185                  
  20441785.790 9 107422278.583 9       856.718 9        57.376                  
 02  5 18 00 01  8.0000000  0  7G01G21G23G10G16G07G08                           
  23747458.903 8 124793735.681 8      3393.284 8        48.590                  
  21775123.269 8 114429023.121 8      1779.382 8        52.523                  
  23014567.931 8 120942369.642 8     -2828.145 8        50.015                  
  21317480.133 9 112024116.211 9      -813.595 9        57.636                  
  23488646.691 8 123433671.814 8     -3668.020 8        50.619                  
  24970739.462 8 131222147.370 8     -1912.231 8        48.121                  
  20441624.540 9 107421422.015 9       856.276 9        59.415                  
 02  5 18 00 01  9.0000000  0  7G01G21G23G10G16G07G08                           
  23746812.563 8 124790342.577 8      3394.747 8        48.089                  
  21774779.791 8 114427243.442 8      1779.878 8        53.734                  
  23015105.038 8 120945198.689 8     -2831.173 8        50.543                  
  21317634.092 9 112024929.875 9      -813.333 9        55.932                  
  23489344.708 8 123437340.381 8     -3663.516 8        48.599                  
  24971108.082 7 131224060.696 7     -1914.325 7        47.623                  
  20441460.038 9 107420565.915 9       856.062 9        57.647                  
 02  5 18 00 01 10.0000000  0  7G01G21G23G10G16G07G08                           
  23746168.617 8 124786949.644 8      3393.819 8        49.918                  
  21774442.709 8 114425464.080 8      1779.628 8        53.855                  
  23015645.665 8 120948028.145 8     -2827.936 8        50.357                  
  21317788.356 9 112025744.146 9      -814.534 9        54.975                  
  23490043.655 8 123441009.147 8     -3668.170 8        49.213                  
  24971468.911 8 131225974.373 8     -1911.222 8        48.166                  
  20441295.267 9 107419710.280 9       855.337 9        57.124                  
 02  5 18 00 01 11.0000000  0  7G01G21G23G10G16G07G08                           
  23745521.705 7 124783556.874 7      3393.555 7        47.298                  
  21774108.398 8 114423685.024 8      1778.112 8        51.645                  
  23016181.450 8 120950857.997 8     -2827.782 8        50.651                  
  21317943.798 9 112026559.061 9      -815.277 9        55.937                  
  23490740.333 8 123444678.099 8     -3669.419 8        50.728                  
  24971834.779 8 131227888.396 8     -1911.729 8        48.346                  
  20441129.550 9 107418855.119 9       855.012 9        56.847                  
 02  5 18 00 01 12.0000000  0  7G01G21G23G10G16G07G08                           
  23744875.686 8 124780164.264 8      3391.739 8        49.599                  
  21773768.118 8 114421906.279 8      1777.945 8        53.210                  
  23016721.130 8 120953688.234 8     -2830.704 8        51.036                  
  21318098.276 9 112027374.573 9      -816.072 9        57.120                  
  23491439.780 8 123448347.240 8     -3667.422 8        51.446                  
  24972197.663 7 131229802.772 7     -1910.296 7        47.590                  
  20440964.565 9 107418000.437 9       855.027 9        57.342                  
 02  5 18 00 01 13.0000000  0  7G01G21G23G10G16G07G08                           
  23744230.435 8 124776771.821 8      3392.403 8        49.001                  
  21773425.605 8 114420127.820 8      1778.419 8        52.610                  
  23017260.328 8 120956518.862 8     -2832.052 8        50.507                  
  21318253.433 9 112028190.678 9      -816.638 9        57.566                  
  23492138.244 8 123452016.574 8     -3669.562 8        50.637                  
  24972563.889 7 131231717.505 7     -1914.233 7        46.650                  
  20440798.759 9 107417146.230 9       854.444 9        55.991                  
 02  5 18 00 01 14.0000000  0  7G01G21G23G10G16G07G08                           
  23743586.186 8 124773379.527 8      3390.529 8        48.458                  
  21773090.274 8 114418349.666 8      1777.617 8        52.112                  
  23017797.507 8 120959349.867 8     -2830.196 8        50.616                  
  21318409.054 9 112029007.392 9      -818.156 9        54.547                  
  23492834.904 8 123455686.110 8     -3668.624 8        50.235                  
  24972928.131 7 131233632.593 7     -1915.645 7        46.454                  
  20440636.437 9 107416292.477 9       852.999 9        54.588                  
 02  5 18 00 01 15.0000000  0  7G01G21G23G10G16G07G08                           
  23742939.774 8 124769987.394 8      3393.185 8        48.404                  
  21772755.034 8 114416571.803 8      1777.586 8        52.801                  
  23018338.384 8 120962181.268 8     -2830.886 8        50.226                  
  21318564.371 9 112029824.752 9      -817.842 9        55.269                  
  23493534.744 8 123459355.823 8     -3671.282 8        49.086                  
  24973289.425 7 131235548.025 7     -1916.869 7        46.968                  
  20440476.455 9 107415439.200 9       853.888 9        55.974                  
 02  5 18 00 01 16.0000000  0  7G01G21G23G10G16G07G08                           
  23742293.219 7 124766595.436 7      3391.444 7        47.473                  
  21772413.414 8 114414794.252 8      1777.284 8        52.673                  
  23018874.759 8 120965013.065 8     -2832.919 8        50.723                  
  21318720.118 9 112030642.705 9      -818.158 9        55.526                  
  23494232.583 8 123463025.741 8     -3667.587 8        49.646                  
  24973656.633 7 131237463.800 7     -1915.728 7        46.611                  
  20440316.045 9 107414586.400 9       853.211 9        56.872                  
 02  5 18 00 01 17.0000000  0  7G01G21G23G10G16G07G08                           
  23741649.559 7 124763203.628 7      3393.333 7        46.760                  
  21772072.705 8 114413016.985 8      1777.723 8        53.994                  
  23019415.422 8 120967845.258 8     -2832.011 8        50.329                  
  21318875.739 9 112031461.256 9      -818.447 9        55.760                  
  23494930.601 8 123466695.840 8     -3667.110 8        50.532                  
  24974018.856 8 131239379.935 8     -1917.829 8        49.362                  
  20440155.921 9 107413734.078 9       851.648 9        57.654                  
 02  5 18 00 01 18.0000000  0  7G01G21G23G10G16G07G08                           
  23741004.255 8 124759811.974 8      3389.539 8        48.197                  
  21771737.161 8 114411240.020 8      1778.791 8        53.317                  
  23019953.762 8 120970677.836 8     -2829.962 8        49.881                  
  21319031.807 9 112032280.404 9      -819.768 9        55.335                  
  23495629.959 8 123470366.125 8     -3668.615 8        49.758                  
  24974387.816 7 131241296.416 7     -1917.036 7        47.981                  
  20439995.314 9 107412882.220 9       851.385 9        57.615                  
 02  5 18 00 01 19.0000000  0  7G01G21G23G10G16G07G08                           
  23740357.736 7 124756420.505 7      3394.578 7        47.614                  
  21771402.241 8 114409463.368 8      1776.606 8        52.888                  
  23020492.870 8 120973510.788 8     -2833.229 8        50.412                  
  21319187.125 9 112033100.206 9      -821.552 9        54.965                  
  23496328.208 8 123474036.616 8     -3670.310 8        50.876                  
  24974749.824 8 131243213.253 8     -1918.716 8        48.254                  
  20439836.226 9 107412030.828 9       851.413 9        56.800                  
 02  5 18 00 01 20.0000000  0  7G01G21G23G10G16G07G08                           
  23739713.254 7 124753029.119 7      3388.726 7        46.937                  
  21771060.764 8 114407687.004 8      1777.023 8        50.934                  
  23021032.961 8 120976344.321 8     -2833.943 8        50.907                  
  21319344.569 8 112033920.642 8      -821.279 8        53.314                  
  23497025.583 8 123477706.980 8     -3667.795 8        50.341                  
  24975115.174 7 131245130.524 7     -1921.285 7        47.061                  
  20439675.726 9 107411179.972 9       850.114 9        56.965                  
 02  5 18 00 01 21.0000000  0  7G01G21G23G10G16G07G08                           
  23739067.789 7 124749635.276 7      3393.378 7        46.754                  
  21770720.753 8 114405910.575 8      1776.878 8        51.614                  
  23021572.731 8 120979186.418 8     -2848.863 8        50.983                  
  21319501.191 9 112034742.996 9      -824.522 9        54.536                  
  23497722.921 8 123481364.005 8     -3644.916 8        50.299                  
  24975482.365 7 131247052.091 7     -1926.626 7        46.516                  
  20439512.654 9 107410331.991 9       846.136 9        56.160                  
 02  5 18 00 01 22.0000000  0  7G01G21G23G10G16G07G08                           
  23738418.929 7 124746237.212 7      3401.875 7        47.503                  
  21770385.530 8 114404133.818 8      1776.012 8        53.949                  
  23022116.610 8 120982042.782 8     -2862.507 8        50.758                  
  21319659.475 8 112035568.221 8      -826.764 8        53.653                  
  23498414.435 8 123484998.392 8     -3626.285 8        49.953                  
  24975847.304 7 131248980.683 7     -1930.088 7        46.094                  
  20439350.349 9 107409488.549 9       841.484 9        56.184                  
 02  5 18 00 01 23.0000000  0  7G01G21G23G10G16G07G08                           
  23737772.177 8 124742834.907 8      3403.614 8        48.021                  
  21770049.824 8 114402356.726 8      1777.641 8        52.704                  
  23022663.367 8 120984913.381 8     -2876.801 8        49.246                  
  21319817.526 9 112036396.307 9      -830.462 9        54.967                  
  23499101.052 8 123488610.043 8     -3602.518 8        49.268                  
  24976218.872 7 131250916.280 7     -1940.253 7        45.978                  
  20439188.796 9 107408649.636 9       836.244 9        56.754                  
 02  5 18 00 01 24.0000000  0  7G01G21G23G10G16G07G08                           
  23737126.784 8 124739429.536 8      3403.896 8        49.088                  
  21769707.954 8 114400579.487 8      1777.879 8        53.853                  
  23023209.373 8 120987794.645 8     -2880.949 8        50.514                  
  21319975.971 9 112037226.683 9      -830.447 9        56.689                  
  23499787.026 8 123492204.898 8     -3594.406 8        50.580                  
  24976584.276 7 131252857.160 7     -1942.709 7        45.570                  
  20439028.117 9 107407814.203 9       835.774 9        54.858                  
 02  5 18 00 01 25.0000000  0  7G01G21G23G10G16G07G08                           
  23736472.867 8 124736024.089 8      3405.065 8        48.915                  
  21769367.746 8 114398802.538 8      1776.214 8        53.396                  
  23023759.971 8 120990677.066 8     -2881.564 8        49.766                  
  21320134.308 9 112038057.834 9      -830.572 9        55.837                  
  23500471.928 8 123495798.715 8     -3593.196 8        49.870                  
  24976956.899 7 131254798.739 7     -1944.821 7        47.222                  
  20438867.957 9 107406979.453 9       835.749 9        56.473                  
 02  5 18 00 01 26.0000000  0  7G01G21G23G10G16G07G08                           
  23735826.866 8 124732618.834 8      3404.142 8        50.095                  
  21769033.613 9 114397025.928 9      1776.781 9        54.065                  
  23024308.836 8 120993559.880 8     -2882.389 8        51.613                  
  21320292.771 9 112038889.616 9      -831.121 9        57.082                  
  23501154.346 8 123499392.693 8     -3595.187 8        49.188                  
  24977323.464 7 131256740.647 7     -1942.822 7        47.857                  
  20438706.618 9 107406145.154 9       834.024 9        57.169                  
 02  5 18 00 01 27.0000000  0  7G01G21G23G10G16G07G08                           
  23735178.096 7 124729213.765 7      3403.310 7        47.631                  
  21768697.354 8 114395249.637 8      1776.640 8        52.146                  
  23024855.699 8 120996443.091 8     -2881.970 8        50.828                  
  21320451.501 9 112039721.996 9      -832.879 9        55.807                  
  23501836.835 8 123502986.878 8     -3594.673 8        48.201                  
  24977694.979 8 131258682.894 8     -1941.597 8        49.656                  
  20438546.494 9 107405311.310 9       833.527 9        55.953                  
 02  5 18 00 01 28.0000000  0  7G01G21G23G10G16G07G08                           
  23734534.114 7 124725809.016 7      3404.834 7        45.093                  
  21768355.645 9 114393473.742 9      1775.016 9        54.171                  
  23025405.761 8 120999326.599 8     -2885.056 8        51.872                  
  21320610.250 9 112040554.958 9      -831.891 9        55.109                  
  23502520.718 7 123506581.240 7     -3596.903 7        47.298                  
  24978061.740 8 131260625.657 8     -1944.518 8        49.544                  
  20438388.424 9 107404477.964 9       833.019 9        56.171                  
 02  5 18 00 01 29.0000000  0  7G01G21G23G10G16G07G08                           
  23733886.809 7 124722405.190 7      3402.287 7        47.258                  
  21768016.383 8 114391698.713 8      1776.009 8        52.841                  
  23025955.752 8 121002209.933 8     -2883.817 8        49.235                  
  21320767.979 9 112041388.109 9      -831.201 9        54.048                  
  23503203.315 8 123510175.924 8     -3595.797 8        49.189                  
  24978435.292 8 131262569.439 8     -1943.586 8        48.445                  
  20438231.481 9 107403645.253 9       831.878 9        56.982                  
 02  5 18 00 01 30.0000000  0  7G01G21G23G10G16G07G08                           
  23733239.324 8 124719006.353 8      3392.696 8        49.592                  
  21767682.929 8 114389926.420 8      1771.066 8        53.094                  
  23026500.346 8 121005085.351 8     -2867.231 8        49.765                  
  21320925.334 9 112042219.164 9      -828.557 9        54.675                  
  23503890.486 8 123513781.338 8     -3615.852 8        49.529                  
  24978801.893 7 131264513.544 7     -1944.426 7        46.288                  
  20438074.126 9 107402811.919 9       834.787 9        58.290                  
 02  5 18 00 01 31.0000000  0  7G01G21G23G10G16G07G08                           
  23732594.074 8 124715617.350 8      3387.365 8        49.240                  
  21767347.867 8 114388158.951 8      1765.292 8        52.189                  
  23027046.584 8 121007943.119 8     -2848.947 8        50.956                  
  21321081.849 8 112043045.478 8      -825.187 8        52.594                  
  23504582.839 8 123517410.963 8     -3642.546 8        51.215                  
  24979173.605 7 131266456.454 7     -1943.657 7        45.581                  
  20437916.164 9 107401976.189 9       837.416 9        55.596                  
 02  5 18 00 01 32.0000000  0  7G01G21G23G10G16G07G08                           
  23731948.770 8 124712236.896 8      3374.397 8        48.803                  
  21767009.035 9 114386395.924 9      1758.505 9        54.070                  
  23027587.122 8 121010786.619 8     -2839.100 8        50.615                  
  21321237.434 8 112043867.696 8      -818.957 8        53.276                  
  23505275.514 8 123521059.530 8     -3646.907 8        50.549                  
  24979540.670 7 131268399.355 7     -1949.303 7        44.730                  
  20437758.845 9 107401138.940 9       835.371 9        56.152                  
 02  5 18 00 01 33.0000000  0  7G01G21G23G10G16G07G08                           
  23731311.346 8 124708873.215 8      3351.971 8        50.070                  
  21766673.884 8 114384646.327 8      1740.560 8        52.395                  
  23028125.159 8 121013620.962 8     -2829.355 8        49.772                  
  21321391.823 9 112044680.690 9      -807.459 9        54.448                  
  23505968.993 8 123524704.282 8     -3643.055 8        49.540                  
  24979917.581 7 131270362.475 7     -1976.311 7        46.946                  
  20437602.759 9 107400307.672 9       826.997 9        56.544                  
 02  5 18 00 01 34.0000000  0  7G01G21G23G10G16G07G08                           
  23730675.030 8 124705531.210 8      3332.011 8        48.709                  
  21766346.612 8 114382914.248 8      1725.377 8        52.702                  
  23028663.803 8 121016444.245 8     -2818.518 8        50.697                  
  21321544.156 8 112045481.529 8      -796.372 8        52.876                  
  23506662.740 8 123528342.144 8     -3635.087 8        49.698                  
  24980294.403 7 131272352.515 7     -2001.634 7        47.239                  
  20437446.548 9 107399484.457 9       820.152 9        56.240                  
 02  5 18 00 01 35.0000000  0  7G01G21G23G10G16G07G08                           
  23730040.287 8 124702200.012 8      3330.898 8        48.368                  
  21766021.807 8 114381190.893 8      1723.679 8        52.544                  
  23029198.605 8 121019261.944 8     -2817.513 8        52.075                  
  21321695.507 9 112046276.659 9      -795.214 9        54.519                  
  23507352.306 8 123531977.318 8     -3637.176 8        48.897                  
  24980677.497 7 131274355.799 7     -2002.640 7        47.519                  
  20437292.213 9 107398665.308 9       819.023 9        57.190                  
 02  5 18 00 01 36.0000000  0  7G01G21G23G10G16G07G08                           
  23729405.919 8 124698869.643 8      3329.973 8        48.072                  
  21765694.071 8 114379468.283 8      1721.437 8        51.430                  
  23029735.497 8 121022079.319 8     -2817.816 8        52.099                  
  21321847.340 8 112047072.036 8      -795.400 8        53.928                  
  23508047.017 8 123535613.257 8     -3635.519 8        49.473                  
  24981056.589 7 131276359.837 7     -2004.305 7        46.945                  
  20437137.217 9 107397846.649 9       818.729 9        54.387                  
 02  5 18 00 01 37.0000000  0  7G01G21G23G10G16G07G08                           
  23728772.962 7 124695539.545 7      3330.874 7        47.742                  
  21765363.495 8 114377746.045 8      1722.637 8        52.891                  
  23030271.532 8 121024896.966 8     -2817.904 8        50.336                  
  21321998.154 9 112047867.947 9      -795.963 9        55.532                  
  23508737.119 8 123539249.526 8     -3637.396 8        49.642                  
  24981441.362 7 131278364.260 7     -2005.556 7        46.510                  
  20436983.329 9 107397028.444 9       816.712 9        54.416                  
 02  5 18 00 01 38.0000000  0  7G01G21G23G10G16G07G08                           
  23728139.487 8 124692209.631 8      3331.986 8        48.381                  
  21765033.346 8 114376024.098 8      1722.178 8        53.924                  
  23030808.764 8 121027714.957 8     -2819.189 8        49.654                  
  21322149.344 9 112048664.456 9      -796.603 9        56.052                  
  23509429.615 8 123542885.991 8     -3636.383 8        49.652                  
  24981820.132 7 131280369.050 7     -2008.795 7        47.233                  
  20436827.297 9 107396210.694 9       817.396 9        55.616                  
 02  5 18 00 01 39.0000000  0  7G01G21G23G10G16G07G08                           
  23727505.745 7 124688879.951 7      3329.415 7        47.958                  
  21764707.773 8 114374302.490 8      1722.115 8        53.537                  
  23031346.854 8 121030533.286 8     -2818.286 8        50.006                  
  21322301.070 9 112049461.575 9      -797.818 9        56.451                  
  23510121.486 8 123546522.686 8     -3637.979 8        49.465                  
  24982204.084 8 131282374.199 8     -2006.628 8        48.697                  
  20436670.675 9 107395393.395 9       816.676 9        55.532                  
 02  5 18 00 01 40.0000000  0  7G01G21G23G10G16G07G08                           
  23726871.001 7 124685550.643 7      3328.395 7        46.986                  
  21764383.075 8 114372581.324 8      1719.436 8        53.308                  
  23031880.227 8 121033351.741 8     -2817.792 8        50.679                  
  21322453.314 9 112050259.179 9      -798.042 9        55.221                  
  23510813.500 8 123550159.784 8     -3636.954 8        50.741                  
  24982582.782 8 131284379.772 8     -2006.305 8        48.119                  
  20436514.178 9 107394576.538 9       816.629 9        56.732                  
 02  5 18 00 01 41.0000000  0  7G01G21G23G10G16G07G08                           
  23726239.010 8 124682220.974 8      3332.561 8        48.184                  
  21764056.804 8 114370859.788 8      1725.148 8        53.225                  
  23032418.352 8 121036169.934 8     -2820.271 8        50.388                  
  21322605.112 9 112051057.744 9      -801.492 9        56.523                  
  23511506.889 8 123553799.214 8     -3642.467 8        50.115                  
  24982967.538 7 131286384.125 7     -1998.153 7        46.335                  
  20436358.074 9 107393759.511 9       817.517 9        56.571                  
 02  5 18 00 01 42.0000000  0  7G01G21G23G10G16G07G08                           
  23725604.016 7 124678880.183 7      3351.527 7        47.476                  
  21763725.102 8 114369128.503 8      1737.796 8        53.574                  
  23032952.618 8 121038990.545 8     -2820.653 8        51.509                  
  21322758.624 9 112051863.715 9      -810.276 9        57.282                  
  23512200.154 8 123557450.951 8     -3660.671 8        51.287                  
  24983342.430 7 131288370.687 7     -1974.427 7        44.743                  
  20436200.755 9 107392937.037 9       826.285 9        55.875                  
 02  5 18 00 01 43.0000000  0  7G01G21G23G10G16G07G08                           
  23724964.627 7 124675529.092 7      3348.203 7        47.928                  
  21763389.486 8 114367387.939 8      1738.820 8        53.376                  
  23033491.798 8 121041812.324 8     -2817.971 8        50.088                  
  21322912.530 8 112052676.664 8      -811.900 8        52.799                  
  23512898.618 8 123561116.410 8     -3669.848 8        50.708                  
  24983718.734 7 131290339.623 7     -1967.768 7        46.547                  
  20436041.346 9 107392109.050 9       827.869 9        54.865                  
 02  5 18 00 01 44.0000000  0  7G01G21G23G10G16G07G08                           
  23724328.811 8 124672193.834 8      3323.491 8        48.647                  
  21763061.571 9 114365658.754 9      1719.588 9        54.106                  
  23034025.224 8 121044620.312 8     -2800.812 8        48.594                  
  21323066.525 9 112053481.053 9      -796.478 9        54.504                  
  23513597.690 8 123564789.178 8     -3678.305 8        50.024                  
  24984093.376 7 131292322.249 7     -1994.003 7        47.362                  
  20435882.633 9 107391284.230 9       822.031 9        57.286                  
 02  5 18 00 01 45.0000000  0  7G01G21G23G10G16G07G08                           
  23723698.678 8 124668882.592 8      3305.929 8        49.341                  
  21762738.946 8 114363947.352 8      1706.012 8        53.728                  
  23034553.361 8 121047409.590 8     -2785.770 8        49.649                  
  21323217.554 8 112054272.003 8      -788.183 8        53.041                  
  23514297.119 8 123568467.772 8     -3681.504 8        50.846                  
  24984477.738 7 131294328.101 7     -2011.643 7        46.032                  
  20435726.101 9 107390465.175 9       817.369 9        56.478                  
 02  5 18 00 01 46.0000000  0  7G01G21G23G10G16G07G08                           
  23723071.457 8 124665577.550 8      3304.608 8        48.617                  
  21762416.875 8 114362240.547 8      1706.520 8        52.010                  
  23035086.894 8 121050193.983 8     -2783.963 8        51.781                  
  21323366.100 9 112055060.024 9      -787.955 9        54.155                  
  23514997.835 8 123572148.813 8     -3681.267 8        50.176                  
  24984860.171 7 131296339.683 7     -2008.865 7        47.461                  
  20435568.996 9 107389647.720 9       816.434 9        54.105                  
 02  5 18 00 01 47.0000000  0  7G01G21G23G10G16G07G08                           
  23722443.433 7 124662272.788 7      3303.477 7        47.389                  
  21762090.569 8 114360534.068 8      1705.288 8        51.665                  
  23035616.925 8 121052978.520 8     -2786.231 8        51.242                  
  21323516.289 9 112055848.590 9      -788.885 9        55.512                  
  23515699.981 8 123575830.476 8     -3681.229 8        50.696                  
  24985242.372 7 131298351.518 7     -2012.474 7        45.825                  
  20435412.374 9 107388830.662 9       815.667 9        55.490                  
 02  5 18 00 01 48.0000000  0  7G01G21G23G10G16G07G08                           
  23721814.354 8 124658968.181 8      3306.347 8        48.998                  
  21761761.707 8 114358827.874 8      1705.783 8        53.998                  
  23036143.901 8 121055763.385 8     -2785.793 8        48.999                  
  21323667.264 9 112056637.759 9      -789.265 9        54.808                  
  23516399.749 8 123579512.394 8     -3684.914 8        48.531                  
  24985627.074 7 131300363.699 7     -2011.122 7        45.279                  
  20435255.788 8 107388014.041 8       816.811 8        53.790                  
 02  5 18 00 01 49.0000000  0  7G01G21G23G10G16G07G08                           
  23721184.703 7 124655663.740 7      3308.395 7        47.089                  
  21761436.062 8 114357121.989 8      1705.933 8        52.390                  
  23036676.576 8 121058548.627 8     -2784.954 8        50.980                  
  21323816.935 9 112057427.509 9      -790.789 9        55.770                  
  23517099.179 8 123583194.503 8     -3683.968 8        48.466                  
  24986007.344 7 131302376.216 7     -2016.714 7        44.460                  
  20435099.505 9 107387197.851 9       816.585 9        55.138                  
 02  5 18 00 01 50.0000000  0  7G01G21G23G10G16G07G08                           
  23720554.552 7 124652359.459 7      3305.692 7        47.329                  
  21761112.651 8 114355416.376 8      1704.880 8        52.520                  
  23037205.642 8 121061334.244 8     -2784.964 8        51.441                  
  21323967.839 9 112058217.903 9      -791.039 9        57.244                  
  23517801.521 8 123586876.818 8     -3684.701 8        49.266                  
  24986393.744 7 131304389.100 7     -2012.287 7        45.267                  
  20434944.617 9 107386382.137 9       815.499 9        57.632                  
 02  5 18 00 01 51.0000000  0  7G01G21G23G10G16G07G08                           
  23719927.331 8 124649055.361 8      3304.265 8        48.479                  
  21760790.544 8 114353711.064 8      1703.436 8        49.936                  
  23037735.048 8 121064120.234 8     -2785.443 8        50.648                  
  21324117.635 9 112059008.879 9      -791.785 9        54.671                  
  23518500.789 8 123590559.336 8     -3680.870 8        49.582                  
  24986773.300 7 131306402.315 7     -2012.372 7        45.871                  
  20434790.210 9 107385566.901 9       813.714 9        54.358                  
 02  5 18 00 01 52.0000000  0  7G01G21G23G10G16G07G08                           
  23719298.878 7 124645751.422 7      3301.521 7        47.573                  
  21760468.508 8 114352006.025 8      1704.759 8        52.591                  
  23038265.776 8 121066906.570 8     -2787.461 8        52.327                  
  21324269.093 8 112059800.468 8      -792.959 8        53.596                  
  23519201.970 8 123594242.072 8     -3683.517 8        48.911                  
  24987159.611 7 131308415.871 7     -2015.856 7        46.855                  
  20434635.733 9 107384752.094 9       814.826 9        54.322                  
 02  5 18 00 01 53.0000000  0  7G01G21G23G10G16G07G08                           
  23718670.496 8 124642447.693 8      3302.479 8        48.202                  
  21760143.578 9 114350301.296 9      1703.626 9        54.319                  
  23038793.394 8 121069693.196 8     -2789.247 8        51.137                  
  21324419.318 9 112060592.610 9      -792.436 9        54.434                  
  23519903.900 8 123597925.198 8     -3683.149 8        50.166                  
  24987540.167 7 131310429.715 7     -2008.892 7        46.950                  
  20434482.059 9 107383937.705 9       813.655 9        55.883                  
 02  5 18 00 01 54.0000000  0  7G01G21G23G10G16G07G08                           
  23718039.594 8 124639144.396 8      3305.568 8        49.036                  
  21759815.967 9 114348596.925 9      1704.031 9        54.133                  
  23039325.123 8 121072479.439 8     -2785.569 8        50.651                  
  21324570.597 9 112061385.219 9      -794.205 9        56.044                  
  23520604.080 8 123601609.695 8     -3687.697 8        52.130                  
  24987925.888 7 131312443.642 7     -2010.951 7        45.948                  
  20434327.510 9 107383123.611 9       814.279 9        56.124                  
 02  5 18 00 01 55.0000000  0  7G01G21G23G10G16G07G08                           
  23717413.553 8 124635842.150 8      3303.944 8        48.329                  
  21759489.143 8 114346892.960 8      1705.430 8        53.231                  
  23039855.243 8 121075263.182 8     -2784.999 8        50.610                  
  21324720.625 9 112062177.964 9      -793.058 9        56.019                  
  23521304.832 8 123605299.098 8     -3692.944 8        51.177                  
  24988307.642 7 131314456.559 7     -2012.047 7        47.051                  
  20434173.014 9 107382309.149 9       815.312 9        56.530                  
 02  5 18 00 01 56.0000000  0  7G01G21G23G10G16G07G08                           
  23716784.313 8 124632540.527 8      3302.007 8        49.154                  
  21759166.214 8 114345189.246 8      1704.531 8        51.065                  
  23040387.508 8 121078045.402 8     -2784.399 8        50.427                  
  21324871.261 9 112062971.038 9      -793.452 9        57.201                  
  23522008.496 8 123608992.058 8     -3691.359 8        49.561                  
  24988689.967 7 131316468.721 7     -2012.823 7        47.946                  
  20434019.109 9 107381494.508 9       814.347 9        55.421                  
 02  5 18 00 01 57.0000000  0  7G01G21G23G10G16G07G08                           
  23716157.486 8 124629239.162 8      3300.806 8        49.527                  
  21758844.732 8 114343485.780 8      1702.152 8        52.369                  
  23040913.876 8 121080827.634 8     -2784.173 8        50.858                  
  21325022.612 9 112063764.675 9      -793.564 9        56.069                  
  23522712.268 8 123612685.847 8     -3696.868 8        49.689                  
  24989074.741 7 131318480.984 7     -2012.425 7        47.774                  
  20433864.935 9 107380680.190 9       814.159 9        54.969                  
 02  5 18 00 01 58.0000000  0  7G01G21G23G10G16G07G08                           
  23715525.959 8 124625937.963 8      3296.558 8        48.413                  
  21758522.804 9 114341782.613 9      1703.444 9        54.745                  
  23041444.585 8 121083610.163 8     -2783.330 8        50.035                  
  21325173.819 9 112064558.906 9      -795.594 9        55.010                  
  23523416.003 8 123616379.959 8     -3690.706 8        48.944                  
  24989455.190 7 131320493.565 7     -2013.349 7        47.519                  
  20433711.064 9 107379866.290 9       813.304 9        57.697                  
 02  5 18 00 01 59.0000000  0  7G01G21G23G10G16G07G08                           
  23714899.971 8 124622636.913 8      3303.527 8        48.001                  
  21758198.660 8 114340079.719 8      1703.168 8        52.171                  
  23041973.830 8 121086393.085 8     -2783.234 8        50.933                  
  21325325.116 9 112065353.759 9      -796.390 9        55.479                  
  23524118.256 8 123620074.282 8     -3692.670 8        49.880                  
  24989840.589 7 131322506.468 7     -2011.463 7        44.647                  
  20433556.926 9 107379052.864 9       813.584 9        57.671                  
 02  5 18 00 02  0.0000000  0  7G01G21G23G10G16G07G08                           
  23714270.963 7 124619336.057 7      3299.467 7        47.209                  
  21757871.817 8 114338377.114 8      1703.162 8        53.837                  
  23042503.843 8 121089176.382 8     -2782.850 8        52.185                  
  21325476.199 9 112066149.193 9      -797.264 9        55.377                  
  23524821.688 8 123623768.792 8     -3695.455 8        50.418                  
  24990220.753 7 131324519.748 7     -2015.018 7        46.585                  
  20433402.663 9 107378239.881 9       814.079 9        56.604                  
 02  5 18 00 02  1.0000000  0  7G01G21G23G10G16G07G08                           
  23713645.566 8 124616035.335 8      3300.046 8        48.037                  
  21757545.922 8 114336674.819 8      1701.364 8        53.729                  
  23043033.570 8 121091960.070 8     -2783.866 8        50.089                  
  21325627.657 8 112066945.212 8      -793.484 8        52.353                  
  23525522.761 8 123627463.475 8     -3695.591 8        50.699                  
  24990608.010 7 131326533.362 7     -2012.492 7        45.531                  
  20433248.686 9 107377427.362 9       813.343 9        54.235                  
 02  5 18 00 02  2.0000000  0  7G01G21G23G10G16G07G08                           
  23713017.094 8 124612734.768 8      3300.828 8        49.798                  
  21757221.707 9 114334972.795 9      1701.217 9        55.608                  
  23043562.601 8 121094744.135 8     -2785.449 8        48.850                  
  21325778.954 8 112067741.829 8      -797.522 8        52.321                  
  23526227.730 8 123631158.361 8     -3695.394 8        50.044                  
  24990988.120 7 131328547.324 7     -2013.476 7        45.923                  
  20433095.673 9 107376615.321 9       812.132 9        54.829                  
 02  5 18 00 02  3.0000000  0  7G01G21G23G10G16G07G08                           
  23712386.836 8 124609434.370 8      3300.821 8        51.198                  
  21756900.136 8 114333271.068 8      1701.116 8        53.670                  
  23044093.078 8 121097528.565 8     -2782.365 8        49.804                  
  21325931.234 9 112068539.076 9      -796.997 9        54.276                  
  23526931.823 8 123634853.422 8     -3696.543 8        50.519                  
  24991372.912 7 131330561.657 7     -2015.378 7        46.682                  
  20432942.250 9 107375803.732 9       811.399 9        55.900                  
 02  5 18 00 02  4.0000000  0  7G01G21G23G10G16G07G08                           
  23711758.043 7 124606134.114 7      3302.431 7        47.995                  
  21756579.065 8 114331569.606 8      1699.871 8        52.738                  
  23044622.949 8 121100313.384 8     -2783.442 8        49.707                  
  21326082.656 8 112069336.935 8      -798.634 8        53.859                  
  23527634.308 8 123638548.669 8     -3693.251 8        51.620                  
  24991755.970 7 131332576.328 7     -2011.792 7        47.584                  
  20432788.665 9 107374992.596 9       810.982 9        57.906                  
 02  5 18 00 02  5.0000000  0  7G01G21G23G10G16G07G08                           
  23711133.395 8 124602834.045 8      3297.539 8        49.263                  
  21756255.725 8 114329868.455 8      1700.243 8        50.822                  
  23045153.980 8 121103098.601 8     -2785.319 8        50.205                  
  21326234.953 9 112070135.386 9      -798.693 9        56.908                  
  23528334.791 8 123642244.105 8     -3697.050 8        51.307                  
  24992138.260 8 131334591.358 8     -2015.089 8        48.874                  
  20432635.135 9 107374181.925 9       809.817 9        57.231                  
 02  5 18 00 02  6.0000000  0  7G01G21G23G10G16G07G08                           
  23710498.563 7 124599534.113 7      3302.720 7        47.518                  
  21755930.348 8 114328167.576 8      1701.202 8        53.331                  
  23045682.063 8 121105884.194 8     -2786.852 8        50.458                  
  21326387.894 9 112070934.432 9      -799.232 9        55.417                  
  23529044.156 8 123645939.733 8     -3694.231 8        51.028                  
  24992524.195 7 131336606.745 7     -2014.021 7        46.249                  
  20432480.818 9 107373371.719 9       810.110 9        55.643                  
 02  5 18 00 02  7.0000000  0  7G01G21G23G10G16G07G08                           
  23709875.273 8 124596234.357 8      3299.714 8        49.656                  
  21755603.023 8 114326466.981 8      1701.910 8        53.871                  
  23046213.059 8 121108670.161 8     -2784.050 8        50.045                  
  21326540.049 8 112071734.087 8      -799.690 8        53.130                  
  23529744.765 8 123649635.524 8     -3697.125 8        50.901                  
  24992904.108 7 131338622.490 7     -2017.272 7        45.581                  
  20432326.698 9 107372561.967 9       810.032 9        55.478                  
 02  5 18 00 02  8.0000000  0  7G01G21G23G10G16G07G08                           
  23709246.623 8 124592934.751 8      3297.975 8        49.115                  
  21755279.236 9 114324766.691 9      1700.348 9        54.452                  
  23046742.590 8 121111456.499 8     -2786.769 8        48.877                  
  21326692.722 9 112072534.341 9      -800.477 9        54.414                  
  23530447.928 8 123653331.527 8     -3697.466 8        49.238                  
  24993292.438 7 131340638.593 7     -2019.113 7        44.472                  
  20432171.791 9 107371752.679 9       809.414 9        57.542                  
 02  5 18 00 02  9.0000000  0  7G01G21G23G10G16G07G08                           
  23708621.314 8 124589635.300 8      3298.652 8        48.512                  
  21754957.558 9 114323066.670 9      1699.399 9        54.318                  
  23047276.070 8 121114243.225 8     -2786.841 8        50.720                  
  21326845.002 8 112073335.191 8      -801.275 8        53.683                  
  23531149.877 8 123657027.707 8     -3698.621 8        49.110                  
  24993672.423 7 131342655.040 7     -2016.180 7        45.021                  
  20432016.974 9 107370943.855 9       808.272 9        55.541                  
 02  5 18 00 02 10.0000000  0  7G01G21G23G10G16G07G08                           
  23707992.593 7 124586336.020 7      3298.962 7        47.703                  
  21754637.185 8 114321366.935 8      1700.107 8        53.027                  
  23047804.010 8 121117030.360 8     -2785.148 8        49.268                  
  21326998.229 9 112074136.636 9      -800.957 9        56.523                  
  23531852.702 8 123660724.059 8     -3694.612 8        48.561                  
  24994059.037 7 131344671.848 7     -2019.151 7        46.022                  
  20431862.746 9 107370135.473 9       808.366 9        57.137                  
 02  5 18 00 02 11.0000000  0  7G01G21G23G10G16G07G08                           
  23707364.104 8 124583036.895 8      3297.926 8        48.862                  
  21754314.470 9 114319667.502 9      1699.429 9        55.124                  
  23048334.988 8 121119817.862 8     -2789.462 8        48.686                  
  21327151.473 9 112074938.674 9      -803.636 9        55.307                  
  23532555.562 8 123664420.633 8     -3696.772 8        48.638                  
  24994440.809 7 131346688.987 7     -2018.260 7        46.084                  
  20431708.072 9 107369327.557 9       807.966 9        57.449                  
 02  5 18 00 02 12.0000000  0  7G01G21G23G10G16G07G08                           
  23706736.043 8 124579737.923 8      3300.940 8        48.747                  
  21753989.718 8 114317968.348 8      1699.755 8        53.181                  
  23048865.198 8 121122605.726 8     -2791.363 8        49.358                  
  21327304.254 8 112075741.334 8      -802.752 8        52.882                  
  23533259.816 8 123668117.390 8     -3695.439 8        48.582                  
  24994824.903 8 131348706.465 8     -2018.010 8        49.559                  
  20431553.737 9 107368520.104 9       807.262 9        55.760                  
 02  5 18 00 02 13.0000000  0  7G01G21G23G10G16G07G08                           
  23706107.179 7 124576439.125 7      3298.454 7        47.273                  
  21753663.376 9 114316269.465 9      1698.957 9        54.362                  
