$GPRMC,000030.00,A,4852.4420410,N,00217.6076254,E,1.05,0.00,180502,0.0,E,A*30
$GPGGA,000030.00,4852.4420410,N,00217.6076254,E,1,06,1.0,-4.472,M,0.000,M,0.0,*52
$GPGSA,A,3,01,08,10,16,21,23,,,,,,,2.2,1.3,1.8,1*29
$GPGSV,2,1,06,01,15,255,47,08,73,299,56,10,56,076,55,16,27,182,50,1*67
$GPGSV,2,2,06,21,45,263,54,23,28,048,50,,,,,,,,,1*64
$GPRMC,000031.00,A,4852.4414440,N,00217.6091287,E,0.61,0.00,180502,0.0,E,A*37
$GPGGA,000031.00,4852.4414440,N,00217.6091287,E,1,06,1.0,-8.274,M,0.000,M,0.0,*5A
$GPGSA,A,3,01,08,10,16,21,23,,,,,,,2.2,1.3,1.8,1*29
$GPGSV,2,1,06,01,15,255,46,08,73,299,57,10,56,076,54,16,27,182,51,1*67
$GPGSV,2,2,06,21,45,263,54,23,28,048,50,,,,,,,,,1*64
$GPRMC,000032.00,A,4852.4407613,N,00217.6104777,E,0.43,0.00,180502,0.0,E,A*35
$GPGGA,000032.00,4852.4407613,N,00217.6104777,E,1,06,1.0,-10.919,M,0.000,M,0.0,*61
$GPGSA,A,3,01,08,10,16,21,23,,,,,,,2.2,1.3,1.8,1*29
$GPGSV,2,1,06,01,15,255,47,08,73,299,58,10,56,076,55,16,27,182,51,1*68
$GPGSV,2,2,06,21,45,263,53,23,28,048,52,,,,,,,,,1*61
$GPRMC,000033.00,A,4852.4409806,N,00217.6079864,E,1.48,0.00,180502,0.0,E,A*3C
$GPGGA,000033.00,4852.4409806,N,00217.6079864,E,1,06,1.0,-11.353,M,0.000,M,0.0,*67
$GPGSA,A,3,01,08,10,16,21,23,,,,,,,2.2,1.3,1.8,1*29
$GPGSV,2,1,06,01,15,255,48,08,73,299,57,10,56,076,54,16,27,182,49,1*60
$GPGSV,2,2,06,21,45,263,53,23,28,048,51,,,,,,,,,1*62
$GPRMC,000034.00,A,4852.4417203,N,00217.6091847,E,0.85,0.00,180502,0.0,E,A*3C
$GPGGA,000034.00,4852.4417203,N,00217.6091847,E,1,06,1.0,-16.152,M,0.000,M,0.0,*63
$GPGSA,A,3,01,08,10,16,21,23,,,,,,,2.2,1.3,1.8,1*29
$GPGSV,2,1,06,01,15,255,48,08,73,299,56,10,56,076,54,16,27,182,50,1*69
$GPGSV,2,2,06,21,45,263,52,23,28,048,50,,,,,,,,,1*62
$GPRMC,000035.00,A,4852.4408554,N,00217.6097906,E,0.71,0.00,180502,0.0,E,A*3F
$GPGGA,000035.00,4852.4408554,N,00217.6097906,E,1,06,1.0,-13.104,M,0.000,M,0.0,*6D
$GPGSA,A,3,01,08,10,16,21,23,,,,,,,2.2,1.3,1.8,1*29
$GPGSV,2,1,06,01,15,255,47,08,73,299,58,10,56,076,57,16,27,182,50,1*6B
$GPGSV,2,2,06,21,45,263,52,23,27,048,51,,,,,,,,,1*6C
$GPRMC,000036.00,A,4852.4415154,N,00217.6085517,E,0.38,0.00,180502,0.0,E,A*36
$GPGGA,000036.00,4852.4415154,N,00217.6085517,E,1,06,1.0,-8.526,M,0.000,M,0.0,*57
$GPGSA,A,3,01,08,10,16,21,23,,,,,,,2.2,1.3,1.8,1*29
$GPGSV,2,1,06,01,15,255,49,08,73,299,57,10,56,076,58,16,27,182,50,1*65
$GPGSV,2,2,06,21,45,263,54,23,27,048,50,,,,,,,,,1*6B
$GPRMC,000037.00,A,4852.4420850,N,00217.6071505,E,1.22,0.00,180502,0.0,E,A*3E
$GPGGA,000037.00,4852.4420850,N,00217.6071505,E,1,06,1.0,-7.172,M,0.000,M,0.0,*5F
$GPGSA,A,3,01,08,10,16,21,23,,,,,,,2.2,1.3,1.8,1*29
$GPGSV,2,1,06,01,15,255,47,08,73,299,59,10,56,076,56,16,27,182,49,1*63
$GPGSV,2,2,06,21,45,263,54,23,27,048,50,,,,,,,,,1*6B
$GPRMC,000038.00,A,4852.4414167,N,00217.6071001,E,1.26,0.00,180502,0.0,E,A*3E
$GPGGA,000038.00,4852.4414167,N,00217.6071001,E,1,06,1.0,-1.123,M,0.000,M,0.0,*59
$GPGSA,A,3,01,08,10,16,21,23,,,,,,,2.2,1.3,1.8,1*29
$GPGSV,2,1,06,01,15,255,47,08,73,299,54,10,56,076,55,16,27,182,50,1*65
$GPGSV,2,2,06,21,45,263,53,23,27,048,50,,,,,,,,,1*6C
$GPRMC,000039.00,A,4852.4422097,N,00217.6083875,E,0.75,0.00,180502,0.0,E,A*35
$GPGGA,000039.00,4852.4422097,N,00217.6083875,E,1,06,1.0,-4.216,M,0.000,M,0.0,*55
$GPGSA,A,3,01,08,10,16,21,23,,,,,,,2.2,1.3,1.8,1*29
$GPGSV,2,1,06,01,15,255,48,08,73,299,56,10,56,076,54,16,27,182,50,1*69
$GPGSV,2,2,06,21,45,263,52,23,27,048,51,,,,,,,,,1*6C
$GPRMC,000040.00,A,4852.4414757,N,00217.6075823,E,0.33,0.00,180502,0.0,E,A*3D
$GPGGA,000040.00,4852.4414757,N,00217.6075823,E,1,06,1.0,-6.181,M,0.000,M,0.0,*50
$GPGSA,A,3,01,08,10,16,21,23,,,,,,,2.2,1.3,1.8,1*29
$GPGSV,2,1,06,01,15,255,48,08,73,299,58,10,56,076,55,16,27,182,50,1*66
$GPGSV,2,2,06,21,45,263,52,23,27,048,50,,,,,,,,,1*6D
$GPRMC,000041.00,A,4852.4418474,N,00217.6074012,E,0.58,0.00,180502,0.0,E,A*34
$GPGGA,000041.00,4852.4418474,N,00217.6074012,E,1,06,1.0,-8.779,M,0.000,M,0.0,*5B
$GPGSA,A,3,01,08,10,16,21,23,,,,,,,2.2,1.3,1.8,1*29
$GPGSV,2,1,06,01,15,255,47,08,73,299,55,10,56,076,54,16,27,182,50,1*65
$GPGSV,2,2,06,21,45,263,54,23,27,048,50,,,,,,,,,1*6B
$GPRMC,000042.00,A,4852.4419028,N,00217.6086919,E,0.92,0.00,180502,0.0,E,A*32
$GPGGA,000042.00,4852.4419028,N,00217.6086919,E,1,06,1.0,-11.944,M,0.000,M,0.0,*63
$GPGSA,A,3,01,08,10,16,21,23,,,,,,,2.2,1.3,1.8,1*29
$GPGSV,2,1,06,01,15,255,49,08,73,299,57,10,56,076,54,16,27,182,50,1*69
$GPGSV,2,2,06,21,45,263,54,23,27,048,50,,,,,,,,,1*6B
$GPRMC,000043.00,A,4852.4413031,N,00217.6096318,E,1.73,0.00,180502,0.0,E,A*35
$GPGGA,000043.00,4852.4413031,N,00217.6096318,E,1,06,1.0,-15.937,M,0.000,M,0.0,*6A
$GPGSA,A,3,01,08,10,16,21,23,,,,,,,2.2,1.3,1.8,1*29
$GPGSV,2,1,06,01,15,255,47,08,73,299,56,10,56,076,55,16,27,182,48,1*6E
$GPGSV,2,2,06,21,45,263,54,23,27,048,52,,,,,,,,,1*69
$GPRMC,000044.00,A,4852.4415293,N,00217.6089196,E,0.69,0.00,180502,0.0,E,A*3E
$GPGGA,000044.00,4852.4415293,N,00217.6089196,E,1,06,1.0,-17.302,M,0.000,M,0.0,*65
$GPGSA,A,3,01,08,10,16,21,23,,,,,,,2.2,1.3,1.8,1*29
$GPGSV,2,1,06,01,15,255,48,08,73,299,58,10,56,076,56,16,27,182,47,1*63
$GPGSV,2,2,06,21,45,263,52,23,27,048,51,,,,,,,,,1*6C
$GPRMC,000045.00,A,4852.4415756,N,00217.6075917,E,1.23,0.00,180502,0.0,E,A*3E
$GPGGA,000045.00,4852.4415756,N,00217.6075917,E,1,06,1.0,-11.599,M,0.000,M,0.0,*68
$GPGSA,A,3,01,08,10,16,21,23,,,,,,,2.2,1.3,1.8,1*29
$GPGSV,2,1,06,01,15,255,48,08,73,299,57,10,56,076,56,16,27,182,48,1*63
$GPGSV,2,2,06,21,45,263,52,23,27,048,50,,,,,,,,,1*6D
$GPRMC,000046.00,A,4852.4413813,N,00217.6089837,E,1.10,0.00,180502,0.0,E,A*35
$GPGGA,000046.00,4852.4413813,N,00217.6089837,E,1,06,1.0,-13.323,M,0.000,M,0.0,*66
$GPGSA,A,3,01,08,10,16,21,23,,,,,,,2.2,1.3,1.8,1*29
$GPGSV,2,1,06,01,15,255,49,08,73,299,55,10,56,076,56,16,27,182,49,1*61
$GPGSV,2,2,06,21,45,263,51,23,27,048,50,,,,,,,,,1*6E
$GPRMC,000047.00,A,4852.4411423,N,00217.6086953,E,0.91,0.00,180502,0.0,E,A*3D
$GPGGA,000047.00,4852.4411423,N,00217.6086953,E,1,06,1.0,-9.238,M,0.000,M,0.0,*56
$GPGSA,A,3,01,08,10,16,21,23,,,,,,,2.2,1.3,1.8,1*29
$GPGSV,2,1,06,01,15,255,50,08,73,299,57,10,56,076,57,16,27,182,48,1*6B
$GPGSV,2,2,06,21,45,263,52,23,27,048,51,,,,,,,,,1*6C
$GPRMC,000048.00,A,4852.4419174,N,00217.6066474,E,1.71,0.00,180502,0.0,E,A*34
$GPGGA,000048.00,4852.4419174,N,00217.6066474,E,1,06,1.0,-2.565,M,0.000,M,0.0,*54
$GPGSA,A,3,01,08,10,16,21,23,,,,,,,2.2,1.3,1.8,1*29
$GPGSV,2,1,06,01,15,255,50,08,73,299,56,10,56,076,55,16,27,182,50,1*61
$GPGSV,2,2,06,21,45,263,54,23,27,048,50,,,,,,,,,1*6B
$GPRMC,000049.00,A,4852.4421823,N,00217.6065488,E,0.43,0.00,180502,0.0,E,A*35
$GPGGA,000049.00,4852.4421823,N,00217.6065488,E,1,06,1.0,-3.175,M,0.000,M,0.0,*51
$GPGSA,A,3,01,08,10,16,21,23,,,,,,,2.2,1.3,1.8,1*29
$GPGSV,2,1,06,01,15,255,49,08,73,299,57,10,56,076,54,16,27,182,49,1*61
$GPGSV,2,2,06,21,45,263,51,23,27,048,50,,,,,,,,,1*6E
$GPRMC,000050.00,A,4852.4412993,N,00217.6074998,E,1.06,0.00,180502,0.0,E,A*3B
$GPGGA,000050.00,4852.4412993,N,00217.6074998,E,1,06,1.0,-4.683,M,0.000,M,0.0,*56
$GPGSA,A,3,01,08,10,16,21,23,,,,,,,2.2,1.3,1.8,1*29
$GPGSV,2,1,06,01,15,255,49,08,73,299,56,10,56,076,56,16,27,182,51,1*6B
$GPGSV,2,2,06,21,45,263,52,23,27,048,51,,,,,,,,,1*6C
$GPRMC,000051.00,A,4852.4420089,N,00217.6084714,E,0.50,0.00,180502,0.0,E,A*3E
$GPGGA,000051.00,4852.4420089,N,00217.6084714,E,1,06,1.0,-7.814,M,0.000,M,0.0,*52
$GPGSA,A,3,01,08,10,16,21,23,,,,,,,2.2,1.3,1.8,1*29
$GPGSV,2,1,06,01,15,255,49,08,73,299,56,10,56,076,55,16,27,182,52,1*6B
$GPGSV,2,2,06,21,45,263,54,23,27,048,53,,,,,,,,,1*68
$GPRMC,000052.00,A,4852.4414016,N,00217.6071954,E,0.79,0.00,180502,0.0,E,A*37
$GPGGA,000052.00,4852.4414016,N,00217.6071954,E,1,06,1.0,-8.315,M,0.000,M,0.0,*55
$GPGSA,A,3,01,08,10,16,21,23,,,,,,,2.2,1.3,1.8,1*29
$GPGSV,2,1,06,01,15,255,48,08,73,299,56,10,56,076,56,16,27,182,49,1*63
$GPGSV,2,2,06,21,45,263,54,23,27,048,51,,,,,,,,,1*6A
$GPRMC,000053.00,A,4852.4416940,N,00217.6079039,E,0.45,0.00,180502,0.0,E,A*3B
$GPGGA,000053.00,4852.4416940,N,00217.6079039,E,1,06,1.0,-10.945,M,0.000,M,0.0,*60
$GPGSA,A,3,01,08,10,16,21,23,,,,,,,2.2,1.3,1.8,1*29
$GPGSV,2,1,06,01,15,255,48,08,73,299,58,10,56,076,56,16,27,182,49,1*6D
$GPGSV,2,2,06,21,45,263,52,23,27,048,49,,,,,,,,,1*65
$GPRMC,000054.00,A,4852.4413558,N,00217.6098196,E,0.60,0.00,180502,0.0,E,A*30
$GPGGA,000054.00,4852.4413558,N,00217.6098196,E,1,06,1.0,-14.496,M,0.000,M,0.0,*6B
$GPGSA,A,3,01,08,10,16,21,23,,,,,,,2.2,1.3,1.8,1*29
$GPGSV,2,1,06,01,15,255,50,08,73,299,58,10,56,076,55,16,27,182,50,1*6F
$GPGSV,2,2,06,21,45,263,53,23,27,048,49,,,,,,,,,1*64
$GPRMC,000055.00,A,4852.4408032,N,00217.6100016,E,0.46,0.00,180502,0.0,E,A*3F
$GPGGA,000055.00,4852.4408032,N,00217.6100016,E,1,06,1.0,-15.532,M,0.000,M,0.0,*6E
$GPGSA,A,3,01,08,10,16,21,23,,,,,,,2.2,1.3,1.8,1*29
$GPGSV,2,1,06,01,15,255,48,08,73,299,60,10,56,076,58,16,27,182,50,1*60
$GPGSV,2,2,06,21,45,263,52,23,27,048,50,,,,,,,,,1*6D
$GPRMC,000056.00,A,4852.4415699,N,00217.6085136,E,1.85,0.00,180502,0.0,E,A*36
$GPGGA,000056.00,4852.4415699,N,00217.6085136,E,1,06,1.0,-13.659,M,0.000,M,0.0,*61
$GPGSA,A,3,01,08,10,16,21,23,,,,,,,2.2,1.3,1.8,1*29
$GPGSV,2,1,06,01,15,255,48,08,73,299,58,10,56,076,56,16,27,182,48,1*6C
$GPGSV,2,2,06,21,45,263,54,23,27,048,50,,,,,,,,,1*6B
$GPRMC,000057.00,A,4852.4410341,N,00217.6087296,E,0.92,0.00,180502,0.0,E,A*3E
$GPGGA,000057.00,4852.4410341,N,00217.6087296,E,1,06,1.0,-7.826,M,0.000,M,0.0,*5D
$GPGSA,A,3,01,08,10,16,21,23,,,,,,,2.2,1.3,1.8,1*29
$GPGSV,2,1,06,01,16,255,50,08,73,299,57,10,56,076,55,16,27,182,49,1*6B
$GPGSV,2,2,06,21,45,263,54,23,27,048,50,,,,,,,,,1*6B
$GPRMC,000058.00,A,4852.4411682,N,00217.6100770,E,1.29,0.00,180502,0.0,E,A*38
$GPGGA,000058.00,4852.4411682,N,00217.6100770,E,1,06,1.0,-9.760,M,0.000,M,0.0,*59
$GPGSA,A,3,01,08,10,16,21,23,,,,,,,2.2,1.3,1.8,1*29
$GPGSV,2,1,06,01,16,255,47,08,73,299,57,10,56,076,56,16,27,182,51,1*67
$GPGSV,2,2,06,21,45,263,52,23,27,048,51,,,,,,,,,1*6C
$GPRMC,000059.00,A,4852.4416412,N,00217.6086625,E,0.84,0.00,180502,0.0,E,A*3D
$GPGGA,000059.00,4852.4416412,N,00217.6086625,E,1,06,1.0,-5.342,M,0.000,M,0.0,*52
$GPGSA,A,3,01,08,10,16,21,23,,,,,,,2.2,1.3,1.8,1*29
$GPGSV,2,1,06,01,16,255,50,08,73,299,57,10,56,076,57,16,26,182,52,1*62
$GPGSV,2,2,06,21,45,263,53,23,27,048,51,,,,,,,,,1*6D
$GPRMC,000100.00,A,4852.4419984,N,00217.6067498,E,0.64,0.00,180502,0.0,E,A*38
$GPGGA,000100.00,4852.4419984,N,00217.6067498,E,1,06,1.0,0.371,M,0.000,M,0.0,*71
$GPGSA,A,3,01,08,10,16,21,23,,,,,,,2.2,1.3,1.8,1*29
$GPGSV,2,1,06,01,16,255,49,08,73,299,56,10,56,076,58,16,26,182,51,1*67
$GPGSV,2,2,06,21,45,263,52,23,27,048,50,,,,,,,,,1*6D
$GPRMC,000101.00,A,4852.4413635,N,00217.6087926,E,0.57,0.00,180502,0.0,E,A*30
$GPGGA,000101.00,4852.4413635,N,00217.6087926,E,1,06,1.0,-1.380,M,0.000,M,0.0,*5B
$GPGSA,A,3,01,08,10,16,21,23,,,,,,,2.2,1.3,1.8,1*29
$GPGSV,2,1,06,01,16,255,48,08,73,299,54,10,56,076,54,16,26,182,50,1*69
$GPGSV,2,2,06,21,45,263,52,23,27,048,50,,,,,,,,,1*6D
$GPRMC,000102.00,A,4852.4411673,N,00217.6092122,E,0.85,0.00,180502,0.0,E,A*34
$GPGGA,000102.00,4852.4411673,N,00217.6092122,E,1,06,1.0,-3.376,M,0.000,M,0.0,*5B
$GPGSA,A,3,01,08,10,16,21,23,,,,,,,2.2,1.3,1.8,1*29
$GPGSV,2,1,06,01,16,255,48,08,73,299,56,10,56,076,55,16,26,182,49,1*62
$GPGSV,2,2,06,21,45,263,53,23,27,048,50,,,,,,,,,1*6C
$GPRMC,000103.00,A,4852.4419445,N,00217.6087159,E,1.16,0.00,180502,0.0,E,A*39
$GPGGA,000103.00,4852.4419445,N,00217.6087159,E,1,06,1.0,-7.976,M,0.000,M,0.0,*53
$GPGSA,A,3,01,08,10,16,21,23,,,,,,,2.2,1.3,1.8,1*29
$GPGSV,2,1,06,01,16,255,48,08,73,299,57,10,56,076,56,16,26,182,50,1*68
$GPGSV,2,2,06,21,45,263,53,23,27,048,51,,,,,,,,,1*6D
$GPRMC,000104.00,A,4852.4411442,N,00217.6085370,E,1.15,0.00,180502,0.0,E,A*39
$GPGGA,000104.00,4852.4411442,N,00217.6085370,E,1,06,1.0,-6.443,M,0.000,M,0.0,*5A
$GPGSA,A,3,01,08,10,16,21,23,,,,,,,2.2,1.3,1.8,1*29
$GPGSV,2,1,06,01,16,255,47,08,73,299,58,10,56,076,56,16,26,182,50,1*68
$GPGSV,2,2,06,21,45,263,54,23,27,048,50,,,,,,,,,1*6B
$GPRMC,000105.00,A,4852.4414946,N,00217.6094985,E,0.56,0.00,180502,0.0,E,A*32
$GPGGA,000105.00,4852.4414946,N,00217.6094985,E,1,06,1.0,-9.362,M,0.000,M,0.0,*5C
$GPGSA,A,3,01,08,10,16,21,23,,,,,,,2.2,1.3,1.8,1*29
$GPGSV,2,1,06,01,16,255,48,08,73,299,58,10,56,076,55,16,26,182,50,1*64
$GPGSV,2,2,06,21,45,263,53,23,27,048,50,,,,,,,,,1*6C
$GPRMC,000106.00,A,4852.4410818,N,00217.6109740,E,1.41,0.00,180502,0.0,E,A*3A
$GPGGA,000106.00,4852.4410818,N,00217.6109740,E,1,06,1.0,-14.160,M,0.000,M,0.0,*6F
$GPGSA,A,3,01,08,10,16,21,23,,,,,,,2.2,1.3,1.8,1*29
$GPGSV,2,1,06,01,16,255,48,08,73,299,57,10,56,076,55,16,26,182,51,1*6A
$GPGSV,2,2,06,21,45,263,53,23,27,048,50,,,,,,,,,1*6C
$GPRMC,000107.00,A,4852.4404952,N,00217.6100200,E,1.44,0.00,180502,0.0,E,A*3C
$GPGGA,000107.00,4852.4404952,N,00217.6100200,E,1,06,1.0,-14.108,M,0.000,M,0.0,*62
$GPGSA,A,3,01,08,10,16,21,23,,,,,,,2.2,1.3,1.8,1*29
$GPGSV,2,1,06,01,16,255,47,08,73,299,57,10,56,076,53,16,26,182,50,1*62
$GPGSV,2,2,06,21,45,263,51,23,27,048,51,,,,,,,,,1*6F
$GPRMC,000108.00,A,4852.4400607,N,00217.6091968,E,10.91,173.26,180502,0.0,E,A*0D
$GPGGA,000108.00,4852.4400607,N,00217.6091968,E,1,06,1.0,-12.178,M,0.000,M,0.0,*6B
$GPGSA,A,3,01,08,10,16,21,23,,,,,,,2.2,1.3,1.8,1*29
$GPGSV,2,1,06,01,16,255,47,08,73,299,56,10,56,076,54,16,26,182,50,1*64
$GPGSV,2,2,06,21,45,263,52,23,27,048,51,,,,,,,,,1*6C
$GPRMC,000109.00,A,4852.4359200,N,00217.6093673,E,18.70,176.03,180502,0.0,E,A*06
$GPGGA,000109.00,4852.4359200,N,00217.6093673,E,1,06,1.0,-13.239,M,0.000,M,0.0,*62
$GPGSA,A,3,01,08,10,16,21,23,,,,,,,2.2,1.3,1.8,1*29
$GPGSV,2,1,06,01,16,255,48,08,73,299,56,10,56,076,54,16,26,182,50,1*6B
$GPGSV,2,2,06,21,45,263,54,23,27,048,51,,,,,,,,,1*6A
$GPRMC,000110.00,A,4852.4284929,N,00217.6109056,E,28.71,175.19,180502,0.0,E,A*06
$GPGGA,000110.00,4852.4284929,N,00217.6109056,E,1,06,1.0,-11.079,M,0.000,M,0.0,*6C
$GPGSA,A,3,01,08,10,16,21,23,,,,,,,2.2,1.3,1.8,1*29
$GPGSV,2,1,06,01,16,255,48,08,73,299,57,10,56,076,55,16,26,182,49,1*63
$GPGSV,2,2,06,21,45,263,53,23,27,048,49,,,,,,,,,1*64
$GPRMC,000111.00,A,4852.4213003,N,00217.6111524,E,32.05,174.57,180502,0.0,E,A*02
$GPGGA,000111.00,4852.4213003,N,00217.6111524,E,1,06,1.0,-7.983,M,0.000,M,0.0,*50
$GPGSA,A,3,01,08,10,16,21,23,,,,,,,2.2,1.3,1.8,1*29
$GPGSV,2,1,06,01,16,255,49,08,73,299,55,10,56,076,57,16,26,182,50,1*6A
$GPGSV,2,2,06,21,45,263,54,23,27,048,50,,,,,,,,,1*6B
$GPRMC,000112.00,A,4852.4130661,N,00217.6091132,E,32.49,174.34,180502,0.0,E,A*06
$GPGGA,000112.00,4852.4130661,N,00217.6091132,E,1,06,1.0,-8.888,M,0.000,M,0.0,*5C
$GPGSA,A,3,01,08,10,16,21,23,,,,,,,2.2,1.3,1.8,1*29
$GPGSV,2,1,06,01,16,255,49,08,73,299,56,10,56,076,56,16,26,182,50,1*68
$GPGSV,2,2,06,21,45,263,54,23,27,048,50,,,,,,,,,1*6B
$GPRMC,000113.00,A,4852.4029846,N,00217.6120342,E,32.06,174.59,180502,0.0,E,A*0B
$GPGGA,000113.00,4852.4029846,N,00217.6120342,E,1,06,1.0,-5.458,M,0.000,M,0.0,*5D
$GPGSA,A,3,01,08,10,16,21,23,,,,,,,2.2,1.3,1.8,1*29
$GPGSV,2,1,06,01,16,255,50,08,73,299,57,10,56,076,57,16,26,182,49,1*68
$GPGSV,2,2,06,21,45,263,54,23,27,048,52,,,,,,,,,1*69
$GPRMC,000114.00,A,4852.3939538,N,00217.6139950,E,32.12,174.40,180502,0.0,E,A*0B
$GPGGA,000114.00,4852.3939538,N,00217.6139950,E,1,06,1.0,-7.119,M,0.000,M,0.0,*52
$GPGSA,A,3,01,08,10,16,21,23,,,,,,,2.2,1.3,1.8,1*29
$GPGSV,2,1,06,01,16,255,48,08,73,299,56,10,56,076,56,16,26,182,48,1*60
$GPGSV,2,2,06,21,45,263,52,23,27,048,51,,,,,,,,,1*6C
$GPRMC,000115.00,A,4852.3843977,N,00217.6148570,E,31.96,175.11,180502,0.0,E,A*03
$GPGGA,000115.00,4852.3843977,N,00217.6148570,E,1,06,1.0,-2.175,M,0.000,M,0.0,*5F
$GPGSA,A,3,01,08,10,16,21,23,,,,,,,2.2,1.3,1.8,1*29
$GPGSV,2,1,06,01,16,255,45,08,73,299,56,10,56,076,55,16,26,182,47,1*61
$GPGSV,2,2,06,21,45,263,54,23,27,048,52,,,,,,,,,1*69
$GPRMC,000116.00,A,4852.3743439,N,00217.6164742,E,32.34,173.92,180502,0.0,E,A*03
$GPGGA,000116.00,4852.3743439,N,00217.6164742,E,1,06,1.0,-1.653,M,0.000,M,0.0,*59
$GPGSA,A,3,01,08,10,16,21,23,,,,,,,2.2,1.3,1.8,1*29
$GPGSV,2,1,06,01,16,255,47,08,73,299,57,10,56,076,54,16,26,182,49,1*6D
$GPGSV,2,2,06,21,45,263,53,23,27,048,49,,,,,,,,,1*64
$GPRMC,000117.00,A,4852.3675187,N,00217.6198567,E,24.12,168.76,180502,0.0,E,A*03
$GPGGA,000117.00,4852.3675187,N,00217.6198567,E,1,06,1.0,-6.523,M,0.000,M,0.0,*59
$GPGSA,A,3,01,08,10,16,21,23,,,,,,,2.2,1.3,1.8,1*29
$GPGSV,2,1,06,01,16,255,50,08,73,298,58,10,56,076,55,16,26,182,50,1*6C
$GPGSV,2,2,06,21,45,263,53,23,27,048,50,,,,,,,,,1*6C
$GPRMC,000118.00,A,4852.3623869,N,00217.6218290,E,13.43,158.55,180502,0.0,E,A*00
$GPGGA,000118.00,4852.3623869,N,00217.6218290,E,1,06,1.0,-5.414,M,0.000,M,0.0,*5E
$GPGSA,A,3,01,08,10,16,21,23,,,,,,,2.2,1.3,1.8,1*29
$GPGSV,2,1,06,01,16,255,49,08,73,298,56,10,56,076,52,16,26,182,51,1*6C
$GPGSV,2,2,06,21,45,263,52,23,27,048,51,,,,,,,,,1*6C
$GPRMC,000119.00,A,4852.3592633,N,00217.6239815,E,14.10,140.33,180502,0.0,E,A*05
$GPGGA,000119.00,4852.3592633,N,00217.6239815,E,1,06,1.0,-8.769,M,0.000,M,0.0,*57
$GPGSA,A,3,01,08,10,16,21,23,,,,,,,2.2,1.3,1.8,1*29
$GPGSV,2,1,06,01,16,255,49,08,74,298,56,10,56,076,53,16,26,182,50,1*6B
$GPGSV,2,2,06,21,45,263,54,23,27,048,50,,,,,,,,,1*6B
$GPRMC,000120.00,A,4852.3559509,N,00217.6303948,E,22.56,126.86,180502,0.0,E,A*0A
$GPGGA,000120.00,4852.3559509,N,00217.6303948,E,1,06,1.0,-9.335,M,0.000,M,0.0,*5D
$GPGSA,A,3,01,08,10,16,21,23,,,,,,,2.2,1.3,1.8,1*29
$GPGSV,2,1,06,01,16,255,50,08,74,298,56,10,56,076,54,16,26,182,50,1*64
$GPGSV,2,2,06,21,45,263,52,23,27,048,50,,,,,,,,,1*6D
$GPRMC,000121.00,A,4852.3517303,N,00217.6401519,E,31.74,122.16,180502,0.0,E,A*0F
$GPGGA,000121.00,4852.3517303,N,00217.6401519,E,1,06,1.0,-9.193,M,0.000,M,0.0,*59
$GPGSA,A,3,01,08,10,16,21,23,,,,,,,2.2,1.3,1.8,1*29
$GPGSV,2,1,06,01,16,255,49,08,74,298,56,10,56,076,53,16,26,182,50,1*6B
$GPGSV,2,2,06,21,45,263,53,23,27,048,51,,,,,,,,,1*6D
$GPRMC,000122.00,A,4852.3462445,N,00217.6536293,E,31.81,120.74,180502,0.0,E,A*06
$GPGGA,000122.00,4852.3462445,N,00217.6536293,E,1,06,1.0,-14.217,M,0.000,M,0.0,*6F
$GPGSA,A,3,01,08,10,16,21,23,,,,,,,2.2,1.3,1.8,1*29
$GPGSV,2,1,06,01,16,255,48,08,74,298,57,10,56,076,54,16,26,182,49,1*64
$GPGSV,2,2,06,21,45,263,52,23,27,048,52,,,,,,,,,1*6F
$GPRMC,000123.00,A,4852.3427114,N,00217.6642509,E,32.74,121.24,180502,0.0,E,A*0E
$GPGGA,000123.00,4852.3427114,N,00217.6642509,E,1,06,1.0,-14.730,M,0.000,M,0.0,*6A
$GPGSA,A,3,01,08,10,16,21,23,,,,,,,2.2,1.3,1.8,1*29
$GPGSV,2,1,06,01,16,255,48,08,74,298,54,10,56,076,54,16,26,182,50,1*6F
$GPGSV,2,2,06,21,45,263,52,23,27,048,52,,,,,,,,,1*6F
$GPRMC,000124.00,A,4852.3372921,N,00217.6762291,E,32.02,120.57,180502,0.0,E,A*01
$GPGGA,000124.00,4852.3372921,N,00217.6762291,E,1,06,1.0,-15.424,M,0.000,M,0.0,*66
$GPGSA,A,3,01,08,10,16,21,23,,,,,,,2.2,1.3,1.8,1*29
$GPGSV,2,1,06,01,16,255,48,08,74,298,54,10,56,076,56,16,26,182,50,1*6D
$GPGSV,2,2,06,21,45,263,53,23,27,048,50,,,,,,,,,1*6C
$GPRMC,000125.00,A,4852.3327645,N,00217.6868959,E,32.07,121.37,180502,0.0,E,A*05
$GPGGA,000125.00,4852.3327645,N,00217.6868959,E,1,06,1.0,-12.872,M,0.000,M,0.0,*68
$GPGSA,A,3,01,08,10,16,21,23,,,,,,,2.2,1.3,1.8,1*29
$GPGSV,2,1,06,01,16,255,48,08,74,298,56,10,56,076,56,16,26,182,50,1*6F
$GPGSV,2,2,06,21,45,263,54,23,27,048,50,,,,,,,,,1*6B
$GPRMC,000126.00,A,4852.3274732,N,00217.6987438,E,31.99,120.37,180502,0.0,E,A*0F
$GPGGA,000126.00,4852.3274732,N,00217.6987438,E,1,06,1.0,-10.679,M,0.000,M,0.0,*60
$GPGSA,A,3,01,08,10,16,21,23,,,,,,,2.2,1.3,1.8,1*29
$GPGSV,2,1,06,01,16,255,48,08,74,298,56,10,56,076,56,16,26,182,50,1*6F
$GPGSV,2,2,06,21,45,263,54,23,27,048,50,,,,,,,,,1*6B
$GPRMC,000127.00,A,4852.3237179,N,00217.7113503,E,32.79,120.33,180502,0.0,E,A*04
$GPGGA,000127.00,4852.3237179,N,00217.7113503,E,1,06,1.0,-14.372,M,0.000,M,0.0,*68
$GPGSA,A,3,01,08,10,16,21,23,,,,,,,2.2,1.3,1.8,1*29
$GPGSV,2,1,06,01,16,255,47,08,74,298,57,10,56,076,55,16,26,182,51,1*63
$GPGSV,2,2,06,21,45,263,53,23,27,048,51,,,,,,,,,1*6D
$GPRMC,000128.00,A,4852.3189549,N,00217.7231509,E,29.39,119.59,180502,0.0,E,A*0B
$GPGGA,000128.00,4852.3189549,N,00217.7231509,E,1,06,1.0,-10.689,M,0.000,M,0.0,*6A
$GPGSA,A,3,01,08,10,16,21,23,,,,,,,2.2,1.3,1.8,1*29
$GPGSV,2,1,06,01,16,255,48,08,74,298,56,10,56,076,56,16,26,182,50,1*6F
$GPGSV,2,2,06,21,45,263,53,23,27,048,50,,,,,,,,,1*6C
$GPRMC,000129.00,A,4852.3162025,N,00217.7323973,E,18.28,109.52,180502,0.0,E,A*0B
$GPGGA,000129.00,4852.3162025,N,00217.7323973,E,1,06,1.0,-11.206,M,0.000,M,0.0,*60
$GPGSA,A,3,01,08,10,16,21,23,,,,,,,2.2,1.3,1.8,1*29
$GPGSV,2,1,06,01,16,255,48,08,74,298,56,10,56,076,57,16,26,182,51,1*6F
$GPGSV,2,2,06,21,45,263,54,23,27,048,52,,,,,,,,,1*69
$GPRMC,000130.00,A,4852.3152588,N,00217.7363762,E,16.59,99.67,180502,0.0,E,A*3E
$GPGGA,000130.00,4852.3152588,N,00217.7363762,E,1,06,1.0,-6.645,M,0.000,M,0.0,*56
$GPGSA,A,3,01,08,10,16,21,23,,,,,,,2.2,1.3,1.8,1*29
$GPGSV,2,1,06,01,16,255,48,08,74,298,55,10,56,076,53,16,26,182,51,1*68
$GPGSV,2,2,06,21,45,263,54,23,27,048,50,,,,,,,,,1*6B
$GPRMC,000131.00,A,4852.3152893,N,00217.7449302,E,25.38,91.16,180502,0.0,E,A*3C
$GPGGA,000131.00,4852.3152893,N,00217.7449302,E,1,06,1.0,-7.302,M,0.000,M,0.0,*5A
$GPGSA,A,3,01,08,10,16,21,23,,,,,,,2.2,1.3,1.8,1*29
$GPGSV,2,1,06,01,16,255,49,08,74,298,57,10,56,076,54,16,26,182,50,1*6D
$GPGSV,2,2,06,21,45,263,54,23,27,048,48,,,,,,,,,1*62
$GPRMC,000132.00,A,4852.3156851,N,00217.7590264,E,32.13,88.42,180502,0.0,E,A*37
$GPGGA,000132.00,4852.3156851,N,00217.7590264,E,1,06,1.0,-10.296,M,0.000,M,0.0,*6D
$GPGSA,A,3,01,08,10,16,21,23,,,,,,,2.2,1.3,1.8,1*29
$GPGSV,2,1,06,01,16,255,49,08,74,298,56,10,56,076,53,16,26,182,51,1*6A
$GPGSV,2,2,06,21,45,263,54,23,27,048,50,,,,,,,,,1*6B
$GPRMC,000133.00,A,4852.3145566,N,00217.7734437,E,32.61,88.12,180502,0.0,E,A*31
$GPGGA,000133.00,4852.3145566,N,00217.7734437,E,1,06,1.0,-3.572,M,0.000,M,0.0,*54
$GPGSA,A,3,01,08,10,16,21,23,,,,,,,2.2,1.3,1.8,1*29
$GPGSV,2,1,06,01,16,255,48,08,74,298,54,10,56,076,54,16,26,182,50,1*6F
$GPGSV,2,2,06,21,45,263,52,23,27,048,52,,,,,,,,,1*6F
$GPRMC,000134.00,A,4852.3156122,N,00217.7861291,E,32.69,89.10,180502,0.0,E,A*3E
$GPGGA,000134.00,4852.3156122,N,00217.7861291,E,1,06,1.0,-0.789,M,0.000,M,0.0,*55
$GPGSA,A,3,01,08,10,16,21,23,,,,,,,2.2,1.3,1.8,1*29
$GPGSV,2,1,06,01,16,255,48,08,74,298,56,10,56,076,56,16,26,182,51,1*6E
$GPGSV,2,2,06,21,45,263,52,23,27,048,51,,,,,,,,,1*6C
$GPRMC,000135.00,A,4852.3168711,N,00217.7986748,E,31.76,86.22,180502,0.0,E,A*3E
$GPGGA,000135.00,4852.3168711,N,00217.7986748,E,1,06,1.0,-1.862,M,0.000,M,0.0,*5D
$GPGSA,A,3,01,08,10,16,21,23,,,,,,,2.2,1.3,1.8,1*29
$GPGSV,2,1,06,01,16,255,49,08,74,298,54,10,56,076,55,16,26,182,48,1*66
$GPGSV,2,2,06,21,45,263,54,23,27,048,49,,,,,,,,,1*63
$GPRMC,000136.00,A,4852.3160236,N,00217.8115844,E,31.56,85.95,180502,0.0,E,A*36
$GPGGA,000136.00,4852.3160236,N,00217.8115844,E,1,06,1.0,1.459,M,0.000,M,0.0,*71
$GPGSA,A,3,01,08,10,16,21,23,,,,,,,2.2,1.3,1.8,1*29
$GPGSV,2,1,06,01,16,255,47,08,74,298,55,10,56,076,56,16,26,182,48,1*6A
$GPGSV,2,2,06,21,45,263,52,23,27,048,51,,,,,,,,,1*6C
$GPRMC,000137.00,A,4852.3174677,N,00217.8248696,E,32.06,86.08,180502,0.0,E,A*38
$GPGGA,000137.00,4852.3174677,N,00217.8248696,E,1,06,1.0,-1.373,M,0.000,M,0.0,*5C
$GPGSA,A,3,01,08,10,16,21,23,,,,,,,2.2,1.3,1.8,1*29
$GPGSV,2,1,06,01,16,255,47,08,74,298,58,10,56,076,57,16,26,182,49,1*67
$GPGSV,2,2,06,21,45,263,52,23,27,048,52,,,,,,,,,1*6F
$GPRMC,000138.00,A,4852.3169120,N,00217.8405896,E,32.93,88.73,180502,0.0,E,A*31
$GPGGA,000138.00,4852.3169120,N,00217.8405896,E,1,06,1.0,-2.130,M,0.000,M,0.0,*5D
$GPGSA,A,3,01,08,10,16,21,23,,,,,,,2.2,1.3,1.8,1*29
$GPGSV,2,1,06,01,16,255,48,08,74,298,54,10,56,076,55,16,26,182,50,1*6E
$GPGSV,2,2,06,21,45,263,50,23,27,048,51,,,,,,,,,1*6E
$GPRMC,000139.00,A,4852.3170969,N,00217.8547182,E,32.43,88.05,180502,0.0,E,A*3A
$GPGGA,000139.00,4852.3170969,N,00217.8547182,E,1,06,1.0,-3.148,M,0.000,M,0.0,*54
$GPGSA,A,3,01,08,10,16,21,23,,,,,,,2.2,1.3,1.8,1*29
$GPGSV,2,1,06,01,16,255,48,08,74,298,54,10,56,076,54,16,26,182,49,1*67
$GPGSV,2,2,06,21,45,263,52,23,27,048,52,,,,,,,,,1*6F
$GPRMC,000140.00,A,4852.3186142,N,00217.8688492,E,32.48,88.86,180502,0.0,E,A*38
$GPGGA,000140.00,4852.3186142,N,00217.8688492,E,1,06,1.0,-6.251,M,0.000,M,0.0,*58
$GPGSA,A,3,01,08,10,16,21,23,,,,,,,2.2,1.3,1.8,1*29
$GPGSV,2,1,06,01,16,255,48,08,74,298,56,10,56,076,54,16,26,182,50,1*6D
$GPGSV,2,2,06,21,45,263,54,23,27,048,51,,,,,,,,,1*6A
$GPRMC,000141.00,A,4852.3187506,N,00217.8806169,E,31.71,84.24,180502,0.0,E,A*38
$GPGGA,000141.00,4852.3187506,N,00217.8806169,E,1,06,1.0,-6.670,M,0.000,M,0.0,*52
$GPGSA,A,3,01,08,10,16,21,23,,,,,,,2.2,1.3,1.8,1*29
$GPGSV,2,1,06,01,16,255,49,08,74,298,56,10,56,076,56,16,26,182,52,1*6C
$GPGSV,2,2,06,21,45,263,54,23,27,048,51,,,,,,,,,1*6A
$GPRMC,000142.00,A,4852.3189273,N,00217.8945820,E,31.46,81.09,180502,0.0,E,A*3C
$GPGGA,000142.00,4852.3189273,N,00217.8945820,E,1,06,1.0,-3.906,M,0.000,M,0.0,*53
$GPGSA,A,3,01,08,10,16,21,23,,,,,,,2.2,1.3,1.8,1*29
$GPGSV,2,1,06,01,16,255,48,08,74,298,56,10,56,076,56,16,26,182,51,1*6E
$GPGSV,2,2,06,21,45,263,53,23,27,048,50,,,,,,,,,1*6C
$GPRMC,000143.00,A,4852.3198738,N,00217.9076715,E,32.09,82.29,180502,0.0,E,A*3F
$GPGGA,000143.00,4852.3198738,N,00217.9076715,E,1,06,1.0,-3.361,M,0.000,M,0.0,*52
$GPGSA,A,3,01,08,10,16,21,23,,,,,,,2.2,1.3,1.8,1*29
$GPGSV,2,1,06,01,16,255,49,08,74,298,56,10,56,076,57,16,26,182,50,1*6F
$GPGSV,2,2,06,21,45,263,51,23,27,048,50,,,,,,,,,1*6E
$GPRMC,000144.00,A,4852.3222964,N,00217.9227667,E,32.19,79.45,180502,0.0,E,A*30
$GPGGA,000144.00,4852.3222964,N,00217.9227667,E,1,06,1.0,-6.742,M,0.000,M,0.0,*52
$GPGSA,A,3,01,08,10,16,21,23,,,,,,,2.2,1.3,1.8,1*29
$GPGSV,2,1,06,01,16,255,50,08,74,298,55,10,56,076,56,16,26,182,50,1*65
$GPGSV,2,2,06,21,45,263,52,23,27,048,51,,,,,,,,,1*6C
$GPRMC,000145.00,A,4852.3239687,N,00217.9356843,E,33.08,83.18,180502,0.0,E,A*3A
$GPGGA,000145.00,4852.3239687,N,00217.9356843,E,1,06,1.0,-10.073,M,0.000,M,0.0,*66
$GPGSA,A,3,01,08,10,16,21,23,,,,,,,2.2,1.3,1.8,1*29
$GPGSV,2,1,06,01,16,255,48,08,74,298,58,10,56,076,55,16,26,182,49,1*6A
$GPGSV,2,2,06,21,45,263,55,23,27,048,50,,,,,,,,,1*6A
$GPRMC,000146.00,A,4852.3249828,N,00217.9500515,E,31.97,80.63,180502,0.0,E,A*35
$GPGGA,000146.00,4852.3249828,N,00217.9500515,E,1,06,1.0,-9.391,M,0.000,M,0.0,*55
$GPGSA,A,3,01,08,10,16,21,23,,,,,,,2.2,1.3,1.8,1*29
$GPGSV,2,1,06,01,16,255,48,08,74,298,58,10,56,076,56,16,26,182,50,1*61
$GPGSV,2,2,06,21,45,263,52,23,27,048,51,,,,,,,,,1*6C
$GPRMC,000147.00,A,4852.3268354,N,00217.9622936,E,32.26,79.49,180502,0.0,E,A*3E
$GPGGA,000147.00,4852.3268354,N,00217.9622936,E,1,06,1.0,-9.250,M,0.000,M,0.0,*55
$GPGSA,A,3,01,08,10,16,21,23,,,,,,,2.2,1.3,1.8,1*29
$GPGSV,2,1,06,01,16,255,47,08,74,298,56,10,56,076,56,16,26,182,50,1*60
$GPGSV,2,2,06,21,45,263,54,23,27,048,52,,,,,,,,,1*69
$GPRMC,000148.00,A,4852.3272658,N,00217.9764845,E,32.77,80.24,180502,0.0,E,A*3C
$GPGGA,000148.00,4852.3272658,N,00217.9764845,E,1,06,1.0,-7.435,M,0.000,M,0.0,*55
$GPGSA,A,3,01,08,10,16,21,23,,,,,,,2.2,1.3,1.8,1*29
$GPGSV,2,1,06,01,16,255,48,08,74,298,54,10,56,076,52,16,26,182,51,1*68
$GPGSV,2,2,06,21,45,263,54,23,27,048,50,,,,,,,,,1*6B
$GPRMC,000149.00,A,4852.3298156,N,00217.9896899,E,32.16,80.33,180502,0.0,E,A*32
$GPGGA,000149.00,4852.3298156,N,00217.9896899,E,1,06,1.0,-9.621,M,0.000,M,0.0,*53
$GPGSA,A,3,01,08,10,16,21,23,,,,,,,2.2,1.3,1.8,1*29
$GPGSV,2,1,06,01,16,255,50,08,74,298,55,10,55,076,52,16,26,182,50,1*62
$GPGSV,2,2,06,21,45,263,56,23,27,048,49,,,,,,,,,1*61
$GPRMC,000150.00,A,4852.3316518,N,00218.0028586,E,32.66,78.79,180502,0.0,E,A*35
$GPGGA,000150.00,4852.3316518,N,00218.0028586,E,1,06,1.0,-12.847,M,0.000,M,0.0,*6E
$GPGSA,A,3,01,08,10,16,21,23,,,,,,,2.2,1.3,1.8,1*29
$GPGSV,2,1,06,01,16,255,51,08,74,298,56,10,55,076,54,16,26,182,50,1*66
$GPGSV,2,2,06,21,45,263,54,23,27,048,50,,,,,,,,,1*6B
$GPRMC,000151.00,A,4852.3326946,N,00218.0174050,E,32.62,80.68,180502,0.0,E,A*35
$GPGGA,000151.00,4852.3326946,N,00218.0174050,E,1,06,1.0,-15.085,M,0.000,M,0.0,*6C
$GPGSA,A,3,01,08,10,16,21,23,,,,,,,2.2,1.3,1.8,1*29
$GPGSV,2,1,06,01,16,255,48,08,74,298,58,10,55,076,54,16,26,182,52,1*62
$GPGSV,2,2,06,21,45,263,53,23,27,048,50,,,,,,,,,1*6C
$GPRMC,000152.00,A,4852.3322803,N,00218.0324347,E,32.75,79.98,180502,0.0,E,A*3F
$GPGGA,000152.00,4852.3322803,N,00218.0324347,E,1,06,1.0,-12.884,M,0.000,M,0.0,*67
$GPGSA,A,3,01,08,10,16,21,23,,,,,,,2.2,1.3,1.8,1*29
$GPGSV,2,1,06,01,16,255,49,08,74,298,57,10,55,075,57,16,26,182,51,1*6F
$GPGSV,2,2,06,21,45,263,51,23,27,048,50,,,,,,,,,1*6E
$GPRMC,000153.00,A,4852.3380917,N,00218.0418410,E,31.94,80.87,180502,0.0,E,A*3B
$GPGGA,000153.00,4852.3380917,N,00218.0418410,E,1,06,1.0,-19.408,M,0.000,M,0.0,*64
$GPGSA,A,3,01,08,10,16,21,23,,,,,,,2.2,1.3,1.8,1*29
$GPGSV,2,1,06,01,16,255,48,08,74,298,56,10,55,075,56,16,26,182,51,1*6E
$GPGSV,2,2,06,21,45,263,53,23,27,048,50,,,,,,,,,1*6C
$GPRMC,000154.00,A,4852.3379228,N,00218.0559117,E,32.40,78.72,180502,0.0,E,A*3C
$GPGGA,000154.00,4852.3379228,N,00218.0559117,E,1,06,1.0,-14.055,M,0.000,M,0.0,*65
$GPGSA,A,3,01,08,10,16,21,23,,,,,,,2.2,1.3,1.8,1*29
$GPGSV,2,1,06,01,16,255,50,08,74,298,56,10,55,075,53,16,26,182,51,1*62
$GPGSV,2,2,06,21,45,263,54,23,27,048,50,,,,,,,,,1*6B
$GPRMC,000155.00,A,4852.3397445,N,00218.0689689,E,32.43,79.80,180502,0.0,E,A*31
$GPGGA,000155.00,4852.3397445,N,00218.0689689,E,1,06,1.0,-14.508,M,0.000,M,0.0,*6A
$GPGSA,A,3,01,08,10,16,21,23,,,,,,,2.2,1.3,1.8,1*29
$GPGSV,2,1,06,01,16,255,49,08,74,298,58,10,55,075,54,16,26,182,49,1*6A
$GPGSV,2,2,06,21,45,263,54,23,27,048,49,,,,,,,,,1*63
$GPRMC,000156.00,A,4852.3393075,N,00218.0833847,E,32.39,79.08,180502,0.0,E,A*3F
$GPGGA,000156.00,4852.3393075,N,00218.0833847,E,1,06,1.0,-9.019,M,0.000,M,0.0,*50
$GPGSA,A,3,01,08,10,16,21,23,,,,,,,2.2,1.3,1.8,1*29
$GPGSV,2,1,06,01,16,255,48,08,74,298,56,10,55,075,54,16,26,182,49,1*65
$GPGSV,2,2,06,21,45,263,54,23,27,048,51,,,,,,,,,1*6A
$GPRMC,000157.00,A,4852.3412228,N,00218.0979039,E,32.85,80.73,180502,0.0,E,A*39
$GPGGA,000157.00,4852.3412228,N,00218.0979039,E,1,06,1.0,-12.966,M,0.000,M,0.0,*60
$GPGSA,A,3,01,08,10,16,21,23,,,,,,,2.2,1.3,1.8,1*29
$GPGSV,2,1,06,01,16,255,48,08,74,298,57,10,55,075,56,16,26,182,48,1*67
$GPGSV,2,2,06,21,45,263,53,23,27,048,49,,,,,,,,,1*64
$GPRMC,000158.00,A,4852.3424427,N,00218.1110767,E,32.13,80.80,180502,0.0,E,A*33
$GPGGA,000158.00,4852.3424427,N,00218.1110767,E,1,06,1.0,-12.618,M,0.000,M,0.0,*6F
$GPGSA,A,3,01,08,10,16,21,23,,,,,,,2.2,1.3,1.8,1*29
$GPGSV,2,1,06,01,16,255,49,08,74,298,58,10,55,075,55,16,26,182,49,1*6B
$GPGSV,2,2,06,21,45,263,55,23,27,048,49,,,,,,,,,1*62
$GPRMC,000159.00,A,4852.3445747,N,00218.1236999,E,31.74,81.67,180502,0.0,E,A*32
$GPGGA,000159.00,4852.3445747,N,00218.1236999,E,1,06,1.0,-11.873,M,0.000,M,0.0,*64
$GPGSA,A,3,01,08,10,16,21,23,,,,,,,2.2,1.3,1.8,1*29
$GPGSV,2,1,06,01,16,255,49,08,74,298,56,10,55,075,53,16,26,182,48,1*62
$GPGSV,2,2,06,21,45,263,53,23,27,048,49,,,,,,,,,1*64
$GPRMC,000200.00,A,4852.3473409,N,00218.1350998,E,32.09,79.55,180502,0.0,E,A*3E
$GPGGA,000200.00,4852.3473409,N,00218.1350998,E,1,06,1.0,-11.201,M,0.000,M,0.0,*68
$GPGSA,A,3,01,08,10,16,21,23,,,,,,,2.2,1.3,1.8,1*29
$GPGSV,2,1,06,01,16,255,47,08,74,298,56,10,55,075,54,16,26,182,51,1*63
$GPGSV,2,2,06,21,45,263,54,23,27,048,51,,,,,,,,,1*6A
$GPRMC,000201.00,A,4852.3472177,N,00218.1493608,E,31.46,76.58,180502,0.0,E,A*36
$GPGGA,000201.00,4852.3472177,N,00218.1493608,E,1,06,1.0,-6.453,M,0.000,M,0.0,*5D
$GPGSA,A,3,01,08,10,16,21,23,,,,,,,2.2,1.3,1.8,1*29
$GPGSV,2,1,06,01,16,255,47,08,74,298,55,10,55,075,54,16,26,182,50,1*61
$GPGSV,2,2,06,21,45,263,52,23,27,048,50,,,,,,,,,1*6D
$GPRMC,000202.00,A,4852.3503259,N,00218.1603409,E,23.11,74.32,180502,0.0,E,A*3A
$GPGGA,000202.00,4852.3503259,N,00218.1603409,E,1,06,1.0,-10.512,M,0.000,M,0.0,*6D
$GPGSA,A,3,01,08,10,16,21,23,,,,,,,2.2,1.3,1.8,1*29
$GPGSV,2,1,06,01,16,255,50,08,74,298,56,10,55,075,56,16,26,182,51,1*67
$GPGSV,2,2,06,21,45,263,53,23,27,048,50,,,,,,,,,1*6C
$GPRMC,000203.00,A,4852.3514494,N,00218.1683642,E,19.86,67.34,180502,0.0,E,A*3C
$GPGGA,000203.00,4852.3514494,N,00218.1683642,E,1,06,1.0,-8.075,M,0.000,M,0.0,*55
$GPGSA,A,3,01,08,10,16,21,23,,,,,,,2.2,1.3,1.8,1*29
$GPGSV,2,1,06,01,16,255,50,08,74,298,55,10,55,075,57,16,26,182,52,1*66
$GPGSV,2,2,06,21,45,263,52,23,27,048,49,,,,,,,,,1*65
$GPRMC,000204.00,A,4852.3547706,N,00218.1788488,E,29.25,61.20,180502,0.0,E,A*32
$GPGGA,000204.00,4852.3547706,N,00218.1788488,E,1,06,1.0,-8.708,M,0.000,M,0.0,*5F
$GPGSA,A,3,01,08,10,16,21,23,,,,,,,2.2,1.3,1.8,1*29
$GPGSV,2,1,06,01,16,255,48,08,74,298,56,10,55,075,56,16,26,182,50,1*6F
$GPGSV,2,2,06,21,45,263,51,23,27,048,51,,,,,,,,,1*6F
$GPRMC,000205.00,A,4852.3591963,N,00218.1890733,E,32.71,58.78,180502,0.0,E,A*3C
$GPGGA,000205.00,4852.3591963,N,00218.1890733,E,1,06,1.0,-5.918,M,0.000,M,0.0,*5F
$GPGSA,A,3,01,08,10,16,21,23,,,,,,,2.2,1.3,1.8,1*29
$GPGSV,2,1,06,01,16,255,48,08,74,298,55,10,55,075,54,16,26,182,49,1*66
$GPGSV,2,2,06,21,45,263,52,23,27,048,52,,,,,,,,,1*6F
$GPRMC,000206.00,A,4852.3649531,N,00218.2001224,E,32.70,58.10,180502,0.0,E,A*3D
$GPGGA,000206.00,4852.3649531,N,00218.2001224,E,1,06,1.0,-5.596,M,0.000,M,0.0,*5B
$GPGSA,A,3,01,08,10,16,21,23,,,,,,,2.2,1.3,1.8,1*29
$GPGSV,2,1,06,01,16,255,48,08,74,298,57,10,55,075,56,16,26,182,50,1*6E
$GPGSV,2,2,06,21,45,263,53,23,27,047,52,,,,,,,,,1*61
$GPRMC,000207.00,A,4852.3695157,N,00218.2100861,E,32.20,57.02,180502,0.0,E,A*3B
$GPGGA,000207.00,4852.3695157,N,00218.2100861,E,1,06,1.0,-2.210,M,0.000,M,0.0,*5A
$GPGSA,A,3,01,08,10,16,21,23,,,,,,,2.2,1.3,1.8,1*29
$GPGSV,2,1,06,01,16,255,48,08,74,298,57,10,55,075,55,16,26,182,49,1*65
$GPGSV,2,2,06,21,45,263,53,23,27,047,51,,,,,,,,,1*62
$GPRMC,000208.00,A,4852.3747309,N,00218.2225271,E,32.77,58.50,180502,0.0,E,A*36
$GPGGA,000208.00,4852.3747309,N,00218.2225271,E,1,06,1.0,-5.894,M,0.000,M,0.0,*5C
$GPGSA,A,3,01,08,10,16,21,23,,,,,,,2.2,1.3,1.8,1*29
$GPGSV,2,1,06,01,16,255,48,08,74,298,58,10,55,075,55,16,26,182,50,1*62
$GPGSV,2,2,06,21,45,263,53,23,27,047,48,,,,,,,,,1*6A
$GPRMC,000209.00,A,4852.3788414,N,00218.2344814,E,32.62,57.13,180502,0.0,E,A*3C
$GPGGA,000209.00,4852.3788414,N,00218.2344814,E,1,06,1.0,-2.812,M,0.000,M,0.0,*53
$GPGSA,A,3,01,08,10,16,21,23,,,,,,,2.2,1.3,1.8,1*29
$GPGSV,2,1,06,01,16,255,49,08,74,298,56,10,55,075,54,16,26,182,51,1*6D
$GPGSV,2,2,06,21,45,263,54,23,27,047,51,,,,,,,,,1*65
$GPRMC,000210.00,A,4852.3838310,N,00218.2467697,E,32.47,58.07,180502,0.0,E,A*3D
$GPGGA,000210.00,4852.3838310,N,00218.2467697,E,1,06,1.0,-2.812,M,0.000,M,0.0,*5F
$GPGSA,A,3,01,08,10,16,21,23,,,,,,,2.2,1.3,1.8,1*29
$GPGSV,2,1,06,01,16,255,49,08,74,298,58,10,55,075,56,16,26,182,50,1*60
$GPGSV,2,2,06,21,45,263,53,23,27,047,52,,,,,,,,,1*61
$GPRMC,000211.00,A,4852.3885149,N,00218.2585226,E,32.39,56.13,180502,0.0,E,A*35
$GPGGA,000211.00,4852.3885149,N,00218.2585226,E,1,06,1.0,-3.327,M,0.000,M,0.0,*59
$GPGSA,A,3,01,08,10,16,21,23,,,,,,,2.2,1.3,1.8,1*29
$GPGSV,2,1,06,01,16,255,48,08,74,298,57,10,55,075,55,16,26,182,50,1*6D
$GPGSV,2,2,06,21,45,263,53,23,27,047,52,,,,,,,,,1*61
$GPRMC,000212.00,A,4852.3932075,N,00218.2687929,E,32.15,57.29,180502,0.0,E,A*36
$GPGGA,000212.00,4852.3932075,N,00218.2687929,E,1,06,1.0,-4.069,M,0.000,M,0.0,*52
$GPGSA,A,3,01,08,10,16,21,23,,,,,,,2.2,1.3,1.8,1*29
$GPGSV,2,1,06,01,16,255,48,08,74,298,55,10,55,075,52,16,26,182,48,1*61
$GPGSV,2,2,06,21,45,263,54,23,27,047,50,,,,,,,,,1*64
$GPRMC,000213.00,A,4852.3983299,N,00218.2797798,E,32.72,57.98,180502,0.0,E,A*32
$GPGGA,000213.00,4852.3983299,N,00218.2797798,E,1,06,1.0,-3.732,M,0.000,M,0.0,*53
$GPGSA,A,3,01,08,10,16,21,23,,,,,,,2.2,1.3,1.8,1*29
$GPGSV,2,1,06,01,16,255,48,08,74,298,54,10,55,075,53,16,26,182,51,1*69
$GPGSV,2,2,06,21,45,263,54,23,27,047,48,,,,,,,,,1*6D
$GPRMC,000214.00,A,4852.4034262,N,00218.2919054,E,32.38,57.90,180502,0.0,E,A*3A
$GPGGA,000214.00,4852.4034262,N,00218.2919054,E,1,06,1.0,-3.684,M,0.000,M,0.0,*51
$GPGSA,A,3,01,08,10,16,21,23,,,,,,,2.2,1.3,1.8,1*29
$GPGSV,2,1,06,01,16,255,48,08,74,298,55,10,55,075,55,16,26,182,51,1*6E
$GPGSV,2,2,06,21,45,263,55,23,27,047,49,,,,,,,,,1*6D
$GPRMC,000215.00,A,4852.4074946,N,00218.3051665,E,32.34,57.38,180502,0.0,E,A*3C
$GPGGA,000215.00,4852.4074946,N,00218.3051665,E,1,06,1.0,-4.843,M,0.000,M,0.0,*5B
$GPGSA,A,3,01,08,10,16,21,23,,,,,,,2.2,1.3,1.8,1*29
$GPGSV,2,1,06,01,16,255,48,08,74,298,54,10,55,075,54,16,26,182,50,1*6F
$GPGSV,2,2,06,21,45,263,54,23,27,047,51,,,,,,,,,1*65
$GPRMC,000216.00,A,4852.4115083,N,00218.3176022,E,32.27,55.40,180502,0.0,E,A*37
$GPGGA,000216.00,4852.4115083,N,00218.3176022,E,1,06,1.0,-4.936,M,0.000,M,0.0,*5C
$GPGSA,A,3,01,08,10,16,21,23,,,,,,,2.2,1.3,1.8,1*29
$GPGSV,2,1,06,01,16,255,49,08,74,298,57,10,55,075,56,16,26,182,50,1*6F
$GPGSV,2,2,06,21,45,263,55,23,27,047,51,,,,,,,,,1*64
$GPRMC,000217.00,A,4852.4170656,N,00218.3291344,E,32.56,59.18,180502,0.0,E,A*35
$GPGGA,000217.00,4852.4170656,N,00218.3291344,E,1,06,1.0,-6.677,M,0.000,M,0.0,*51
$GPGSA,A,3,01,08,10,16,21,23,,,,,,,2.2,1.3,1.8,1*29
$GPGSV,2,1,06,01,16,255,50,08,74,298,56,10,55,075,54,16,26,182,50,1*64
$GPGSV,2,2,06,21,45,263,56,23,27,047,50,,,,,,,,,1*66
$GPRMC,000218.00,A,4852.4220084,N,00218.3388065,E,32.20,58.72,180502,0.0,E,A*30
$GPGGA,000218.00,4852.4220084,N,00218.3388065,E,1,06,1.0,-4.717,M,0.000,M,0.0,*5D
$GPGSA,A,3,01,08,10,16,21,23,,,,,,,2.2,1.3,1.8,1*29
$GPGSV,2,1,06,01,16,255,48,08,74,298,56,10,55,075,54,16,26,182,50,1*6D
$GPGSV,2,2,06,21,45,263,53,23,27,047,50,,,,,,,,,1*63
$GPRMC,000219.00,A,4852.4269414,N,00218.3508480,E,32.36,56.68,180502,0.0,E,A*32
$GPGGA,000219.00,4852.4269414,N,00218.3508480,E,1,06,1.0,-7.470,M,0.000,M,0.0,*5C
$GPGSA,A,3,01,08,10,16,21,23,,,,,,,2.2,1.3,1.8,1*29
$GPGSV,2,1,06,01,16,255,50,08,74,298,56,10,55,075,53,16,26,182,51,1*62
$GPGSV,2,2,06,21,45,263,52,23,27,047,49,,,,,,,,,1*6A
$GPRMC,000220.00,A,4852.4308100,N,00218.3625925,E,32.68,57.68,180502,0.0,E,A*3A
$GPGGA,000220.00,4852.4308100,N,00218.3625925,E,1,06,1.0,-4.929,M,0.000,M,0.0,*5C
$GPGSA,A,3,01,08,10,16,21,23,,,,,,,2.2,1.3,1.8,1*29
$GPGSV,2,1,06,01,16,255,49,08,74,298,56,10,55,075,54,16,26,182,51,1*6D
$GPGSV,2,2,06,21,45,263,52,23,27,047,49,,,,,,,,,1*6A
$GPRMC,000221.00,A,4852.4365554,N,00218.3747442,E,32.87,57.64,180502,0.0,E,A*31
$GPGGA,000221.00,4852.4365554,N,00218.3747442,E,1,06,1.0,-8.175,M,0.000,M,0.0,*57
$GPGSA,A,3,01,08,10,16,21,23,,,,,,,2.2,1.3,1.8,1*29
$GPGSV,2,1,06,01,16,255,50,08,74,298,54,10,55,075,55,16,26,182,52,1*65
$GPGSV,2,2,06,21,45,263,51,23,27,047,50,,,,,,,,,1*61
$GPRMC,000222.00,A,4852.4403467,N,00218.3869425,E,32.54,58.54,180502,0.0,E,A*34
$GPGGA,000222.00,4852.4403467,N,00218.3869425,E,1,06,1.0,-6.538,M,0.000,M,0.0,*53
$GPGSA,A,3,01,08,10,16,21,23,,,,,,,2.2,1.3,1.8,1*29
$GPGSV,2,1,06,01,16,255,48,08,74,298,56,10,55,075,55,16,26,182,51,1*6D
$GPGSV,2,2,06,21,45,263,52,23,27,047,49,,,,,,,,,1*6A
$GPRMC,000223.00,A,4852.4452515,N,00218.3992084,E,31.88,57.79,180502,0.0,E,A*3D
$GPGGA,000223.00,4852.4452515,N,00218.3992084,E,1,06,1.0,-11.604,M,0.000,M,0.0,*62
$GPGSA,A,3,01,08,10,16,21,23,,,,,,,2.2,1.3,1.8,1*29
$GPGSV,2,1,06,01,16,255,48,08,74,298,56,10,55,075,54,16,26,182,50,1*6D
$GPGSV,2,2,06,21,45,263,55,23,27,047,50,,,,,,,,,1*65
$GPRMC,000224.00,A,4852.4499408,N,00218.4099618,E,32.23,58.76,180502,0.0,E,A*34
$GPGGA,000224.00,4852.4499408,N,00218.4099618,E,1,06,1.0,-9.182,M,0.000,M,0.0,*59
$GPGSA,A,3,01,08,10,16,21,23,,,,,,,2.2,1.3,1.8,1*29
$GPGSV,2,1,06,01,16,255,48,08,74,298,55,10,55,075,53,16,26,182,50,1*69
$GPGSV,2,2,06,21,45,263,55,23,27,047,51,,,,,,,,,1*64
$GPRMC,000225.00,A,4852.4550486,N,00218.4214421,E,32.38,57.41,180502,0.0,E,A*39
$GPGGA,000225.00,4852.4550486,N,00218.4214421,E,1,06,1.0,-8.643,M,0.000,M,0.0,*5E
$GPGSA,A,3,01,08,10,16,21,23,,,,,,,2.2,1.3,1.8,1*29
$GPGSV,2,1,06,01,16,255,49,08,74,298,56,10,55,075,54,16,26,182,49,1*64
$GPGSV,2,2,06,21,45,263,53,23,27,047,51,,,,,,,,,1*62
$GPRMC,000226.00,A,4852.4603826,N,00218.4320654,E,32.63,58.67,180502,0.0,E,A*3A
$GPGGA,000226.00,4852.4603826,N,00218.4320654,E,1,06,1.0,-9.662,M,0.000,M,0.0,*5A
$GPGSA,A,3,01,08,10,16,21,23,,,,,,,2.2,1.3,1.8,1*29
$GPGSV,2,1,06,01,16,255,48,08,74,298,56,10,55,075,56,16,26,182,52,1*6D
$GPGSV,2,2,06,21,45,263,54,23,27,047,51,,,,,,,,,1*65
$GPRMC,000227.00,A,4852.4646674,N,00218.4443799,E,32.27,58.54,180502,0.0,E,A*31
$GPGGA,000227.00,4852.4646674,N,00218.4443799,E,1,06,1.0,-12.051,M,0.000,M,0.0,*6D
$GPGSA,A,3,01,08,10,16,21,23,,,,,,,2.2,1.3,1.8,1*29
$GPGSV,2,1,06,01,16,255,48,08,74,298,56,10,55,075,53,16,26,182,50,1*6A
$GPGSV,2,2,06,21,45,263,53,23,27,047,50,,,,,,,,,1*63
$GPRMC,000228.00,A,4852.4695684,N,00218.4558746,E,32.77,58.53,180502,0.0,E,A*34
$GPGGA,000228.00,4852.4695684,N,00218.4558746,E,1,06,1.0,-13.469,M,0.000,M,0.0,*64
$GPGSA,A,3,01,08,10,16,21,23,,,,,,,2.2,1.3,1.8,1*29
$GPGSV,2,1,06,01,16,255,50,08,74,298,56,10,55,075,53,16,26,182,49,1*6B
$GPGSV,2,2,06,21,45,263,52,23,27,047,51,,,,,,,,,1*63
$GPRMC,000229.00,A,4852.4743621,N,00218.4678496,E,32.76,57.21,180502,0.0,E,A*34
$GPGGA,000229.00,4852.4743621,N,00218.4678496,E,1,06,1.0,-14.347,M,0.000,M,0.0,*63
$GPGSA,A,3,01,08,10,16,21,23,,,,,,,2.2,1.3,1.8,1*29
$GPGSV,2,1,06,01,16,255,49,08,74,298,54,10,55,075,52,16,26,182,51,1*69
$GPGSV,2,2,06,21,45,263,53,23,27,047,51,,,,,,,,,1*62
$GPRMC,000230.00,A,4852.4789591,N,00218.4794520,E,32.45,60.46,180502,0.0,E,A*38
$GPGGA,000230.00,4852.4789591,N,00218.4794520,E,1,06,1.0,-14.548,M,0.000,M,0.0,*63
$GPGSA,A,3,01,08,10,16,21,23,,,,,,,2.2,1.3,1.8,1*29
$GPGSV,2,1,06,01,16,255,50,08,74,298,54,10,55,075,52,16,26,182,49,1*68
$GPGSV,2,2,06,21,45,263,53,23,27,047,50,,,,,,,,,1*63
$GPRMC,000231.00,A,4852.4830194,N,00218.4904510,E,32.70,56.22,180502,0.0,E,A*30
$GPGGA,000231.00,4852.4830194,N,00218.4904510,E,1,06,1.0,-13.669,M,0.000,M,0.0,*6D
$GPGSA,A,3,01,08,10,16,21,23,,,,,,,2.2,1.3,1.8,1*29
$GPGSV,2,1,06,01,16,255,47,08,74,298,56,10,55,075,56,16,26,182,50,1*60
$GPGSV,2,2,06,21,45,263,52,23,27,047,50,,,,,,,,,1*62
$GPRMC,000232.00,A,4852.4889413,N,00218.5010110,E,32.42,58.10,180502,0.0,E,A*3C
$GPGGA,000232.00,4852.4889413,N,00218.5010110,E,1,06,1.0,-13.343,M,0.000,M,0.0,*62
$GPGSA,A,3,01,08,10,16,21,23,,,,,,,2.2,1.3,1.8,1*29
$GPGSV,2,1,06,01,16,255,48,08,74,298,55,10,55,075,54,16,26,182,51,1*6F
$GPGSV,2,2,06,21,45,263,51,23,27,047,51,,,,,,,,,1*60
$GPRMC,000233.00,A,4852.4937065,N,00218.5116638,E,31.98,58.09,180502,0.0,E,A*3A
$GPGGA,000233.00,4852.4937065,N,00218.5116638,E,1,06,1.0,-13.920,M,0.000,M,0.0,*67
$GPGSA,A,3,01,08,10,16,21,23,,,,,,,2.2,1.3,1.8,1*29
$GPGSV,2,1,06,01,16,255,47,08,74,298,58,10,55,075,55,16,26,182,50,1*6D
$GPGSV,2,2,06,21,45,263,52,23,27,047,52,,,,,,,,,1*60
$GPRMC,000234.00,A,4852.4984093,N,00218.5245130,E,32.64,58.16,180502,0.0,E,A*38
$GPGGA,000234.00,4852.4984093,N,00218.5245130,E,1,06,1.0,-17.624,M,0.000,M,0.0,*64
$GPGSA,A,3,01,08,10,16,21,23,,,,,,,2.2,1.3,1.8,1*29
$GPGSV,2,1,06,01,16,255,49,08,74,298,58,10,55,075,53,16,26,182,48,1*6C
$GPGSV,2,2,06,21,45,263,51,23,27,047,52,,,,,,,,,1*63
$GPRMC,000235.00,A,4852.5016343,N,00218.5370292,E,32.47,58.70,180502,0.0,E,A*39
$GPGGA,000235.00,4852.5016343,N,00218.5370292,E,1,06,1.0,-14.513,M,0.000,M,0.0,*60
$GPGSA,A,3,01,08,10,16,21,23,,,,,,,2.2,1.3,1.8,1*29
$GPGSV,2,1,06,01,16,255,49,08,74,298,56,10,55,075,52,16,26,182,50,1*6A
$GPGSV,2,2,06,21,45,263,52,23,27,047,50,,,,,,,,,1*62
$GPRMC,000236.00,A,4852.5077784,N,00218.5489970,E,32.39,56.00,180502,0.0,E,A*34
$GPGGA,000236.00,4852.5077784,N,00218.5489970,E,1,06,1.0,-17.839,M,0.000,M,0.0,*6B
$GPGSA,A,3,01,08,10,16,21,23,,,,,,,2.2,1.3,1.8,1*29
$GPGSV,2,1,06,01,16,255,49,08,74,298,55,10,55,075,53,16,26,182,52,1*6A
$GPGSV,2,2,06,21,45,263,54,23,27,047,51,,,,,,,,,1*65
$GPRMC,000237.00,A,4852.5126348,N,00218.5597689,E,32.70,54.40,180502,0.0,E,A*38
$GPGGA,000237.00,4852.5126348,N,00218.5597689,E,1,06,1.0,-14.588,M,0.000,M,0.0,*68
$GPGSA,A,3,01,08,10,16,21,23,,,,,,,2.2,1.3,1.8,1*29
$GPGSV,2,1,06,01,16,255,48,08,74,298,55,10,55,075,54,16,26,182,48,1*67
$GPGSV,2,2,06,21,45,263,52,23,27,047,50,,,,,,,,,1*62
$GPRMC,000238.00,A,4852.5182065,N,00218.5695877,E,32.24,54.76,180502,0.0,E,A*3F
$GPGGA,000238.00,4852.5182065,N,00218.5695877,E,1,06,1.0,-14.608,M,0.000,M,0.0,*60
$GPGSA,A,3,01,08,10,16,21,23,,,,,,,2.2,1.3,1.8,1*29
$GPGSV,2,1,06,01,16,255,47,08,74,298,56,10,55,075,55,16,26,182,49,1*6B
$GPGSV,2,2,06,21,45,263,53,23,27,047,50,,,,,,,,,1*63
$GPRMC,000239.00,A,4852.5230770,N,00218.5811010,E,32.27,54.96,180502,0.0,E,A*31
$GPGGA,000239.00,4852.5230770,N,00218.5811010,E,1,06,1.0,-14.283,M,0.000,M,0.0,*64
$GPGSA,A,3,01,08,10,16,21,23,,,,,,,2.2,1.3,1.8,1*29
$GPGSV,2,1,06,01,16,255,48,08,74,298,55,10,55,075,54,16,26,182,50,1*6E
$GPGSV,2,2,06,21,45,263,54,23,27,047,49,,,,,,,,,1*6C
$GPRMC,000240.00,A,4852.5281405,N,00218.5929134,E,32.89,54.87,180502,0.0,E,A*3D
$GPGGA,000240.00,4852.5281405,N,00218.5929134,E,1,06,1.0,-13.295,M,0.000,M,0.0,*6C
$GPGSA,A,3,01,08,10,16,21,23,,,,,,,2.2,1.3,1.8,1*29
$GPGSV,2,1,06,01,16,255,48,08,74,298,57,10,55,075,56,16,26,182,50,1*6E
$GPGSV,2,2,06,21,45,263,52,23,27,047,50,,,,,,,,,1*62
$GPRMC,000241.00,A,4852.5332530,N,00218.6052092,E,32.86,54.70,180502,0.0,E,A*3E
$GPGGA,000241.00,4852.5332530,N,00218.6052092,E,1,06,1.0,-14.155,M,0.000,M,0.0,*60
$GPGSA,A,3,01,08,10,16,21,23,,,,,,,2.2,1.3,1.8,1*29
$GPGSV,2,1,06,01,16,255,49,08,74,298,58,10,55,075,54,16,26,182,52,1*60
$GPGSV,2,2,06,21,45,263,54,23,27,047,50,,,,,,,,,1*64
$GPRMC,000242.00,A,4852.5376285,N,00218.6169407,E,32.39,55.00,180502,0.0,E,A*37
$GPGGA,000242.00,4852.5376285,N,00218.6169407,E,1,06,1.0,-13.836,M,0.000,M,0.0,*60
$GPGSA,A,3,01,08,10,16,21,23,,,,,,,2.2,1.3,1.8,1*29
$GPGSV,2,1,06,01,16,255,49,08,74,298,57,10,55,075,53,16,26,182,50,1*6A
$GPGSV,2,2,06,21,45,263,54,23,27,047,49,,,,,,,,,1*6C
$GPRMC,000243.00,A,4852.5432357,N,00218.6285286,E,32.68,55.13,180502,0.0,E,A*37
$GPGGA,000243.00,4852.5432357,N,00218.6285286,E,1,06,1.0,-14.120,M,0.000,M,0.0,*6F
$GPGSA,A,3,01,08,10,16,21,23,,,,,,,2.2,1.3,1.8,1*29
$GPGSV,2,1,06,01,16,255,49,08,74,298,54,10,55,075,52,16,26,182,50,1*68
$GPGSV,2,2,06,21,45,263,53,23,27,047,50,,,,,,,,,1*63
$GPRMC,000244.00,A,4852.5488006,N,00218.6379221,E,32.17,55.42,180502,0.0,E,A*35
$GPGGA,000244.00,4852.5488006,N,00218.6379221,E,1,06,1.0,-12.668,M,0.000,M,0.0,*6C
$GPGSA,A,3,01,08,10,16,21,23,,,,,,,2.2,1.3,1.8,1*29
$GPGSV,2,1,06,01,16,255,48,08,74,298,54,10,55,075,54,16,26,182,49,1*67
$GPGSV,2,2,06,21,45,263,54,23,27,047,49,,,,,,,,,1*6C
$GPRMC,000245.00,A,4852.5544788,N,00218.6486309,E,32.24,56.91,180502,0.0,E,A*35
$GPGGA,000245.00,4852.5544788,N,00218.6486309,E,1,06,1.0,-12.871,M,0.000,M,0.0,*67
$GPGSA,A,3,01,08,10,16,21,23,,,,,,,2.2,1.3,1.8,1*29
$GPGSV,2,1,06,01,16,255,49,08,74,298,56,10,55,075,54,16,26,182,50,1*6C
$GPGSV,2,2,06,21,45,263,54,23,27,047,50,,,,,,,,,1*64
$GPRMC,000246.00,A,4852.5587412,N,00218.6595075,E,32.37,57.98,180502,0.0,E,A*38
$GPGGA,000246.00,4852.5587412,N,00218.6595075,E,1,06,1.0,-10.463,M,0.000,M,0.0,*6D
$GPGSA,A,3,01,08,10,16,21,23,,,,,,,2.2,1.3,1.8,1*29
$GPGSV,2,1,06,01,16,255,49,08,74,298,56,10,55,075,54,16,26,182,48,1*65
$GPGSV,2,2,06,21,45,263,54,23,27,047,50,,,,,,,,,1*64
$GPRMC,000247.00,A,4852.5643703,N,00218.6714958,E,32.42,54.61,180502,0.0,E,A*3B
$GPGGA,000247.00,4852.5643703,N,00218.6714958,E,1,06,1.0,-12.766,M,0.000,M,0.0,*6D
$GPGSA,A,3,01,08,10,16,21,23,,,,,,,2.2,1.3,1.8,1*29
$GPGSV,2,1,06,01,16,255,48,08,74,298,58,10,55,075,55,16,26,182,50,1*62
$GPGSV,2,2,06,21,45,263,53,23,27,047,51,,,,,,,,,1*62
$GPRMC,000248.00,A,4852.5691188,N,00218.6826065,E,32.18,55.26,180502,0.0,E,A*3A
$GPGGA,000248.00,4852.5691188,N,00218.6826065,E,1,06,1.0,-11.972,M,0.000,M,0.0,*69
$GPGSA,A,3,01,08,10,16,21,23,,,,,,,2.2,1.3,1.8,1*29
$GPGSV,2,1,06,01,16,255,50,08,74,298,57,10,55,075,56,16,26,182,51,1*66
$GPGSV,2,2,06,21,45,264,52,23,27,047,51,,,,,,,,,1*64
$GPRMC,000249.00,A,4852.5746444,N,00218.6943103,E,32.71,55.93,180502,0.0,E,A*37
$GPGGA,000249.00,4852.5746444,N,00218.6943103,E,1,06,1.0,-14.299,M,0.000,M,0.0,*6E
$GPGSA,A,3,01,08,10,16,21,23,,,,,,,2.2,1.3,1.8,1*29
$GPGSV,2,1,06,01,16,255,48,08,74,298,56,10,55,075,55,16,26,182,49,1*64
$GPGSV,2,2,06,21,45,264,52,23,27,047,51,,,,,,,,,1*64
$GPRMC,000250.00,A,4852.5792380,N,00218.7051004,E,32.38,58.11,180502,0.0,E,A*3E
$GPGGA,000250.00,4852.5792380,N,00218.7051004,E,1,06,1.0,-13.921,M,0.000,M,0.0,*62
$GPGSA,A,3,01,08,10,16,21,23,,,,,,,2.2,1.3,1.8,1*29
$GPGSV,2,1,06,01,16,255,50,08,74,298,57,10,55,075,55,16,26,182,51,1*65
$GPGSV,2,2,06,21,45,264,54,23,27,047,50,,,,,,,,,1*63
$GPRMC,000251.00,A,4852.5844292,N,00218.7154517,E,32.47,56.53,180502,0.0,E,A*3A
$GPGGA,000251.00,4852.5844292,N,00218.7154517,E,1,06,1.0,-12.870,M,0.000,M,0.0,*62
$GPGSA,A,3,01,08,10,16,21,23,,,,,,,2.2,1.3,1.8,1*29
$GPGSV,2,1,06,01,16,255,49,08,74,298,57,10,55,075,55,16,26,182,52,1*6E
$GPGSV,2,2,06,21,45,264,54,23,27,047,47,,,,,,,,,1*65
$GPRMC,000252.00,A,4852.5903843,N,00218.7260661,E,32.08,57.64,180502,0.0,E,A*35
$GPGGA,000252.00,4852.5903843,N,00218.7260661,E,1,06,1.0,-13.708,M,0.000,M,0.0,*62
$GPGSA,A,3,01,08,10,16,21,23,,,,,,,2.2,1.3,1.8,1*29
$GPGSV,2,1,06,01,16,255,49,08,74,298,58,10,55,075,56,16,26,182,52,1*62
$GPGSV,2,2,06,21,46,264,54,23,27,047,49,,,,,,,,,1*68
$GPRMC,000253.00,A,4852.5939018,N,00218.7376294,E,31.93,58.53,180502,0.0,E,A*39
$GPGGA,000253.00,4852.5939018,N,00218.7376294,E,1,06,1.0,-10.925,M,0.000,M,0.0,*66
$GPGSA,A,3,01,08,10,16,21,23,,,,,,,2.2,1.3,1.8,1*29
$GPGSV,2,1,06,01,16,255,49,08,74,298,57,10,55,075,55,16,26,182,50,1*6C
$GPGSV,2,2,06,21,46,264,53,23,27,047,50,,,,,,,,,1*67
$GPRMC,000254.00,A,4852.5985088,N,00218.7508161,E,32.19,56.87,180502,0.0,E,A*30
$GPGGA,000254.00,4852.5985088,N,00218.7508161,E,1,06,1.0,-12.842,M,0.000,M,0.0,*6B
$GPGSA,A,3,01,08,10,16,21,23,,,,,,,2.2,1.3,1.8,1*29
$GPGSV,2,1,06,01,16,255,49,08,74,298,56,10,55,075,55,16,26,182,50,1*6D
$GPGSV,2,2,06,21,46,264,52,23,27,047,50,,,,,,,,,1*66
$GPRMC,000255.00,A,4852.6027217,N,00218.7633069,E,32.26,58.86,180502,0.0,E,A*36
$GPGGA,000255.00,4852.6027217,N,00218.7633069,E,1,06,1.0,-11.765,M,0.000,M,0.0,*67
$GPGSA,A,3,01,08,10,16,21,23,,,,,,,2.2,1.3,1.8,1*29
$GPGSV,2,1,06,01,16,255,48,08,74,298,57,10,55,075,54,16,26,182,49,1*64
$GPGSV,2,2,06,21,46,264,54,23,27,047,50,,,,,,,,,1*60
$GPRMC,000256.00,A,4852.6086048,N,00218.7754012,E,32.46,57.73,180502,0.0,E,A*39
$GPGGA,000256.00,4852.6086048,N,00218.7754012,E,1,06,1.0,-12.912,M,0.000,M,0.0,*66
$GPGSA,A,3,01,08,10,16,21,23,,,,,,,2.2,1.3,1.8,1*29
$GPGSV,2,1,06,01,16,255,50,08,74,298,56,10,55,075,54,16,26,182,49,1*6C
$GPGSV,2,2,06,21,46,264,53,23,27,047,50,,,,,,,,,1*67
$GPRMC,000257.00,A,4852.6127103,N,00218.7861259,E,32.60,57.51,180502,0.0,E,A*3C
$GPGGA,000257.00,4852.6127103,N,00218.7861259,E,1,06,1.0,-10.523,M,0.000,M,0.0,*6B
$GPGSA,A,3,01,08,10,16,21,23,,,,,,,2.2,1.3,1.8,1*29
$GPGSV,2,1,06,01,16,255,47,08,74,298,56,10,55,075,56,16,26,182,50,1*60
$GPGSV,2,2,06,21,46,264,54,23,27,047,51,,,,,,,,,1*61
$GPRMC,000258.00,A,4852.6176992,N,00218.7978762,E,32.59,56.71,180502,0.0,E,A*3A
$GPGGA,000258.00,4852.6176992,N,00218.7978762,E,1,06,1.0,-10.941,M,0.000,M,0.0,*6C
$GPGSA,A,3,01,08,10,16,21,23,,,,,,,2.2,1.3,1.8,1*29
$GPGSV,2,1,06,01,16,255,47,08,74,298,56,10,55,075,55,16,26,182,49,1*6B
$GPGSV,2,2,06,21,46,264,54,23,27,047,50,,,,,,,,,1*60
$GPRMC,000259.00,A,4852.6232822,N,00218.8078673,E,32.88,56.25,180502,0.0,E,A*38
$GPGGA,000259.00,4852.6232822,N,00218.8078673,E,1,06,1.0,-10.224,M,0.000,M,0.0,*6B
$GPGSA,A,3,01,08,10,16,21,23,,,,,,,2.2,1.3,1.8,1*29
$GPGSV,2,1,06,01,16,255,48,08,74,298,54,10,55,075,53,16,26,182,48,1*61
$GPGSV,2,2,06,21,46,264,52,23,27,047,50,,,,,,,,,1*66
$GPRMC,000300.00,A,4852.6284174,N,00218.8196019,E,32.01,56.01,180502,0.0,E,A*3E
$GPGGA,000300.00,4852.6284174,N,00218.8196019,E,1,06,1.0,-10.559,M,0.000,M,0.0,*67
$GPGSA,A,3,01,08,10,16,21,23,,,,,,,2.2,1.3,1.8,1*29
$GPGSV,2,1,06,01,16,255,48,08,74,298,55,10,55,075,54,16,26,182,48,1*67
$GPGSV,2,2,06,21,46,264,51,23,27,047,52,,,,,,,,,1*67
$GPRMC,000301.00,A,4852.6330081,N,00218.8309653,E,33.13,56.52,180502,0.0,E,A*32
$GPGGA,000301.00,4852.6330081,N,00218.8309653,E,1,06,1.0,-10.710,M,0.000,M,0.0,*60
$GPGSA,A,3,01,08,10,16,21,23,,,,,,,2.2,1.3,1.8,1*29
$GPGSV,2,1,06,01,16,255,47,08,74,298,57,10,55,075,55,16,26,182,49,1*6A
$GPGSV,2,2,06,21,46,264,51,23,27,047,49,,,,,,,,,1*6D
$GPRMC,000302.00,A,4852.6371122,N,00218.8432846,E,31.11,56.24,180502,0.0,E,A*38
$GPGGA,000302.00,4852.6371122,N,00218.8432846,E,1,06,1.0,-12.261,M,0.000,M,0.0,*6A
$GPGSA,A,3,01,08,10,16,21,23,,,,,,,2.2,1.3,1.8,1*29
$GPGSV,2,1,06,01,16,255,48,08,74,298,56,10,55,075,55,16,26,182,48,1*65
$GPGSV,2,2,06,21,46,264,53,23,27,047,50,,,,,,,,,1*67
$GPRMC,000303.00,A,4852.6422569,N,00218.8526647,E,22.13,49.56,180502,0.0,E,A*33
$GPGGA,000303.00,4852.6422569,N,00218.8526647,E,1,06,1.0,-14.293,M,0.000,M,0.0,*61
$GPGSA,A,3,01,08,10,16,21,23,,,,,,,2.2,1.3,1.8,1*29
$GPGSV,2,1,06,01,16,255,48,08,74,298,56,10,55,075,56,16,26,182,49,1*67
$GPGSV,2,2,06,21,46,264,54,23,27,047,49,,,,,,,,,1*68
$GPRMC,000304.00,A,4852.6453781,N,00218.8560254,E,12.32,31.98,180502,0.0,E,A*3F
$GPGGA,000304.00,4852.6453781,N,00218.8560254,E,1,06,1.0,-11.510,M,0.000,M,0.0,*69
$GPGSA,A,3,01,08,10,16,21,23,,,,,,,2.2,1.3,1.8,1*29
$GPGSV,2,1,06,01,16,255,46,08,74,298,58,10,55,075,57,16,26,182,49,1*66
$GPGSV,2,2,06,21,46,264,54,23,27,047,48,,,,,,,,,1*69
$GPRMC,000305.00,A,4852.6486556,N,00218.8573475,E,14.52,19.09,180502,0.0,E,A*3B
$GPGGA,000305.00,4852.6486556,N,00218.8573475,E,1,06,1.0,-12.715,M,0.000,M,0.0,*6B
$GPGSA,A,3,01,08,10,16,21,23,,,,,,,2.2,1.3,1.8,1*29
$GPGSV,2,1,06,01,16,255,47,08,74,298,58,10,55,075,55,16,26,182,52,1*6F
$GPGSV,2,2,06,21,46,264,52,23,27,047,50,,,,,,,,,1*66
$GPRMC,000306.00,A,4852.6538199,N,00218.8590783,E,23.15,8.03,180502,0.0,E,A*01
$GPGGA,000306.00,4852.6538199,N,00218.8590783,E,1,06,1.0,-13.045,M,0.000,M,0.0,*6F
$GPGSA,A,3,01,08,10,16,21,23,,,,,,,2.2,1.3,1.8,1*29
$GPGSV,2,1,06,01,16,255,48,08,74,298,58,10,55,075,55,16,26,182,50,1*62
$GPGSV,2,2,06,21,46,264,54,23,27,047,50,,,,,,,,,1*60
$GPRMC,000307.00,A,4852.6613888,N,00218.8607900,E,31.63,2.43,180502,0.0,E,A*07
$GPGGA,000307.00,4852.6613888,N,00218.8607900,E,1,06,1.0,-9.690,M,0.000,M,0.0,*50
$GPGSA,A,3,01,08,10,16,21,23,,,,,,,2.2,1.3,1.8,1*29
$GPGSV,2,1,06,01,16,255,48,08,74,298,56,10,55,075,54,16,26,182,49,1*65
$GPGSV,2,2,06,21,46,264,55,23,27,047,52,,,,,,,,,1*63
$GPRMC,000308.00,A,4852.6709021,N,00218.8627795,E,33.47,0.86,180502,0.0,E,A*06
$GPGGA,000308.00,4852.6709021,N,00218.8627795,E,1,06,1.0,-11.065,M,0.000,M,0.0,*6B
$GPGSA,A,3,01,08,10,16,21,23,,,,,,,2.2,1.3,1.8,1*29
$GPGSV,2,1,06,01,16,255,47,08,74,298,58,10,55,075,54,16,26,182,50,1*6C
$GPGSV,2,2,06,21,46,264,53,23,27,047,50,,,,,,,,,1*67
$GPRMC,000309.00,A,4852.6790533,N,00218.8622709,E,32.63,1.78,180502,0.0,E,A*06
$GPGGA,000309.00,4852.6790533,N,00218.8622709,E,1,06,1.0,-8.033,M,0.000,M,0.0,*57
$GPGSA,A,3,01,08,10,16,21,23,,,,,,,2.2,1.3,1.8,1*29
$GPGSV,2,1,06,01,16,255,49,08,74,298,56,10,55,075,56,16,26,182,50,1*6E
$GPGSV,2,2,06,21,46,264,54,23,27,047,51,,,,,,,,,1*61
$GPRMC,000310.00,A,4852.6886451,N,00218.8620685,E,32.49,1.46,180502,0.0,E,A*01
$GPGGA,000310.00,4852.6886451,N,00218.8620685,E,1,06,1.0,-8.354,M,0.000,M,0.0,*57
$GPGSA,A,3,01,08,10,16,21,23,,,,,,,2.2,1.3,1.8,1*29
$GPGSV,2,1,06,01,16,255,49,08,74,298,55,10,55,075,55,16,26,182,50,1*6E
$GPGSV,2,2,06,21,46,264,52,23,27,047,50,,,,,,,,,1*66
$GPRMC,000311.00,A,4852.6974461,N,00218.8619712,E,34.17,0.53,180502,0.0,E,A*02
$GPGGA,000311.00,4852.6974461,N,00218.8619712,E,1,06,1.0,-6.700,M,0.000,M,0.0,*57
$GPGSA,A,3,01,08,10,16,21,23,,,,,,,2.2,1.3,1.8,1*29
$GPGSV,2,1,06,01,16,255,48,08,74,298,56,10,55,075,56,16,25,182,50,1*6C
$GPGSV,2,2,06,21,46,264,52,23,27,047,50,,,,,,,,,1*66
$GPRMC,000312.00,A,4852.7064347,N,00218.8623826,E,33.22,0.69,180502,0.0,E,A*02
$GPGGA,000312.00,4852.7064347,N,00218.8623826,E,1,06,1.0,-7.116,M,0.000,M,0.0,*5F
$GPGSA,A,3,01,08,10,16,21,23,,,,,,,2.2,1.3,1.8,1*29
$GPGSV,2,1,06,01,16,255,48,08,74,298,57,10,55,075,54,16,25,182,50,1*6F
$GPGSV,2,2,06,21,46,264,53,23,27,047,50,,,,,,,,,1*67
$GPRMC,000313.00,A,4852.7158217,N,00218.8633351,E,32.24,2.91,180502,0.0,E,A*01
$GPGGA,000313.00,4852.7158217,N,00218.8633351,E,1,06,1.0,-8.929,M,0.000,M,0.0,*55
$GPGSA,A,3,01,08,10,16,21,23,,,,,,,2.2,1.3,1.8,1*29
$GPGSV,2,1,06,01,16,255,45,08,74,298,58,10,55,075,54,16,25,182,50,1*6D
$GPGSV,2,2,06,21,46,264,53,23,27,047,49,,,,,,,,,1*6F
$GPRMC,000314.00,A,4852.7243223,N,00218.8626778,E,31.41,2.78,180502,0.0,E,A*04
$GPGGA,000314.00,4852.7243223,N,00218.8626778,E,1,06,1.0,-7.960,M,0.000,M,0.0,*55
$GPGSA,A,3,01,08,10,16,21,23,,,,,,,2.2,1.3,1.8,1*29
$GPGSV,2,1,06,01,16,255,48,08,74,298,56,10,55,075,54,16,25,182,48,1*67
$GPGSV,2,2,06,21,46,264,51,23,27,047,50,,,,,,,,,1*65
$GPRMC,000315.00,A,4852.7325915,N,00218.8632926,E,23.66,6.64,180502,0.0,E,A*05
$GPGGA,000315.00,4852.7325915,N,00218.8632926,E,1,06,1.0,-7.044,M,0.000,M,0.0,*54
$GPGSA,A,3,01,08,10,16,21,23,,,,,,,2.2,1.3,1.8,1*29
$GPGSV,2,1,06,01,16,255,50,08,74,298,56,10,55,075,53,16,25,182,49,1*68
$GPGSV,2,2,06,21,46,264,53,23,27,047,50,,,,,,,,,1*67
$GPRMC,000316.00,A,4852.7374948,N,00218.8648484,E,14.97,19.62,180502,0.0,E,A*30
$GPGGA,000316.00,4852.7374948,N,00218.8648484,E,1,06,1.0,-3.374,M,0.000,M,0.0,*57
$GPGSA,A,3,01,08,10,16,21,23,,,,,,,2.2,1.3,1.8,1*29
$GPGSV,2,1,06,01,16,255,49,08,74,298,56,10,55,075,54,16,25,182,49,1*67
$GPGSV,2,2,06,21,46,264,54,23,27,047,51,,,,,,,,,1*61
$GPRMC,000317.00,A,4852.7416400,N,00218.8684979,E,19.56,31.07,180502,0.0,E,A*35
$GPGGA,000317.00,4852.7416400,N,00218.8684979,E,1,06,1.0,-4.020,M,0.000,M,0.0,*5E
$GPGSA,A,3,01,08,10,16,21,23,,,,,,,2.2,1.3,1.8,1*29
$GPGSV,2,1,06,01,16,255,48,08,74,298,56,10,55,074,56,16,25,182,51,1*6C
$GPGSV,2,2,06,21,46,264,52,23,27,047,50,,,,,,,,,1*66
$GPRMC,000318.00,A,4852.7471119,N,00218.8753412,E,29.28,35.37,180502,0.0,E,A*30
$GPGGA,000318.00,4852.7471119,N,00218.8753412,E,1,06,1.0,-5.691,M,0.000,M,0.0,*5B
$GPGSA,A,3,01,08,10,16,21,23,,,,,,,2.2,1.3,1.8,1*29
$GPGSV,2,1,06,01,16,255,48,08,74,298,55,10,55,074,55,16,25,182,51,1*6C
$GPGSV,2,2,06,21,46,264,54,23,26,047,51,,,,,,,,,1*60
$GPRMC,000319.00,A,4852.7536321,N,00218.8836948,E,32.81,37.69,180502,0.0,E,A*34
$GPGGA,000319.00,4852.7536321,N,00218.8836948,E,1,06,1.0,-4.952,M,0.000,M,0.0,*5E
$GPGSA,A,3,01,08,10,16,21,23,,,,,,,2.2,1.3,1.8,1*29
$GPGSV,2,1,06,01,16,255,48,08,74,298,55,10,55,074,54,16,25,182,49,1*64
$GPGSV,2,2,06,21,46,264,50,23,26,047,50,,,,,,,,,1*65
$GPRMC,000320.00,A,4852.7613085,N,00218.8914457,E,31.85,38.26,180502,0.0,E,A*36
$GPGGA,000320.00,4852.7613085,N,00218.8914457,E,1,06,1.0,-6.095,M,0.000,M,0.0,*5F
$GPGSA,A,3,01,08,10,16,21,23,,,,,,,2.2,1.3,1.8,1*29
$GPGSV,2,1,06,01,16,255,48,08,74,298,55,10,55,074,55,16,25,182,48,1*64
$GPGSV,2,2,06,21,46,264,52,23,26,047,48,,,,,,,,,1*6E
$GPRMC,000321.00,A,4852.7685658,N,00218.8977063,E,32.42,38.84,180502,0.0,E,A*38
$GPGGA,000321.00,4852.7685658,N,00218.8977063,E,1,06,1.0,-3.904,M,0.000,M,0.0,*55
$GPGSA,A,3,01,08,10,16,21,23,,,,,,,2.2,1.3,1.8,1*29
$GPGSV,2,1,06,01,16,255,47,08,74,298,56,10,55,074,58,16,25,182,50,1*6C
$GPGSV,2,2,06,21,46,264,54,23,26,047,50,,,,,,,,,1*61
$GPRMC,000322.00,A,4852.7762148,N,00218.9060174,E,32.58,38.03,180502,0.0,E,A*38
$GPGGA,000322.00,4852.7762148,N,00218.9060174,E,1,06,1.0,-7.184,M,0.000,M,0.0,*55
$GPGSA,A,3,01,08,10,16,21,23,,,,,,,2.2,1.3,1.8,1*29
$GPGSV,2,1,06,01,16,255,48,08,74,298,57,10,55,074,55,16,25,182,50,1*6F
$GPGSV,2,2,06,21,46,264,54,23,26,047,51,,,,,,,,,1*60
$GPRMC,000323.00,A,4852.7826787,N,00218.9148493,E,31.93,37.97,180502,0.0,E,A*32
$GPGGA,000323.00,4852.7826787,N,00218.9148493,E,1,06,1.0,-7.837,M,0.000,M,0.0,*58
$GPGSA,A,3,01,08,10,16,21,23,,,,,,,2.2,1.3,1.8,1*29
$GPGSV,2,1,06,01,16,255,48,08,74,298,58,10,55,074,56,16,25,182,49,1*6B
$GPGSV,2,2,06,21,46,264,55,23,26,047,49,,,,,,,,,1*68
$GPRMC,000324.00,A,4852.7893098,N,00218.9241100,E,32.50,37.97,180502,0.0,E,A*3B
$GPGGA,000324.00,4852.7893098,N,00218.9241100,E,1,06,1.0,-8.513,M,0.000,M,0.0,*59
$GPGSA,A,3,01,08,10,16,21,23,,,,,,,2.2,1.3,1.8,1*29
$GPGSV,2,1,06,01,16,255,49,08,74,298,58,10,55,074,56,16,25,182,49,1*6A
