     2.11           OBSERVATION DATA    G                   RINEX VERSION / TYPE
BLANK OR G = GPS,  R = GLONASS,  E = GALILEO,  M = MIXED    COMMENT             
GNSS-SDR            joel                 5-MAY-25 09:36     PGM / RUN BY / DATE 
GPS OBSERVATION DATA FILE GENERATED BY GNSS-SDR             COMMENT             
GNSS-SDR VERSION 0.0.16                                     COMMENT             
See https://gnss-sdr.org                                    COMMENT             
DEFAULT MARKER NAME                                         MARKER NAME         
joel                CTTC                                    OBSERVER / AGENCY   
GNSS-SDR            Software Receiver   0.0.16              REC # / TYPE / VERS 
Antenna number      Antenna type                            ANT # / TYPE        
        0.0000        0.0000        0.0000                  APPROX POSITION XYZ 
        0.0000        0.0000        0.0000                  ANTENNA: DELTA H/E/N
     1     1                                                WAVELENGTH FACT L1/2
     4    C1    L1    D1    S1                              # / TYPES OF OBSERV 
  2002    05    18    00    00   42.3000000     GPS         TIME OF FIRST OBS   
    18                                                      LEAP SECONDS        
                                                            END OF HEADER       
 02  5 18 00 00 43.0000000  0  7G01G23G10G21G16G07G08                           
  23763590.628 7 124878512.381 7      3399.626 7        46.681                  
  23001127.066 8 120871739.352 8     -2818.426 8        49.972                  
  21313658.592 9 112004043.667 9      -798.312 9        54.378                  
  21783585.574 8 114473533.344 8      1786.669 8        53.257                  
  23471245.372 8 123342232.695 8     -3662.977 8        49.399                  
  24961618.719 7 131174205.514 7     -1906.801 7        45.655                  
  20445704.806 9 107442936.360 9       868.244 9        55.794                  
 02  5 18 00 00 44.0000000  0  7G01G23G10G21G16G07G08                           
  23762945.700 7 124875115.259 7      3394.689 7        46.772                  
  23001664.727 8 120874558.620 8     -2818.299 8        50.207                  
  21313811.140 8 112004842.024 8      -799.561 8        53.928                  
  21783249.404 9 114471746.133 9      1786.417 9        54.224                  
  23471944.122 8 123345896.470 8     -3663.491 8        50.510                  
  24961982.050 7 131176110.041 7     -1909.715 7        46.117                  
  20445541.823 9 107442068.516 9       867.788 9        56.820                  
 02  5 18 00 00 45.0000000  0  7G01G23G10G21G16G07G08                           
  23762299.055 7 124871718.310 7      3394.053 7        47.501                  
  23002198.922 8 120877378.250 8     -2818.290 8        51.045                  
  21313963.009 9 112005641.022 9      -798.017 9        54.595                  
  21782906.765 8 114469959.232 8      1786.957 8        53.223                  
  23472641.049 8 123349560.442 8     -3662.045 8        50.258                  
  24962342.718 7 131178014.924 7     -1904.933 7        46.799                  
  20445380.215 9 107441201.149 9       867.233 9        57.361                  
 02  5 18 00 00 46.0000000  0  7G01G23G10G21G16G07G08                           
  23761651.321 8 124868321.515 8      3395.380 8        48.425                  
  23002736.422 8 120880198.292 8     -2822.660 8        50.586                  
  21314115.199 9 112006440.619 9      -799.386 9        54.138                  
  21782563.626 8 114468172.641 8      1786.882 8        53.637                  
  23473337.638 8 123353224.599 8     -3665.624 8        49.291                  
  24962709.087 7 131179920.164 7     -1905.571 7        44.995                  
  20445215.677 9 107440334.259 9       866.655 9        56.302                  
 02  5 18 00 00 47.0000000  0  7G01G23G10G21G16G07G08                           
  23761005.803 7 124864924.872 7      3392.815 7        47.634                  
  23003272.475 8 120883018.723 8     -2822.772 8        49.781                  
  21314268.426 8 112007240.812 8      -801.058 8        53.806                  
  21782227.313 8 114466386.352 8      1785.584 8        52.252                  
  23474035.834 8 123356888.951 8     -3665.628 8        50.501                  
  24963068.451 7 131181825.745 7     -1907.398 7        45.936                  
  20445048.406 9 107439467.823 9       866.008 9        55.626                  
 02  5 18 00 00 48.0000000  0  7G01G23G10G21G16G07G08                           
  23760360.159 7 124861528.391 7      3396.602 7        47.374                  
  23003811.780 8 120885839.546 8     -2822.580 8        50.778                  
  21314420.170 9 112008041.612 9      -801.073 9        56.901                  
  21781887.802 8 114464600.358 8      1785.185 8        52.281                  
  23474732.958 8 123360553.505 8     -3664.553 8        50.451                  
  24963433.193 7 131183731.684 7     -1905.964 7        46.256                  
  20444880.991 9 107438601.862 9       864.965 9        57.936                  
 02  5 18 00 00 49.0000000  0  7G01G23G10G21G16G07G08                           
  23759712.193 8 124858132.069 8      3396.815 8        49.099                  
  23004345.778 8 120888660.780 8     -2820.977 8        49.415                  
  21314573.504 9 112008843.055 9      -802.225 9        57.287                  
  21781545.646 8 114462814.662 8      1785.491 8        53.601                  
  23475429.636 8 123364218.251 8     -3667.125 8        50.708                  
  24963795.184 7 131185637.983 7     -1907.246 7        46.827                  
  20444713.254 9 107437736.377 9       865.596 9        57.252                  
 02  5 18 00 00 50.0000000  0  7G01G23G10G21G16G07G08                           
  23759066.388 7 124854735.906 7      3396.883 7        47.095                  
  23004883.743 8 120891482.407 8     -2822.126 8        49.603                  
  21314726.052 9 112009645.095 9      -801.940 9        56.273                  
  21781205.009 8 114461029.265 8      1787.108 8        53.316                  
  23476128.422 8 123367883.173 8     -3665.705 8        48.822                  
  24964157.067 7 131187544.626 7     -1905.224 7        47.786                  
  20444545.267 9 107436871.361 9       864.890 9        58.652                  
 02  5 18 00 00 51.0000000  0  7G01G23G10G21G16G07G08                           
  23758421.656 7 124851339.909 7      3394.023 7        47.529                  
  23005422.136 8 120894304.419 8     -2821.831 8        49.866                  
  21314878.939 9 112010447.732 9      -802.757 9        54.766                  
  21780869.393 8 114459244.167 8      1783.634 8        53.149                  
  23476824.795 8 123371548.307 8     -3665.725 8        50.490                  
  24964522.971 7 131189451.629 7     -1906.393 7        47.333                  
  20444381.391 9 107436006.807 9       863.693 9        54.650                  
 02  5 18 00 00 52.0000000  0  7G01G23G10G21G16G07G08                           
  23757774.369 8 124847944.063 8      3397.323 8        48.303                  
  23005957.135 8 120897126.815 8     -2822.190 8        51.387                  
  21315031.934 9 112011250.989 9      -804.175 9        54.030                  
  21780530.274 8 114457459.363 8      1785.005 8        51.511                  
  23477522.134 8 123375213.640 8     -3666.215 8        49.679                  
  24964882.460 7 131191358.991 7     -1911.174 7        46.024                  
  20444219.229 9 107435142.730 9       864.509 9        56.362                  
 02  5 18 00 00 53.0000000  0  7G01G23G10G21G16G07G08                           
  23757127.188 7 124844548.390 7      3392.918 7        47.989                  
  23006496.869 8 120899949.603 8     -2823.662 8        49.662                  
  21315184.839 9 112012054.876 9      -805.068 9        55.015                  
  21780186.242 8 114455674.858 8      1784.902 8        51.864                  
  23478221.081 8 123378879.143 8     -3662.385 8        49.514                  
  24965249.383 7 131193266.699 7     -1908.694 7        46.801                  
  20444056.979 9 107434279.131 9       863.400 9        57.114                  
 02  5 18 00 00 54.0000000  0  7G01G23G10G21G16G07G08                           
  23756482.617 7 124841152.875 7      3394.575 7        46.994                  
  23007032.099 8 120902772.776 8     -2824.048 8        50.419                  
  21315338.155 9 112012859.360 9      -805.154 9        54.011                  
  21779846.999 8 114453890.667 8      1784.026 8        53.871                  
  23478916.865 8 123382544.856 8     -3665.917 8        50.116                  
  24965609.122 7 131195174.759 7     -1906.432 7        46.843                  
  20443895.228 9 107433416.008 9       863.188 9        54.958                  
 02  5 18 00 00 55.0000000  0  7G01G23G10G21G16G07G08                           
  23755836.813 8 124837757.510 8      3394.841 8        48.817                  
  23007570.672 8 120905596.340 8     -2822.321 8        49.876                  
  21315491.185 9 112013664.441 9      -805.420 9        54.167                  
  21779511.651 8 114452106.796 8      1782.367 8        53.358                  
  23479614.686 8 123386210.756 8     -3667.131 8        49.610                  
  24965973.668 7 131197083.174 7     -1908.894 7        47.056                  
  20443734.157 9 107432553.338 9       862.124 9        56.848                  
 02  5 18 00 00 56.0000000  0  7G01G23G10G21G16G07G08                           
  23755189.418 7 124834362.314 7      3392.632 7        46.765                  
  23008107.815 8 120908420.322 8     -2824.745 8        51.899                  
  21315644.770 9 112014470.138 9      -806.154 9        54.594                  
  21779171.603 9 114450323.209 9      1782.472 9        54.230                  
  23480314.169 7 123389876.845 7     -3668.155 7        47.418                  
  24966337.553 7 131198991.942 7     -1904.886 7        46.363                  
  20443571.674 9 107431691.145 9       861.533 9        56.023                  
 02  5 18 00 00 57.0000000  0  7G01G23G10G21G16G07G08                           
  23754544.739 8 124830967.280 8      3395.969 8        48.666                  
  23008644.296 8 120911244.685 8     -2824.464 8        50.928                  
  21315798.300 9 112015276.470 9      -806.512 9        55.400                  
  21778828.125 8 114448539.933 8      1784.775 8        51.742                  
  23481009.560 7 123393543.124 7     -3663.679 7        47.416                  
  24966698.364 7 131200901.067 7     -1912.557 7        45.971                  
  20443405.295 9 107430829.429 9       861.568 9        58.269                  
 02  5 18 00 00 58.0000000  0  7G01G23G10G21G16G07G08                           
  23753898.256 8 124827572.398 8      3397.172 8        48.511                  
  23009182.779 8 120914069.446 8     -2825.106 8        50.078                  
  21315952.045 9 112016083.397 9      -806.616 9        55.502                  
  21778490.365 8 114446756.946 8      1783.100 8        51.999                  
  23481707.827 7 123397209.601 7     -3665.699 7        47.743                  
  24967065.108 7 131202810.535 7     -1911.460 7        45.928                  
  20443239.113 9 107429968.189 9       861.866 9        57.004                  
 02  5 18 00 00 59.0000000  0  7G01G23G10G21G16G07G08                           
  23753251.183 8 124824177.689 8      3395.422 8        49.049                  
  23009718.653 8 120916894.586 8     -2824.297 8        49.979                  
  21316105.933 9 112016890.921 9      -807.609 9        56.588                  
  21778155.052 8 114444974.266 8      1782.960 8        50.759                  
  23482406.578 8 123400876.287 8     -3666.755 8        48.543                  
  24967425.401 7 131204720.368 7     -1910.981 7        44.703                  
  20443072.681 9 107429107.403 9       860.796 9        55.328                  
 02  5 18 00 01  0.0000000  0  7G01G23G10G21G16G07G08                           
  23752605.986 8 124820783.130 8      3397.662 8        49.809                  
  23010258.602 8 120919720.103 8     -2826.663 8        51.614                  
  21316259.589 9 112017699.078 9      -808.008 9        57.459                  
  21777813.575 8 114443191.873 8      1780.461 8        52.414                  
  23483102.791 8 123404543.143 8     -3670.255 8        48.669                  
  24967791.162 7 131206630.536 7     -1908.946 7        46.993                  
  20442905.695 9 107428247.093 9       859.885 9        57.000                  
 02  5 18 00 01  1.0000000  0  7G01G23G10G21G16G07G08                           
  23751959.967 8 124817388.729 8      3395.934 8        50.116                  
  23010795.012 8 120922546.020 8     -2823.864 8        49.271                  
  21316414.067 9 112018507.852 9      -808.678 9        55.349                  
  21777470.329 8 114441409.790 8      1782.237 8        53.943                  
  23483801.344 8 123408210.199 8     -3665.245 8        49.365                  
  24968153.314 7 131208541.075 7     -1912.415 7        47.387                  
  20442740.407 9 107427387.259 9       859.800 9        56.633                  
 02  5 18 00 01  2.0000000  0  7G01G23G10G21G16G07G08                           
  23751313.287 8 124813994.498 8      3395.558 8        49.063                  
  23011333.138 8 120925372.329 8     -2825.011 8        50.187                  
  21316567.365 9 112019317.225 9      -810.779 9        54.340                  
  21777134.731 8 114439627.991 8      1782.150 8        50.758                  
  23484499.952 8 123411877.446 8     -3666.722 8        49.152                  
  24968517.824 7 131210451.945 7     -1912.135 7        45.646                  
  20442578.603 9 107426527.904 9       858.947 9        57.192                  
 02  5 18 00 01  3.0000000  0  7G01G23G10G21G16G07G08                           
  23750668.019 8 124810600.420 8      3396.413 8        48.967                  
  23011871.996 8 120928199.043 8     -2826.671 8        50.914                  
  21316720.985 9 112020127.192 9      -810.311 9        55.025                  
  21776798.669 8 114437846.515 8      1781.650 8        51.974                  
  23485196.165 8 123415544.869 8     -3666.703 8        51.025                  
  24968882.066 7 131212363.184 7     -1910.584 7        44.747                  
  20442416.924 9 107425669.000 9       858.071 9        55.569                  
 02  5 18 00 01  4.0000000  0  7G01G23G10G21G16G07G08                           
  23750023.197 8 124807206.496 8      3390.059 8        49.229                  
  23012407.495 8 120931026.149 8     -2826.528 8        53.074                  
  21316875.052 9 112020937.780 9      -810.901 9        54.692                  
  21776456.423 9 114436065.350 9      1780.642 9        54.058                  
  23485895.540 8 123419212.513 8     -3667.897 8        52.169                  
  24969242.895 7 131214274.774 7     -1910.223 7        45.162                  
  20442255.888 9 107424810.575 9       858.128 9        56.758                  
 02  5 18 00 01  5.0000000  0  7G01G23G10G21G16G07G08                           
  23749376.017 8 124803812.754 8      3389.265 8        48.124                  
  23012947.675 8 120933853.640 8     -2827.580 8        51.156                  
  21317028.761 9 112021748.999 9      -811.933 9        56.105                  
  21776115.500 8 114434284.482 8      1779.872 8        53.727                  
  23486593.504 8 123422880.328 8     -3665.953 8        49.207                  
  24969609.978 7 131216186.713 7     -1912.823 7        45.794                  
  20442094.638 9 107423952.625 9       858.134 9        56.316                  
 02  5 18 00 01  6.0000000  0  7G01G23G10G21G16G07G08                           
  23748729.534 8 124800419.158 8      3391.719 8        48.479                  
  23013484.979 8 120936681.498 8     -2827.154 8        48.886                  
  21317182.649 9 112022560.814 9      -812.111 9        56.324                  
  21775779.973 8 114432503.913 8      1779.920 8        52.019                  
  23487290.682 8 123426548.341 8     -3664.302 8        48.783                  
  24969970.915 7 131218098.992 7     -1910.608 7        46.438                  
  20441934.710 9 107423095.154 9       857.057 9        57.047                  
 02  5 18 00 01  7.0000000  0  7G01G23G10G21G16G07G08                           
  23748085.534 8 124797025.711 8      3392.506 8        49.239                  
  23014023.104 8 120939509.762 8     -2827.309 8        48.929                  
  21317336.627 9 112023373.226 9      -813.312 9        54.962                  
  21775443.107 8 114430723.640 8      1779.769 8        52.921                  
  23487989.665 8 123430216.554 8     -3668.214 8        50.144                  
  24970337.480 7 131220011.640 7     -1914.448 7        46.125                  
  20441772.817 9 107422238.146 9       856.605 9        57.081                  
 02  5 18 00 01  8.0000000  0  7G01G23G10G21G16G07G08                           
  23747438.729 8 124793632.455 8      3393.753 8        48.829                  
  23014562.302 8 120942338.417 8     -2828.527 8        49.937                  
  21317491.390 9 112024186.271 9      -813.305 9        57.860                  
  21775100.915 8 114428943.669 8      1778.941 8        52.588                  
  23488687.486 8 123433884.945 8     -3666.789 8        50.791                  
  24970700.042 8 131221924.639 8     -1914.160 8        48.156                  
  20441607.314 9 107421381.601 9       857.249 9        58.677                  
 02  5 18 00 01  9.0000000  0  7G01G23G10G21G16G07G08                           
  23746792.567 8 124790239.341 8      3391.821 8        48.037                  
  23015099.266 8 120945167.476 8     -2829.921 8        50.430                  
  21317645.421 9 112024999.930 9      -813.794 9        55.615                  
  21774760.510 8 114427163.990 8      1780.308 8        53.922                  
  23489384.413 8 123437553.540 8     -3666.966 8        48.458                  
  24971064.571 8 131223837.982 8     -1912.768 8        48.028                  
  20441442.598 9 107420525.537 9       855.906 9        57.477                  
 02  5 18 00 01 10.0000000  0  7G01G23G10G21G16G07G08                           
  23746148.782 8 124786846.381 8      3397.282 8        49.617                  
  23015639.304 8 120947996.930 8     -2828.593 8        50.116                  
  21317800.542 9 112025814.190 9      -814.371 9        54.994                  
  21774425.180 8 114425384.613 8      1779.832 8        53.368                  
  23490083.968 8 123441222.324 8     -3669.580 8        49.552                  
  24971429.831 8 131225751.682 8     -1914.118 8        48.429                  
  20441277.524 9 107419669.948 9       855.833 9        56.893                  
 02  5 18 00 01 11.0000000  0  7G01G23G10G21G16G07G08                           
  23745502.370 7 124783453.602 7      3393.369 7        47.495                  
  23016176.429 8 120950826.753 8     -2827.727 8        50.591                  
  21317955.288 9 112026629.045 9      -815.040 9        56.144                  
  21774088.492 8 114423605.533 8      1779.032 8        51.797                  
  23490781.967 8 123444891.290 8     -3669.853 8        50.929                  
  24971791.911 8 131227665.729 8     -1913.685 8        48.152                  
  20441111.824 9 107418814.837 9       854.972 9        57.301                  
 02  5 18 00 01 12.0000000  0  7G01G23G10G21G16G07G08                           
  23744856.030 8 124780060.965 8      3389.819 8        50.044                  
  23016715.609 8 120953656.963 8     -2829.856 8        50.661                  
  21318109.676 9 112027444.508 9      -816.642 9        57.079                  
  21773745.264 8 114421826.764 8      1779.381 8        53.136                  
  23491479.610 8 123448560.458 8     -3669.270 8        51.391                  
  24972158.870 7 131229580.130 7     -1918.344 7        47.874                  
  20440946.553 9 107417960.178 9       854.459 9        57.351                  
 02  5 18 00 01 13.0000000  0  7G01G23G10G21G16G07G08                           
  23744211.280 8 124776668.494 8      3391.670 8        48.971                  
  23017255.146 8 120956487.562 8     -2828.585 8        50.190                  
  21318266.030 9 112028260.617 9      -816.420 9        56.979                  
  21773406.449 8 114420048.306 8      1778.183 8        52.762                  
  23492178.557 8 123452229.804 8     -3669.341 8        50.384                  
  24972519.038 7 131231494.871 7     -1913.296 7        46.503                  
  20440784.410 9 107417105.994 9       854.153 9        56.032                  
 02  5 18 00 01 14.0000000  0  7G01G23G10G21G16G07G08                           
  23743565.958 8 124773276.190 8      3392.188 8        48.587                  
  23017792.307 8 120959318.566 8     -2830.582 8        50.839                  
  21318421.098 9 112029077.318 9      -816.928 9        54.928                  
  21773072.763 8 114418270.155 8      1778.675 8        51.972                  
  23492876.342 8 123455899.350 8     -3670.678 8        49.963                  
  24972887.479 7 131233409.973 7     -1916.104 7        46.555                  
  20440624.053 9 107416252.288 9       854.235 9        54.640                  
 02  5 18 00 01 15.0000000  0  7G01G23G10G21G16G07G08                           
  23742918.956 8 124769884.043 8      3390.839 8        48.746                  
  23018333.774 8 120962149.968 8     -2830.884 8        50.296                  
  21318576.272 9 112029894.618 9      -817.248 9        55.327                  
  21772733.519 8 114416492.292 8      1778.167 8        52.873                  
  23493574.020 8 123459569.092 8     -3670.102 8        49.065                  
  24973249.648 7 131235325.428 7     -1916.262 7        46.915                  
  20440463.804 9 107415399.060 9       853.151 9        55.699                  
 02  5 18 00 01 16.0000000  0  7G01G23G10G21G16G07G08                           
  23742273.742 8 124766492.049 8      3394.994 8        48.231                  
  23018869.827 8 120964981.752 8     -2831.786 8        50.694                  
  21318731.322 9 112030712.525 9      -818.482 9        55.988                  
  21772392.328 8 114414714.739 8      1778.222 8        52.845                  
  23494274.021 8 123463239.007 8     -3672.115 8        49.603                  
  24973615.856 7 131237241.230 7     -1915.963 7        46.166                  
  20440303.805 9 107414546.308 9       853.045 9        56.597                  
 02  5 18 00 01 17.0000000  0  7G01G23G10G21G16G07G08                           
  23741629.724 7 124763100.237 7      3388.843 7        46.898                  
  23019409.185 8 120967813.905 8     -2834.161 8        50.230                  
  21318887.944 9 112031531.074 9      -819.337 9        56.154                  
  21772053.853 9 114412937.472 9      1777.505 9        54.430                  
  23494971.271 8 123466909.127 8     -3670.678 8        50.237                  
  24973980.759 8 131239157.390 8     -1917.100 8        48.101                  
  20440143.234 9 107413694.011 9       852.055 9        57.647                  
 02  5 18 00 01 18.0000000  0  7G01G23G10G21G16G07G08                           
  23740984.027 7 124759708.567 7      3392.858 7        47.707                  
  23019948.955 8 120970646.452 8     -2830.442 8        49.602                  
  21319043.726 9 112032350.222 9      -820.217 9        55.393                  
  21771719.363 8 114411160.520 8      1775.622 8        53.196                  
  23495669.592 8 123470579.429 8     -3672.652 8        49.379                  
  24974342.571 7 131241073.890 7     -1914.816 7        47.698                  
  20439983.771 9 107412842.189 9       851.031 9        57.410                  
 02  5 18 00 01 19.0000000  0  7G01G23G10G21G16G07G08                           
  23740337.061 7 124756317.064 7      3392.373 7        47.772                  
  23020485.776 8 120973479.406 8     -2832.157 8        50.261                  
  21319200.884 9 112033169.964 9      -819.868 9        54.683                  
  21771381.496 8 114409383.843 8      1774.897 8        52.675                  
  23496368.503 8 123474249.924 8     -3669.745 8        50.735                  
  24974711.156 8 131242990.739 8     -1916.157 8        48.135                  
  20439822.217 9 107411990.844 9       850.776 9        56.578                  
 02  5 18 00 01 20.0000000  0  7G01G23G10G21G16G07G08                           
  23739693.848 7 124752926.065 7      3386.744 7        47.319                  
  23021027.208 8 120976312.584 8     -2832.390 8        50.780                  
  21319357.935 8 112033990.105 8      -819.433 8        53.413                  
  21771039.572 8 114407607.762 8      1774.906 8        50.982                  
  23497066.860 8 123477920.453 8     -3671.515 8        50.040                  
  24975072.414 7 131244908.386 7     -1920.228 7        47.174                  
  20439658.572 9 107411140.098 9       849.119 9        56.531                  
 02  5 18 00 01 21.0000000  0  7G01G23G10G21G16G07G08                           
  23739049.437 7 124749547.171 7      3367.900 7        47.485                  
  23021565.601 8 120979140.472 8     -2821.574 8        51.160                  
  21319513.681 9 112034803.733 9      -809.195 9        55.157                  
  21770703.295 8 114405841.722 8      1758.397 8        51.665                  
  23497764.092 8 123481585.768 8     -3660.754 8        50.515                  
  24975442.767 7 131246841.913 7     -1944.022 7        46.890                  
  20439495.642 9 107410294.403 9       841.222 9        56.143                  
 02  5 18 00 01 22.0000000  0  7G01G23G10G21G16G07G08                           
  23738408.583 7 124746187.564 7      3351.029 7        47.391                  
  23022101.833 8 120981959.675 8     -2815.828 8        51.378                  
  21319666.301 8 112035606.572 8      -797.347 8        53.611                  
  21770374.808 9 114404091.590 9      1743.190 9        54.049                  
  23498461.055 8 123485242.646 8     -3652.397 8        50.540                  
  24975813.192 7 131248800.657 7     -1970.345 7        46.181                  
  20439334.410 9 107409456.517 9       834.163 9        56.136                  
 02  5 18 00 01 23.0000000  0  7G01G23G10G21G16G07G08                           
  23737774.893 8 124742847.264 8      3330.673 8        48.440                  
  23022636.259 8 120984770.164 8     -2804.431 8        48.993                  
  21319817.169 9 112036398.587 9      -786.958 9        54.773                  
  21770044.678 8 114402357.395 8      1725.651 8        52.659                  
  23499153.998 8 123488891.103 8     -3648.030 8        49.429                  
  24976192.694 7 131250784.602 7     -1991.935 7        46.409                  
  20439175.805 9 107408626.428 9       827.237 9        56.461                  
 02  5 18 00 01 24.0000000  0  7G01G23G10G21G16G07G08                           
  23737143.170 8 124739520.915 8      3327.062 8        49.466                  
  23023169.721 8 120987574.354 8     -2803.471 8        50.641                  
  21319966.339 9 112037182.978 9      -784.614 9        56.661                  
  21769714.584 8 114400634.692 8      1722.218 8        53.411                  
  23499849.014 8 123492533.811 8     -3644.015 8        50.707                  
  24976573.215 7 131252786.671 7     -2005.171 7        45.144                  
  20439016.467 9 107407801.984 9       825.117 9        54.975                  
 02  5 18 00 01 25.0000000  0  7G01G23G10G21G16G07G08                           
  23736510.160 8 124736194.541 8      3331.327 8        48.186                  
  23023703.719 8 120990378.272 8     -2806.929 8        49.553                  
  21320115.760 9 112037968.133 9      -788.125 9        56.222                  
  21769384.454 8 114398911.966 8      1727.013 8        53.752                  
  23500541.724 8 123496178.313 8     -3647.733 8        49.998                  
  24976955.666 7 131254788.074 7     -1991.688 7        47.068                  
  20438858.201 9 107406977.565 9       824.866 9        56.269                  
 02  5 18 00 01 26.0000000  0  7G01G23G10G21G16G07G08                           
  23735873.236 8 124732854.868 8      3347.626 8        49.491                  
  23024236.877 8 120993187.083 8     -2813.584 8        51.529                  
  21320266.771 9 112038761.981 9      -797.455 9        56.799                  
  21769055.235 8 114397178.069 8      1739.495 8        53.992                  
  23501237.079 8 123499833.166 8     -3660.646 8        49.317                  
  24977329.468 7 131256770.301 7     -1971.360 7        47.283                  
  20438698.630 9 107406147.535 9       833.215 9        57.278                  
 02  5 18 00 01 27.0000000  0  7G01G23G10G21G16G07G08                           
  23735236.152 7 124729508.883 7      3348.204 7        47.708                  
  23024772.841 8 120995995.918 8     -2807.856 8        51.041                  
  21320419.140 9 112039560.415 9      -797.805 9        55.703                  
  21768727.713 8 114395438.323 8      1737.102 8        52.406                  
  23501934.865 7 123503498.384 7     -3667.553 7        47.593                  
  24977708.273 8 131258740.852 8     -1968.610 8        49.492                  
  20438540.025 9 107405313.800 9       833.923 9        56.538                  
 02  5 18 00 01 28.0000000  0  7G01G23G10G21G16G07G08                           
  23734601.605 7 124726165.546 7      3343.045 7        45.914                  
  23025303.711 8 120998800.377 8     -2803.064 8        52.521                  
  21320570.741 9 112040358.104 9      -797.846 9        55.072                  
  21768397.923 9 114393699.976 9      1738.397 9        55.263                  
  23502633.222 8 123507170.234 8     -3673.714 8        48.174                  
  24978079.467 8 131260711.217 8     -1969.500 8        50.460                  
  20438382.670 9 107404479.739 9       833.682 9        56.481                  
 02  5 18 00 01 29.0000000  0  7G01G23G10G21G16G07G08                           
  23733964.825 7 124722818.745 7      3358.478 7        46.868                  
  23025842.748 8 121001604.172 8     -2809.987 8        51.669                  
  21320722.556 9 112041158.628 9      -805.884 9        55.171                  
  21768063.379 8 114391958.258 8      1749.240 8        53.984                  
  23503332.454 8 123510849.779 8     -3681.678 8        49.775                  
  24978456.878 8 131262674.320 8     -1956.386 8        48.310                  
  20438224.940 9 107403643.412 9       839.887 9        57.146                  
 02  5 18 00 01 30.0000000  0  7G01G23G10G21G16G07G08                           
  23733322.630 8 124719452.689 8      3367.509 8        48.490                  
  23026376.996 8 121004419.542 8     -2817.631 8        51.163                  
  21320876.659 9 112041971.303 9      -814.881 9        56.601                  
  21767726.441 8 114390201.520 8      1759.679 8        52.418                  
  23504034.332 8 123514534.092 8     -3686.714 8        49.377                  
  24978822.318 7 131264614.615 7     -1936.565 7        46.018                  
  20438066.174 9 107402801.093 9       844.125 9        57.865                  
 02  5 18 00 01 31.0000000  0  7G01G23G10G21G16G07G08                           
  23732683.026 8 124716089.697 8      3359.493 8        49.360                  
  23026908.725 8 121007226.009 8     -2798.190 8        49.772                  
  21321033.031 8 112042783.062 8      -809.043 8        53.373                  
  21767395.488 8 114388445.471 8      1753.760 8        51.978                  
  23504738.729 8 123518233.935 8     -3711.950 8        51.125                  
  24979193.028 7 131266550.802 7     -1936.120 7        45.438                  
  20437907.354 9 107401956.495 9       846.071 9        55.916                  
 02  5 18 00 01 32.0000000  0  7G01G23G10G21G16G07G08                           
  23732044.727 8 124712730.139 8      3361.973 8        48.119                  
  23027442.169 8 121010021.042 8     -2794.298 8        51.530                  
  21321186.651 8 112043593.747 8      -813.878 8        52.333                  
  21767064.590 9 114386689.783 9      1757.990 9        54.187                  
  23505445.931 8 123521954.220 8     -3723.867 8        49.931                  
  24979558.468 7 131268480.799 7     -1928.159 7        44.758                  
  20437747.534 9 107401108.619 9       850.118 9        55.164                  
 02  5 18 00 01 33.0000000  0  7G01G23G10G21G16G07G08                           
  23731402.407 8 124709357.727 8      3379.544 8        49.712                  
  23027973.862 8 121012828.000 8     -2820.534 8        48.654                  
  21321343.076 8 112044412.678 8      -823.690 8        53.716                  
  21766726.043 8 114384925.154 8      1770.746 8        52.082                  
  23506153.098 8 123525669.215 8     -3704.565 8        49.579                  
  24979926.212 7 131270399.903 7     -1913.648 7        46.922                  
  20437588.517 9 107400258.907 9       849.688 9        56.596                  
 02  5 18 00 01 34.0000000  0  7G01G23G10G21G16G07G08                           
  23730757.192 8 124705971.577 8      3390.431 8        48.927                  
  23028514.918 8 121015650.435 8     -2824.529 8        52.155                  
  21321501.306 8 112045240.228 8      -829.470 8        52.768                  
  21766385.192 8 114383151.639 8      1778.139 8        52.673                  
  23506858.585 8 123529372.720 8     -3710.306 8        48.200                  
  24980288.471 7 131272310.236 7     -1902.938 7        46.903                  
  20437428.232 9 107399408.479 9       852.153 9        56.683                  
 02  5 18 00 01 35.0000000  0  7G01G23G10G21G16G07G08                           
  23730112.210 7 124702574.671 7      3403.582 7        47.491                  
  23029049.559 8 121018474.139 8     -2825.280 8        51.542                  
  21321659.590 8 112046074.994 8      -838.215 8        53.756                  
  21766047.682 8 114381368.440 8      1788.587 8        52.982                  
  23507565.322 8 123533090.449 8     -3723.408 8        48.532                  
  24980646.923 8 131274202.230 8     -1884.017 8        48.232                  
  20437263.819 9 107398552.293 9       858.341 9        57.485                  
 02  5 18 00 01 36.0000000  0  7G01G23G10G21G16G07G08                           
  23729463.528 7 124699166.115 7      3411.068 7        47.810                  
  23029588.167 8 121021298.681 8     -2824.407 8        51.177                  
  21321819.393 8 112046917.550 8      -846.131 8        53.685                  
  21765709.403 8 114379574.638 8      1795.671 8        51.060                  
  23508274.883 8 123536824.482 8     -3737.703 8        49.258                  
  24981005.322 7 131276073.931 7     -1866.617 7        47.083                  
  20437097.352 9 107397689.626 9       865.670 9        54.179                  
 02  5 18 00 01 37.0000000  0  7G01G23G10G21G16G07G08                           
  23728812.346 7 124695753.482 7      3413.346 7        46.790                  
  23030123.880 8 121024124.291 8     -2826.318 8        50.792                  
  21321978.856 9 112047763.207 9      -846.033 9        54.445                  
  21765364.585 8 114377777.359 8      1798.072 8        51.733                  
  23508986.982 8 123540563.386 8     -3739.321 8        49.681                  
  24981359.290 8 131277939.133 8     -1866.841 8        48.027                  
  20436929.794 9 107396825.205 9       863.578 9        54.032                  
 02  5 18 00 01 38.0000000  0  7G01G23G10G21G16G07G08                           
  23728164.236 8 124692341.964 8      3410.034 8        48.251                  
  23030661.774 8 121026949.398 8     -2826.675 8        50.183                  
  21322138.837 9 112048608.948 9      -845.483 9        55.167                  
  21765020.838 9 114375981.020 9      1794.568 9        54.143                  
  23509699.455 8 123544303.018 8     -3742.044 8        49.915                  
  24981717.260 8 131279805.456 8     -1865.747 8        48.501                  
  20436762.557 9 107395961.413 9       864.137 9        55.964                  
 02  5 18 00 01 39.0000000  0  7G01G23G10G21G16G07G08                           
  23727516.430 8 124688932.875 8      3406.948 8        48.560                  
  23031202.151 8 121029772.724 8     -2823.876 8        50.727                  
  21322298.944 9 112049453.940 9      -845.846 9        54.510                  
  21764683.239 8 114374186.571 8      1795.707 8        53.847                  
  23510411.232 8 123548044.034 8     -3742.020 8        50.525                  
  24982071.853 7 131281673.992 7     -1868.126 7        47.154                  
  20436595.697 9 107395098.483 9       861.068 9        55.383                  
 02  5 18 00 01 40.0000000  0  7G01G23G10G21G16G07G08                           
  23726866.373 7 124685524.567 7      3406.587 7        47.103                  
  23031736.613 8 121032595.874 8     -2822.224 8        50.082                  
  21322459.818 9 112050299.136 9      -845.730 9        55.690                  
  21764342.369 9 114372392.887 9      1793.778 9        54.044                  
  23511121.955 8 123551785.547 8     -3742.745 8        50.711                  
  24982423.694 8 131283543.427 8     -1870.214 8        49.211                  
  20436433.499 9 107394236.120 9       863.166 9        56.878                  
 02  5 18 00 01 41.0000000  0  7G01G23G10G21G16G07G08                           
  23726218.014 7 124682116.514 7      3406.288 7        47.648                  
  23032276.276 8 121035419.276 8     -2825.123 8        49.729                  
  21322620.068 9 112051144.879 9      -846.924 9        56.995                  
  21763996.407 8 114370599.578 8      1792.933 8        52.029                  
  23511835.250 8 123555527.322 8     -3743.194 8        50.788                  
  24982783.737 8 131285413.317 8     -1870.908 8        48.207                  
  20436271.499 9 107393374.310 9       861.581 9        55.501                  
 02  5 18 00 01 42.0000000  0  7G01G23G10G21G16G07G08                           
  23725570.672 7 124678708.605 7      3409.133 7        47.709                  
  23032810.542 8 121038243.042 8     -2824.728 8        50.334                  
  21322781.282 9 112051991.207 9      -848.118 9        54.531                  
  21763656.574 8 114368806.537 8      1792.732 8        53.447                  
  23512547.456 8 123559269.291 8     -3742.440 8        50.296                  
  24983137.651 7 131287283.556 7     -1870.385 7        46.961                  
  20436109.552 9 107392512.964 9       861.187 9        56.384                  
 02  5 18 00 01 43.0000000  0  7G01G23G10G21G16G07G08                           
  23724920.615 8 124675300.713 8      3404.656 8        48.333                  
  23033349.972 8 121041067.365 8     -2823.408 8        51.233                  
  21322942.371 8 112052838.196 8      -847.675 8        53.073                  
  21763318.796 8 114367013.677 8      1792.125 8        53.514                  
  23513258.965 8 123563011.377 8     -3739.848 8        51.360                  
  24983491.440 7 131289154.038 7     -1872.371 7        45.691                  
  20435948.087 9 107391652.118 9       861.166 9        55.966                  
 02  5 18 00 01 44.0000000  0  7G01G23G10G21G16G07G08                           
  23724273.167 8 124671892.089 8      3411.448 8        48.464                  
  23033885.792 8 121043892.840 8     -2826.838 8        50.541                  
  21323106.016 8 112053686.288 8      -848.296 8        53.197                  
  21762977.015 8 114365220.528 8      1794.040 8        52.495                  
  23513970.491 8 123566753.253 8     -3742.987 8        49.709                  
  24983850.142 7 131291024.166 7     -1868.672 7        46.973                  
  20435787.427 9 107390791.605 9       859.999 9        57.321                  
 02  5 18 00 01 45.0000000  0  7G01G23G10G21G16G07G08                           
  23723624.075 8 124668481.474 8      3412.148 8        49.317                  
  23034425.651 8 121046720.712 8     -2827.963 8        48.664                  
  21323268.410 8 112054536.228 8      -850.010 8        53.222                  
  21762631.249 8 114363426.169 8      1794.531 8        53.237                  
  23514683.430 8 123570494.208 8     -3741.982 8        50.256                  
  24984203.610 7 131292892.913 7     -1867.753 7        45.849                  
  20435624.944 9 107389931.247 9       860.430 9        54.015                  
 02  5 18 00 01 46.0000000  0  7G01G23G10G21G16G07G08                           
  23722973.571 8 124665070.301 8      3410.312 8        48.363                  
  23034964.777 8 121049549.678 8     -2826.800 8        50.522                  
  21323430.071 8 112055387.200 8      -851.562 8        53.908                  
  21762293.078 8 114361631.605 8      1794.425 8        51.909                  
  23515395.117 8 123574234.934 8     -3739.447 8        49.958                  
  24984562.688 7 131294761.410 7     -1868.299 7        45.777                  
  20435458.637 9 107389071.284 9       859.457 9        56.001                  
 02  5 18 00 01 47.0000000  0  7G01G23G10G21G16G07G08                           
  23722325.747 8 124661659.376 8      3410.973 8        48.329                  
  23035499.812 8 121052378.861 8     -2828.818 8        51.544                  
  21323593.537 9 112056238.690 9      -851.804 9        54.082                  
  21761954.335 8 114359837.408 8      1794.016 8        52.719                  
  23516106.787 8 123577975.912 8     -3743.048 8        49.175                  
  24984917.870 7 131296630.379 7     -1871.040 7        45.962                  
  20435292.687 8 107388211.821 8       858.742 8        53.861                  
 02  5 18 00 01 48.0000000  0  7G01G23G10G21G16G07G08                           
  23721676.977 8 124658249.957 8      3409.565 8        48.246                  
  23036040.510 8 121055207.159 8     -2826.434 8        49.741                  
  21323755.877 9 112057089.963 9      -849.983 9        55.108                  
  21761607.622 9 114358044.479 9      1791.311 9        54.007                  
  23516818.313 7 123581717.842 7     -3741.420 7        47.744                  
  24985272.141 7 131298500.814 7     -1873.333 7        45.506                  
  20435127.453 9 107387353.084 9       858.149 9        56.024                  
 02  5 18 00 01 49.0000000  0  7G01G23G10G21G16G07G08                           
  23721027.759 8 124654842.726 8      3409.837 8        48.523                  
  23036576.849 8 121058033.922 8     -2826.384 8        49.320                  
  21323917.109 9 112057940.665 9      -850.590 9        56.133                  
  21761266.235 8 114356253.272 8      1791.032 8        51.460                  
  23517530.805 8 123585461.017 8     -3746.419 8        49.067                  
  24985630.540 7 131300373.275 7     -1869.999 7        46.430                  
  20434960.770 9 107386495.159 9       858.103 9        55.638                  
 02  5 18 00 01 50.0000000  0  7G01G23G10G21G16G07G08                           
  23720380.168 7 124651436.098 7      3404.691 7        47.202                  
  23037115.261 8 121060860.676 8     -2828.795 8        50.403                  
  21324077.126 9 112058791.688 9      -850.997 9        55.109                  
  21760930.244 8 114354462.663 8      1791.531 8        51.310                  
  23518244.190 8 123589204.601 8     -3742.645 8        49.419                  
  24985985.008 7 131302246.469 7     -1873.232 7        46.889                  
  20434795.875 9 107385637.794 9       857.460 9        55.672                  
 02  5 18 00 01 51.0000000  0  7G01G23G10G21G16G07G08                           
  23719732.755 8 124648029.354 8      3406.721 8        48.437                  
  23037655.423 8 121063688.033 8     -2826.920 8        50.931                  
  21324237.357 9 112059643.436 9      -852.219 9        54.250                  
  21760589.731 8 114352672.144 8      1790.766 8        50.918                  
  23518956.413 8 123592948.254 8     -3744.526 8        50.072                  
  24986341.031 7 131304119.853 7     -1871.232 7        47.261                  
  20434634.375 9 107384780.904 9       858.191 9        54.569                  
 02  5 18 00 01 52.0000000  0  7G01G23G10G21G16G07G08                           
  23719083.091 8 124644622.642 8      3404.237 8        49.298                  
  23038190.744 8 121066515.879 8     -2829.545 8        50.235                  
  21324400.037 9 112060495.857 9      -852.636 9        54.325                  
  21760244.627 8 114350881.858 8      1790.019 8        53.658                  
  23519667.654 8 123596692.057 8     -3744.660 8        49.026                  
  24986700.627 8 131305993.456 8     -1874.040 8        48.621                  
  20434473.196 9 107383924.481 9       856.001 9        55.309                  
 02  5 18 00 01 53.0000000  0  7G01G23G10G21G16G07G08                           
  23718435.178 8 124641217.372 8      3402.753 8        48.292                  
  23038730.763 8 121069343.449 8     -2827.657 8        50.402                  
  21324562.252 9 112061348.093 9      -850.605 9        55.314                  
  21759905.080 9 114349092.901 9      1785.750 9        55.383                  
  23520380.968 8 123600435.593 8     -3742.047 8        50.556                  
  24987054.612 7 131307869.034 7     -1880.146 7        47.780                  
  20434312.643 9 107383069.016 9       853.199 9        55.405                  
 02  5 18 00 01 54.0000000  0  7G01G23G10G21G16G07G08                           
  23717789.892 7 124637820.196 7      3391.101 7        47.282                  
  23039267.888 8 121072171.965 8     -2828.194 8        51.839                  
  21324723.252 9 112062196.111 9      -844.931 9        56.064                  
  21759570.768 9 114347311.770 9      1774.885 9        54.251                  
  23521090.904 8 123604166.590 8     -3722.652 8        51.290                  
  24987415.549 7 131309759.751 7     -1902.756 7        46.271                  
  20434152.268 9 107382219.102 9       845.612 9        57.243                  
 02  5 18 00 01 55.0000000  0  7G01G23G10G21G16G07G08                           
  23717144.874 8 124634435.438 8      3377.249 8        48.538                  
  23039806.389 8 121075000.950 8     -2829.599 8        50.967                  
  21324883.215 9 112063037.325 9      -838.809 9        57.268                  
  21759232.436 8 114345542.386 8      1763.703 8        52.243                  
  23521796.820 8 123607879.864 8     -3705.998 8        50.220                  
  24987779.469 7 131311672.811 7     -1924.189 7        45.630                  
  20433994.378 9 107381377.101 9       838.864 9        56.242                  
 02  5 18 00 01 56.0000000  0  7G01G23G10G21G16G07G08                           
  23716501.857 8 124631059.287 8      3372.332 8        48.566                  
  23040346.034 8 121077832.349 8     -2828.290 8        50.597                  
  21325042.786 9 112063873.996 9      -833.244 9        55.665                  
  21758893.425 8 114343781.699 8      1757.102 8        50.717                  
  23522500.287 8 123611576.810 8     -3698.078 8        49.541                  
  24988145.784 7 131313603.416 7     -1935.586 7        44.705                  
  20433837.363 9 107380541.622 9       833.490 9        55.153                  
 02  5 18 00 01 57.0000000  0  7G01G23G10G21G16G07G08                           
  23715864.577 8 124627702.098 8      3342.936 8        49.184                  
  23040880.085 8 121080648.197 8     -2805.917 8        49.991                  
  21325201.588 9 112064700.205 9      -817.414 9        54.139                  
  21758561.865 8 114342034.835 8      1737.050 8        53.796                  
  23523206.078 8 123615280.268 8     -3704.406 8        49.215                  
  24988517.835 7 131315551.508 7     -1961.906 7        45.526                  
  20433680.133 9 107379710.365 9       828.431 9        58.288                  
 02  5 18 00 01 58.0000000  0  7G01G23G10G21G16G07G08                           
  23715230.476 7 124624371.338 7      3319.858 7        47.873                  
  23041413.761 8 121083441.079 8     -2784.411 8        51.082                  
  21325356.584 9 112065511.582 9      -805.220 9        55.000                  
  21758236.488 8 114340306.940 8      1721.045 8        52.398                  
  23523912.959 8 123618994.822 8     -3718.432 8        49.669                  
  24988891.405 7 131317522.863 7     -1979.594 7        46.320                  
  20433521.903 9 107378884.362 9       824.658 9        57.648                  
 02  5 18 00 01 59.0000000  0  7G01G23G10G21G16G07G08                           
  23714599.485 7 124621060.044 7      3308.459 7        47.227                  
  23041939.450 8 121086214.591 8     -2770.328 8        49.168                  
  21325509.060 9 112066312.270 9      -800.105 9        54.117                  
  21757911.594 9 114338592.358 9      1711.704 9        54.169                  
  23524621.537 8 123622723.136 8     -3731.283 8        51.365                  
  24989269.889 7 131319508.684 7     -1987.772 7        46.491                  
  20433363.941 9 107378061.066 9       823.348 9        55.566                  
 02  5 18 00 02  0.0000000  0  7G01G23G10G21G16G07G08                           
  23713969.727 8 124617751.509 8      3311.585 8        48.510                  
  23042469.606 8 121088985.384 8     -2771.581 8        52.096                  
  21325661.429 8 112067112.033 8      -800.287 8        51.160                  
  21757583.376 9 114336879.726 9      1711.444 9        54.222                  
  23525331.902 8 123626454.328 8     -3729.388 8        50.980                  
  24989648.354 7 131321496.365 7     -1988.647 7        46.583                  
  20433206.282 8 107377238.342 8       822.686 8        53.614                  
 02  5 18 00 02  1.0000000  0  7G01G23G10G21G16G07G08                           
  23713340.398 8 124614442.951 8      3306.829 8        48.735                  
  23042994.384 8 121091756.534 8     -2770.964 8        50.899                  
  21325813.709 8 112067912.500 8      -801.023 8        53.644                  
  21757254.300 8 114335167.201 8      1711.733 8        53.912                  
  23526042.607 8 123630186.026 8     -3732.260 8        50.923                  
  24990026.123 7 131323484.049 7     -1985.235 7        47.131                  
  20433048.678 9 107376415.977 9       822.585 9        56.058                  
 02  5 18 00 02  2.0000000  0  7G01G23G10G21G16G07G08                           
  23712711.462 8 124611133.901 8      3307.453 8        49.969                  
  23043523.146 8 121094528.021 8     -2771.850 8        50.441                  
  21325966.829 9 112068713.919 9      -801.110 9        54.352                  
  21756927.993 8 114333454.366 8      1713.217 8        53.804                  
  23526752.418 8 123633918.905 8     -3736.042 8        50.595                  
  24990404.965 7 131325470.937 7     -1984.495 7        45.813                  
  20432890.858 9 107375593.695 9       822.677 9        56.992                  
 02  5 18 00 02  3.0000000  0  7G01G23G10G21G16G07G08                           
  23712081.812 8 124607821.956 8      3316.122 8        49.022                  
  23044048.924 8 121097300.044 8     -2771.868 8        48.811                  
  21326119.662 8 112069517.785 8      -806.414 8        53.335                  
  21756603.635 8 114331739.004 8      1716.886 8        53.626                  
  23527462.765 8 123637656.126 8     -3739.499 8        52.175                  
  24990777.695 7 131327452.865 7     -1979.726 7        47.140                  
  20432732.950 9 107374770.114 9       824.668 9        57.125                  
 02  5 18 00 02  4.0000000  0  7G01G23G10G21G16G07G08                           
  23711449.498 7 124604507.476 7      3312.801 7        47.771                  
  23044578.651 8 121100072.789 8     -2771.316 8        50.021                  
  21326273.050 9 112070323.840 9      -806.720 9        55.590                  
  21756280.080 8 114330021.520 8      1715.968 8        51.666                  
  23528175.328 8 123641396.637 8     -3742.539 8        50.134                  
  24991156.393 7 131329430.726 7     -1979.603 7        47.173                  
  20432574.970 9 107373945.543 9       824.092 9        56.694                  
 02  5 18 00 02  5.0000000  0  7G01G23G10G21G16G07G08                           
  23710818.954 7 124601194.539 7      3312.435 7        47.895                  
  23045104.251 8 121102845.699 8     -2772.856 8        50.031                  
  21326426.527 9 112071129.659 9      -805.305 9        56.382                  
  21755953.613 8 114328305.537 8      1715.800 8        52.714                  
  23528888.749 8 123645135.824 8     -3738.198 8        50.784                  
  24991534.287 8 131331411.196 8     -1983.448 8        48.467                  
  20432416.489 9 107373122.177 9       822.470 9        55.748                  
 02  5 18 00 02  6.0000000  0  7G01G23G10G21G16G07G08                           
  23710189.464 8 124597883.502 8      3310.014 8        48.509                  
  23045632.405 8 121105618.754 8     -2774.630 8        49.129                  
  21326580.379 9 112071935.038 9      -805.038 9        54.903                  
  21755624.341 8 114326591.414 8      1715.015 8        53.920                  
  23529598.453 8 123648873.137 8     -3737.041 8        50.246                  
  24991913.807 7 131333394.897 7     -1984.777 7        47.073                  
  20432258.474 9 107372300.205 9       822.135 9        55.953                  
 02  5 18 00 02  7.0000000  0  7G01G23G10G21G16G07G08                           
  23709560.296 8 124594572.820 8      3309.083 8        49.482                  
  23046158.791 8 121108392.167 8     -2774.262 8        48.675                  
  21326734.196 9 112072740.869 9      -806.762 9        55.917                  
  21755296.266 9 114324877.781 9      1714.420 9        54.864                  
  23530308.389 8 123652610.339 8     -3736.362 8        49.764                  
  24992289.360 7 131335379.354 7     -1988.738 7        45.926                  
  20432101.012 9 107371478.842 9       821.609 9        56.681                  
 02  5 18 00 02  8.0000000  0  7G01G23G10G21G16G07G08                           
  23708930.592 8 124591260.463 8      3317.463 8        48.466                  
  23046690.073 7 121111167.374 7     -2779.168 7        47.234                  
  21326886.672 8 112073548.383 8      -810.066 8        53.764                  
  21754969.459 9 114323163.068 9      1718.532 9        54.675                  
  23531020.488 8 123656347.458 8     -3733.722 8        48.493                  
  24992669.828 7 131337362.342 7     -1974.856 7        45.791                  
  20431945.087 9 107370657.535 9       821.807 9        55.838                  
 02  5 18 00 02  9.0000000  0  7G01G23G10G21G16G07G08                           
  23708294.794 8 124587929.915 8      3339.979 8        48.463                  
  23047220.086 8 121113960.590 8     -2804.139 8        51.173                  
  21327043.312 9 112074367.261 9      -826.438 9        55.881                  
  21754644.582 8 114321435.925 8      1735.002 8        53.189                  
  23531729.834 8 123660074.381 8     -3721.012 8        48.312                  
  24993042.593 7 131339330.999 7     -1960.701 7        44.620                  
  20431789.162 9 107369834.000 9       825.238 9        56.395                  
 02  5 18 00 02 10.0000000  0  7G01G23G10G21G16G07G08                           
  23707656.602 8 124584575.366 8      3363.780 8        48.264                  
  23047754.155 8 121116777.436 8     -2823.887 8        50.113                  
  21327201.596 9 112075200.909 9      -838.326 9        55.153                  
  21754315.953 9 114319692.424 9      1748.377 9        54.569                  
  23532435.518 8 123663787.588 8     -3705.856 8        48.813                  
  24993414.340 7 131341280.830 7     -1943.506 7        46.066                  
  20431633.522 9 107369007.440 9       828.188 9        56.510                  
 02  5 18 00 02 11.0000000  0  7G01G23G10G21G16G07G08                           
  23707017.927 8 124581212.098 8      3360.590 8        48.946                  
  23048293.264 8 121119599.172 8     -2815.811 8        49.719                  
  21327361.595 8 112076040.425 8      -838.437 8        53.021                  
  21753979.497 8 114317942.090 8      1750.676 8        52.786                  
  23533143.042 8 123667504.343 8     -3724.872 8        48.485                  
  24993781.191 7 131343219.836 7     -1936.679 7        46.167                  
  20431476.490 9 107368178.171 9       831.122 9        56.102                  
 02  5 18 00 02 12.0000000  0  7G01G23G10G21G16G07G08                           
  23706377.930 8 124577850.737 8      3359.290 8        49.117                  
  23048827.315 8 121122409.529 8     -2808.532 8        49.000                  
  21327520.004 8 112076879.624 8      -839.731 8        53.779                  
  21753641.290 8 114316190.788 8      1749.948 8        53.799                  
  23533855.337 8 123671243.344 8     -3745.275 8        50.745                  
  24994148.972 7 131345150.378 7     -1927.396 7        44.995                  
  20431319.778 9 107367344.961 9       834.446 9        55.603                  
 02  5 18 00 02 13.0000000  0  7G01G23G10G21G16G07G08                           
  23705736.450 7 124574489.335 7      3359.128 7        47.024                  
  23049363.511 8 121125217.298 8     -2810.023 8        51.202                  
