$GPRMC,000030.00,A,4852.4663532,N,00217.5805745,E,1.18,0.00,180502,0.0,E,A*32
$GPGGA,000030.00,4852.4663532,N,00217.5805745,E,1,06,1.0,-8.449,M,0.000,M,0.0,*58
$GPGSA,A,3,01,08,10,16,21,23,,,,,,,2.2,1.3,1.8,1*29
$GPGSV,2,1,06,01,15,255,47,08,73,299,56,10,56,076,54,16,27,182,50,1*66
$GPGSV,2,2,06,21,45,263,53,23,28,048,50,,,,,,,,,1*63
$GPRMC,000031.00,A,4852.4661889,N,00217.5818119,E,0.51,0.00,180502,0.0,E,A*33
$GPGGA,000031.00,4852.4661889,N,00217.5818119,E,1,06,1.0,-9.660,M,0.000,M,0.0,*5D
$GPGSA,A,3,01,08,10,16,21,23,,,,,,,2.2,1.3,1.8,1*29
$GPGSV,2,1,06,01,15,255,47,08,73,299,57,10,56,076,54,16,27,182,50,1*67
$GPGSV,2,2,06,21,45,263,54,23,28,048,50,,,,,,,,,1*64
$GPRMC,000032.00,A,4852.4667611,N,00217.5820873,E,1.28,0.00,180502,0.0,E,A*38
$GPGGA,000032.00,4852.4667611,N,00217.5820873,E,1,06,1.0,-15.222,M,0.000,M,0.0,*66
$GPGSA,A,3,01,08,10,16,21,23,,,,,,,2.2,1.3,1.8,1*29
$GPGSV,2,1,06,01,15,255,48,08,73,299,57,10,56,076,54,16,27,182,50,1*68
$GPGSV,2,2,06,21,45,263,53,23,28,048,51,,,,,,,,,1*62
$GPRMC,000033.00,A,4852.4665586,N,00217.5807541,E,1.55,0.00,180502,0.0,E,A*35
$GPGGA,000033.00,4852.4665586,N,00217.5807541,E,1,06,1.0,-15.282,M,0.000,M,0.0,*6B
$GPGSA,A,3,01,08,10,16,21,23,,,,,,,2.2,1.3,1.8,1*29
$GPGSV,2,1,06,01,15,255,48,08,73,299,56,10,56,076,54,16,27,182,49,1*61
$GPGSV,2,2,06,21,45,263,54,23,28,048,50,,,,,,,,,1*64
$GPRMC,000034.00,A,4852.4670047,N,00217.5813578,E,1.86,0.00,180502,0.0,E,A*3F
$GPGGA,000034.00,4852.4670047,N,00217.5813578,E,1,06,1.0,-13.872,M,0.000,M,0.0,*6C
$GPGSA,A,3,01,08,10,16,21,23,,,,,,,2.2,1.3,1.8,1*29
$GPGSV,2,1,06,01,15,255,48,08,73,299,56,10,56,076,54,16,27,182,50,1*69
$GPGSV,2,2,06,21,45,263,52,23,28,048,50,,,,,,,,,1*62
$GPRMC,000035.00,A,4852.4661588,N,00217.5809719,E,0.38,0.00,180502,0.0,E,A*32
$GPGGA,000035.00,4852.4661588,N,00217.5809719,E,1,06,1.0,-7.694,M,0.000,M,0.0,*56
$GPGSA,A,3,01,08,10,16,21,23,,,,,,,2.2,1.3,1.8,1*29
$GPGSV,2,1,06,01,15,255,47,08,73,299,58,10,56,076,57,16,27,182,50,1*6B
$GPGSV,2,2,06,21,45,263,52,23,27,048,51,,,,,,,,,1*6C
$GPRMC,000036.00,A,4852.4672673,N,00217.5797212,E,0.99,0.00,180502,0.0,E,A*39
$GPGGA,000036.00,4852.4672673,N,00217.5797212,E,1,06,1.0,-8.328,M,0.000,M,0.0,*5B
$GPGSA,A,3,01,08,10,16,21,23,,,,,,,2.2,1.3,1.8,1*29
$GPGSV,2,1,06,01,15,255,49,08,73,299,57,10,56,076,57,16,27,182,51,1*6B
$GPGSV,2,2,06,21,45,263,54,23,27,048,50,,,,,,,,,1*6B
$GPRMC,000037.00,A,4852.4677732,N,00217.5784411,E,0.60,0.00,180502,0.0,E,A*38
$GPGGA,000037.00,4852.4677732,N,00217.5784411,E,1,06,1.0,-2.631,M,0.000,M,0.0,*5B
$GPGSA,A,3,01,08,10,16,21,23,,,,,,,2.2,1.3,1.8,1*29
$GPGSV,2,1,06,01,15,255,47,08,73,299,59,10,56,076,56,16,27,182,49,1*63
$GPGSV,2,2,06,21,45,263,53,23,27,048,50,,,,,,,,,1*6C
$GPRMC,000038.00,A,4852.4663963,N,00217.5802640,E,0.50,0.00,180502,0.0,E,A*3C
$GPGGA,000038.00,4852.4663963,N,00217.5802640,E,1,06,1.0,-2.134,M,0.000,M,0.0,*5E
$GPGSA,A,3,01,08,10,16,21,23,,,,,,,2.2,1.3,1.8,1*29
$GPGSV,2,1,06,01,15,255,48,08,73,299,55,10,56,076,55,16,27,182,50,1*6B
$GPGSV,2,2,06,21,45,263,53,23,27,048,50,,,,,,,,,1*6C
$GPRMC,000039.00,A,4852.4669093,N,00217.5809329,E,0.82,0.00,180502,0.0,E,A*3F
$GPGGA,000039.00,4852.4669093,N,00217.5809329,E,1,06,1.0,-7.842,M,0.000,M,0.0,*5F
$GPGSA,A,3,01,08,10,16,21,23,,,,,,,2.2,1.3,1.8,1*29
$GPGSV,2,1,06,01,15,255,48,08,73,299,56,10,56,076,54,16,27,182,50,1*69
$GPGSV,2,2,06,21,45,263,52,23,27,048,52,,,,,,,,,1*6F
$GPRMC,000040.00,A,4852.4671112,N,00217.5786910,E,1.67,0.00,180502,0.0,E,A*32
$GPGGA,000040.00,4852.4671112,N,00217.5786910,E,1,06,1.0,-7.111,M,0.000,M,0.0,*57
$GPGSA,A,3,01,08,10,16,21,23,,,,,,,2.2,1.3,1.8,1*29
$GPGSV,2,1,06,01,15,255,48,08,73,299,57,10,56,076,55,16,27,182,50,1*69
$GPGSV,2,2,06,21,45,263,52,23,27,048,50,,,,,,,,,1*6D
$GPRMC,000041.00,A,4852.4665928,N,00217.5804259,E,0.59,0.00,180502,0.0,E,A*38
$GPGGA,000041.00,4852.4665928,N,00217.5804259,E,1,06,1.0,-10.967,M,0.000,M,0.0,*6E
$GPGSA,A,3,01,08,10,16,21,23,,,,,,,2.2,1.3,1.8,1*29
$GPGSV,2,1,06,01,15,255,47,08,73,299,55,10,56,076,54,16,27,182,50,1*65
$GPGSV,2,2,06,21,45,263,54,23,27,048,50,,,,,,,,,1*6B
$GPRMC,000042.00,A,4852.4658075,N,00217.5821317,E,0.85,0.00,180502,0.0,E,A*39
$GPGGA,000042.00,4852.4658075,N,00217.5821317,E,1,06,1.0,-13.996,M,0.000,M,0.0,*63
$GPGSA,A,3,01,08,10,16,21,23,,,,,,,2.2,1.3,1.8,1*29
$GPGSV,2,1,06,01,15,255,49,08,73,299,57,10,56,076,54,16,27,182,50,1*69
$GPGSV,2,2,06,21,45,263,53,23,27,048,50,,,,,,,,,1*6C
$GPRMC,000043.00,A,4852.4668354,N,00217.5813111,E,0.88,0.00,180502,0.0,E,A*33
$GPGGA,000043.00,4852.4668354,N,00217.5813111,E,1,06,1.0,-16.808,M,0.000,M,0.0,*67
$GPGSA,A,3,01,08,10,16,21,23,,,,,,,2.2,1.3,1.8,1*29
$GPGSV,2,1,06,01,15,255,47,08,73,299,56,10,56,076,54,16,27,182,48,1*6F
$GPGSV,2,2,06,21,45,263,54,23,27,048,52,,,,,,,,,1*69
$GPRMC,000044.00,A,4852.4663855,N,00217.5806868,E,0.71,0.00,180502,0.0,E,A*30
$GPGGA,000044.00,4852.4663855,N,00217.5806868,E,1,06,1.0,-13.112,M,0.000,M,0.0,*65
$GPGSA,A,3,01,08,10,16,21,23,,,,,,,2.2,1.3,1.8,1*29
$GPGSV,2,1,06,01,15,255,49,08,73,299,58,10,56,076,56,16,27,182,48,1*6D
$GPGSV,2,2,06,21,45,263,52,23,27,048,51,,,,,,,,,1*6C
$GPRMC,000045.00,A,4852.4664325,N,00217.5802829,E,0.42,0.00,180502,0.0,E,A*3B
$GPGGA,000045.00,4852.4664325,N,00217.5802829,E,1,06,1.0,-10.457,M,0.000,M,0.0,*69
$GPGSA,A,3,01,08,10,16,21,23,,,,,,,2.2,1.3,1.8,1*29
$GPGSV,2,1,06,01,15,255,48,08,73,299,57,10,56,076,56,16,27,182,48,1*63
$GPGSV,2,2,06,21,45,263,52,23,27,048,50,,,,,,,,,1*6D
$GPRMC,000046.00,A,4852.4673790,N,00217.5808398,E,0.50,0.00,180502,0.0,E,A*3C
$GPGGA,000046.00,4852.4673790,N,00217.5808398,E,1,06,1.0,-11.106,M,0.000,M,0.0,*6D
$GPGSA,A,3,01,08,10,16,21,23,,,,,,,2.2,1.3,1.8,1*29
$GPGSV,2,1,06,01,15,255,49,08,73,299,55,10,56,076,56,16,27,182,48,1*60
$GPGSV,2,2,06,21,45,263,51,23,27,048,50,,,,,,,,,1*6E
$GPRMC,000047.00,A,4852.4662560,N,00217.5797497,E,1.48,0.00,180502,0.0,E,A*39
$GPGGA,000047.00,4852.4662560,N,00217.5797497,E,1,06,1.0,-4.137,M,0.000,M,0.0,*56
$GPGSA,A,3,01,08,10,16,21,23,,,,,,,2.2,1.3,1.8,1*29
$GPGSV,2,1,06,01,15,255,50,08,73,299,57,10,56,076,58,16,27,182,49,1*65
$GPGSV,2,2,06,21,45,263,52,23,27,048,52,,,,,,,,,1*6F
$GPRMC,000048.00,A,4852.4674274,N,00217.5779831,E,1.24,0.00,180502,0.0,E,A*39
$GPGGA,000048.00,4852.4674274,N,00217.5779831,E,1,06,1.0,-2.658,M,0.000,M,0.0,*54
$GPGSA,A,3,01,08,10,16,21,23,,,,,,,2.2,1.3,1.8,1*29
$GPGSV,2,1,06,01,15,255,50,08,73,299,57,10,56,076,55,16,27,182,49,1*68
$GPGSV,2,2,06,21,45,263,54,23,27,048,49,,,,,,,,,1*63
$GPRMC,000049.00,A,4852.4673606,N,00217.5791670,E,1.27,0.00,180502,0.0,E,A*30
$GPGGA,000049.00,4852.4673606,N,00217.5791670,E,1,06,1.0,-5.433,M,0.000,M,0.0,*56
$GPGSA,A,3,01,08,10,16,21,23,,,,,,,2.2,1.3,1.8,1*29
$GPGSV,2,1,06,01,15,255,49,08,73,299,57,10,56,076,54,16,27,182,49,1*61
$GPGSV,2,2,06,21,45,263,51,23,27,048,50,,,,,,,,,1*6E
$GPRMC,000050.00,A,4852.4659101,N,00217.5810091,E,1.16,0.00,180502,0.0,E,A*3D
$GPGGA,000050.00,4852.4659101,N,00217.5810091,E,1,06,1.0,-6.800,M,0.000,M,0.0,*56
$GPGSA,A,3,01,08,10,16,21,23,,,,,,,2.2,1.3,1.8,1*29
$GPGSV,2,1,06,01,15,255,49,08,73,299,56,10,56,076,55,16,27,182,51,1*68
$GPGSV,2,2,06,21,45,263,52,23,27,048,51,,,,,,,,,1*6C
$GPRMC,000051.00,A,4852.4672851,N,00217.5807578,E,1.17,0.00,180502,0.0,E,A*3C
$GPGGA,000051.00,4852.4672851,N,00217.5807578,E,1,06,1.0,-9.640,M,0.000,M,0.0,*53
$GPGSA,A,3,01,08,10,16,21,23,,,,,,,2.2,1.3,1.8,1*29
$GPGSV,2,1,06,01,15,255,49,08,73,299,57,10,56,076,55,16,27,182,52,1*6A
$GPGSV,2,2,06,21,45,263,54,23,27,048,53,,,,,,,,,1*68
$GPRMC,000052.00,A,4852.4668024,N,00217.5798400,E,1.88,0.00,180502,0.0,E,A*3F
$GPGGA,000052.00,4852.4668024,N,00217.5798400,E,1,06,1.0,-10.129,M,0.000,M,0.0,*66
$GPGSA,A,3,01,08,10,16,21,23,,,,,,,2.2,1.3,1.8,1*29
$GPGSV,2,1,06,01,15,255,48,08,73,299,56,10,56,076,56,16,27,182,49,1*63
$GPGSV,2,2,06,21,45,263,54,23,27,048,51,,,,,,,,,1*6A
$GPRMC,000053.00,A,4852.4662918,N,00217.5818386,E,1.50,0.00,180502,0.0,E,A*39
$GPGGA,000053.00,4852.4662918,N,00217.5818386,E,1,06,1.0,-15.891,M,0.000,M,0.0,*6A
$GPGSA,A,3,01,08,10,16,21,23,,,,,,,2.2,1.3,1.8,1*29
$GPGSV,2,1,06,01,15,255,48,08,73,299,57,10,56,076,56,16,27,182,49,1*62
$GPGSV,2,2,06,21,45,263,52,23,27,048,49,,,,,,,,,1*65
$GPRMC,000054.00,A,4852.4662978,N,00217.5831033,E,0.43,0.00,180502,0.0,E,A*3D
$GPGGA,000054.00,4852.4662978,N,00217.5831033,E,1,06,1.0,-15.843,M,0.000,M,0.0,*62
$GPGSA,A,3,01,08,10,16,21,23,,,,,,,2.2,1.3,1.8,1*29
$GPGSV,2,1,06,01,15,255,49,08,73,299,57,10,56,076,55,16,27,182,50,1*68
$GPGSV,2,2,06,21,45,263,53,23,27,048,49,,,,,,,,,1*64
$GPRMC,000055.00,A,4852.4664228,N,00217.5811154,E,0.50,0.00,180502,0.0,E,A*34
$GPGGA,000055.00,4852.4664228,N,00217.5811154,E,1,06,1.0,-12.162,M,0.000,M,0.0,*64
$GPGSA,A,3,01,08,10,16,21,23,,,,,,,2.2,1.3,1.8,1*29
$GPGSV,2,1,06,01,15,255,49,08,73,299,59,10,56,076,58,16,27,182,51,1*6A
$GPGSV,2,2,06,21,45,263,52,23,27,048,50,,,,,,,,,1*6D
$GPRMC,000056.00,A,4852.4665099,N,00217.5809409,E,1.06,0.00,180502,0.0,E,A*38
$GPGGA,000056.00,4852.4665099,N,00217.5809409,E,1,06,1.0,-11.090,M,0.000,M,0.0,*65
$GPGSA,A,3,01,08,10,16,21,23,,,,,,,2.2,1.3,1.8,1*29
$GPGSV,2,1,06,01,15,255,48,08,73,299,58,10,56,076,56,16,27,182,48,1*6C
$GPGSV,2,2,06,21,45,263,54,23,27,048,50,,,,,,,,,1*6B
$GPRMC,000057.00,A,4852.4663544,N,00217.5814129,E,1.86,0.00,180502,0.0,E,A*39
$GPGGA,000057.00,4852.4663544,N,00217.5814129,E,1,06,1.0,-6.194,M,0.000,M,0.0,*5F
$GPGSA,A,3,01,08,10,16,21,23,,,,,,,2.2,1.3,1.8,1*29
$GPGSV,2,1,06,01,16,255,50,08,73,299,57,10,56,076,55,16,27,182,50,1*63
$GPGSV,2,2,06,21,45,263,53,23,27,048,50,,,,,,,,,1*6C
$GPRMC,000058.00,A,4852.4667523,N,00217.5817272,E,1.16,0.00,180502,0.0,E,A*34
$GPGGA,000058.00,4852.4667523,N,00217.5817272,E,1,06,1.0,-5.179,M,0.000,M,0.0,*5B
$GPGSA,A,3,01,08,10,16,21,23,,,,,,,2.2,1.3,1.8,1*29
$GPGSV,2,1,06,01,16,255,48,08,73,299,57,10,56,076,56,16,27,182,51,1*68
$GPGSV,2,2,06,21,45,263,52,23,27,048,50,,,,,,,,,1*6D
$GPRMC,000059.00,A,4852.4668189,N,00217.5798084,E,0.75,0.00,180502,0.0,E,A*39
$GPGGA,000059.00,4852.4668189,N,00217.5798084,E,1,06,1.0,-0.594,M,0.000,M,0.0,*50
$GPGSA,A,3,01,08,10,16,21,23,,,,,,,2.2,1.3,1.8,1*29
$GPGSV,2,1,06,01,16,255,50,08,73,299,57,10,56,076,57,16,26,182,52,1*62
$GPGSV,2,2,06,21,45,263,53,23,27,048,51,,,,,,,,,1*6D
$GPRMC,000100.00,A,4852.4668694,N,00217.5792900,E,0.66,0.00,180502,0.0,E,A*32
$GPGGA,000100.00,4852.4668694,N,00217.5792900,E,1,06,1.0,0.127,M,0.000,M,0.0,*78
$GPGSA,A,3,01,08,10,16,21,23,,,,,,,2.2,1.3,1.8,1*29
$GPGSV,2,1,06,01,16,255,49,08,73,299,56,10,56,076,57,16,26,182,50,1*69
$GPGSV,2,2,06,21,45,263,53,23,27,048,50,,,,,,,,,1*6C
$GPRMC,000101.00,A,4852.4665956,N,00217.5817824,E,0.60,0.00,180502,0.0,E,A*3C
$GPGGA,000101.00,4852.4665956,N,00217.5817824,E,1,06,1.0,-4.732,M,0.000,M,0.0,*5B
$GPGSA,A,3,01,08,10,16,21,23,,,,,,,2.2,1.3,1.8,1*29
$GPGSV,2,1,06,01,16,255,48,08,73,299,55,10,56,076,55,16,26,182,50,1*69
$GPGSV,2,2,06,21,45,263,52,23,27,048,51,,,,,,,,,1*6C
$GPRMC,000102.00,A,4852.4656154,N,00217.5811779,E,0.46,0.00,180502,0.0,E,A*30
$GPGGA,000102.00,4852.4656154,N,00217.5811779,E,1,06,1.0,-5.511,M,0.000,M,0.0,*51
$GPGSA,A,3,01,08,10,16,21,23,,,,,,,2.2,1.3,1.8,1*29
$GPGSV,2,1,06,01,16,255,49,08,73,299,56,10,56,076,55,16,26,182,49,1*63
$GPGSV,2,2,06,21,45,263,53,23,27,048,50,,,,,,,,,1*6C
$GPRMC,000103.00,A,4852.4672035,N,00217.5809692,E,1.52,0.00,180502,0.0,E,A*38
$GPGGA,000103.00,4852.4672035,N,00217.5809692,E,1,06,1.0,-9.110,M,0.000,M,0.0,*54
$GPGSA,A,3,01,08,10,16,21,23,,,,,,,2.2,1.3,1.8,1*29
$GPGSV,2,1,06,01,16,255,48,08,73,299,56,10,56,076,56,16,26,182,50,1*69
$GPGSV,2,2,06,21,45,263,53,23,27,048,51,,,,,,,,,1*6D
$GPRMC,000104.00,A,4852.4664141,N,00217.5814939,E,1.64,0.00,180502,0.0,E,A*3D
$GPGGA,000104.00,4852.4664141,N,00217.5814939,E,1,06,1.0,-9.906,M,0.000,M,0.0,*5B
$GPGSA,A,3,01,08,10,16,21,23,,,,,,,2.2,1.3,1.8,1*29
$GPGSV,2,1,06,01,16,255,47,08,73,299,58,10,56,076,56,16,26,182,50,1*68
$GPGSV,2,2,06,21,45,263,54,23,27,048,50,,,,,,,,,1*6B
$GPRMC,000105.00,A,4852.4657623,N,00217.5829636,E,2.05,353.62,180502,0.0,E,A*34
$GPGGA,000105.00,4852.4657623,N,00217.5829636,E,1,06,1.0,-13.389,M,0.000,M,0.0,*61
$GPGSA,A,3,01,08,10,16,21,23,,,,,,,2.2,1.3,1.8,1*29
$GPGSV,2,1,06,01,16,255,48,08,73,299,58,10,56,076,56,16,26,182,50,1*67
$GPGSV,2,2,06,21,45,263,53,23,27,048,50,,,,,,,,,1*6C
$GPRMC,000106.00,A,4852.4668516,N,00217.5826368,E,1.08,353.62,180502,0.0,E,A*31
$GPGGA,000106.00,4852.4668516,N,00217.5826368,E,1,06,1.0,-18.034,M,0.000,M,0.0,*64
$GPGSA,A,3,01,08,10,16,21,23,,,,,,,2.2,1.3,1.8,1*29
$GPGSV,2,1,06,01,16,255,48,08,73,299,56,10,56,076,55,16,26,182,51,1*6B
$GPGSV,2,2,06,21,45,263,53,23,27,048,50,,,,,,,,,1*6C
$GPRMC,000107.00,A,4852.4663335,N,00217.5809684,E,1.27,353.62,180502,0.0,E,A*3B
$GPGGA,000107.00,4852.4663335,N,00217.5809684,E,1,06,1.0,-11.573,M,0.000,M,0.0,*6C
$GPGSA,A,3,01,08,10,16,21,23,,,,,,,2.2,1.3,1.8,1*29
$GPGSV,2,1,06,01,16,255,47,08,73,299,56,10,56,076,54,16,26,182,50,1*64
$GPGSV,2,2,06,21,45,263,51,23,27,048,51,,,,,,,,,1*6F
$GPRMC,000108.00,A,4852.4657851,N,00217.5822535,E,11.12,112.69,180502,0.0,E,A*01
$GPGGA,000108.00,4852.4657851,N,00217.5822535,E,1,06,1.0,-10.773,M,0.000,M,0.0,*6E
$GPGSA,A,3,01,08,10,16,21,23,,,,,,,2.2,1.3,1.8,1*29
$GPGSV,2,1,06,01,16,255,48,08,73,299,56,10,56,076,55,16,26,182,50,1*6A
$GPGSV,2,2,06,21,45,263,52,23,27,048,51,,,,,,,,,1*6C
$GPRMC,000109.00,A,4852.4644637,N,00217.5888420,E,20.15,115.08,180502,0.0,E,A*0C
$GPGGA,000109.00,4852.4644637,N,00217.5888420,E,1,06,1.0,-11.312,M,0.000,M,0.0,*64
$GPGSA,A,3,01,08,10,16,21,23,,,,,,,2.2,1.3,1.8,1*29
$GPGSV,2,1,06,01,16,255,48,08,73,299,56,10,56,076,54,16,26,182,50,1*6B
$GPGSV,2,2,06,21,45,263,54,23,27,048,52,,,,,,,,,1*69
$GPRMC,000110.00,A,4852.4609416,N,00217.5992781,E,29.03,111.79,180502,0.0,E,A*02
$GPGGA,000110.00,4852.4609416,N,00217.5992781,E,1,06,1.0,-9.561,M,0.000,M,0.0,*5D
$GPGSA,A,3,01,08,10,16,21,23,,,,,,,2.2,1.3,1.8,1*29
$GPGSV,2,1,06,01,16,255,48,08,73,299,56,10,56,076,55,16,26,182,50,1*6A
$GPGSV,2,2,06,21,45,263,53,23,27,048,49,,,,,,,,,1*64
$GPRMC,000111.00,A,4852.4583286,N,00217.6103400,E,31.55,113.20,180502,0.0,E,A*00
$GPGGA,000111.00,4852.4583286,N,00217.6103400,E,1,06,1.0,-4.882,M,0.000,M,0.0,*56
$GPGSA,A,3,01,08,10,16,21,23,,,,,,,2.2,1.3,1.8,1*29
$GPGSV,2,1,06,01,16,255,50,08,73,299,55,10,56,076,57,16,26,182,51,1*63
$GPGSV,2,2,06,21,45,263,54,23,27,048,51,,,,,,,,,1*6A
$GPRMC,000112.00,A,4852.4546408,N,00217.6216549,E,28.84,112.86,180502,0.0,E,A*08
$GPGGA,000112.00,4852.4546408,N,00217.6216549,E,1,06,1.0,-2.429,M,0.000,M,0.0,*5C
$GPGSA,A,3,01,08,10,16,21,23,,,,,,,2.2,1.3,1.8,1*29
$GPGSV,2,1,06,01,16,255,48,08,73,299,56,10,56,076,56,16,26,182,50,1*69
$GPGSV,2,2,06,21,45,263,54,23,27,048,50,,,,,,,,,1*6B
$GPRMC,000113.00,A,4852.4529471,N,00217.6309617,E,19.53,107.48,180502,0.0,E,A*07
$GPGGA,000113.00,4852.4529471,N,00217.6309617,E,1,06,1.0,-3.264,M,0.000,M,0.0,*53
$GPGSA,A,3,01,08,10,16,21,23,,,,,,,2.2,1.3,1.8,1*29
$GPGSV,2,1,06,01,16,255,50,08,73,299,57,10,56,076,57,16,26,182,49,1*68
$GPGSV,2,2,06,21,45,263,54,23,27,048,52,,,,,,,,,1*69
$GPRMC,000114.00,A,4852.4514800,N,00217.6393504,E,18.70,97.93,180502,0.0,E,A*38
$GPGGA,000114.00,4852.4514800,N,00217.6393504,E,1,06,1.0,-3.425,M,0.000,M,0.0,*51
$GPGSA,A,3,01,08,10,16,21,23,,,,,,,2.2,1.3,1.8,1*29
$GPGSV,2,1,06,01,16,255,48,08,73,299,56,10,56,076,56,16,26,182,48,1*60
$GPGSV,2,2,06,21,45,263,52,23,27,048,51,,,,,,,,,1*6C
$GPRMC,000115.00,A,4852.4515400,N,00217.6489983,E,18.81,90.20,180502,0.0,E,A*3A
$GPGGA,000115.00,4852.4515400,N,00217.6489983,E,1,06,1.0,-6.424,M,0.000,M,0.0,*56
$GPGSA,A,3,01,08,10,16,21,23,,,,,,,2.2,1.3,1.8,1*29
$GPGSV,2,1,06,01,16,255,46,08,73,299,56,10,56,076,55,16,26,182,48,1*6D
$GPGSV,2,2,06,21,45,263,55,23,27,048,52,,,,,,,,,1*68
$GPRMC,000116.00,A,4852.4502390,N,00217.6545436,E,12.57,74.27,180502,0.0,E,A*3F
$GPGGA,000116.00,4852.4502390,N,00217.6545436,E,1,06,1.0,-1.745,M,0.000,M,0.0,*5C
$GPGSA,A,3,01,08,10,16,21,23,,,,,,,2.2,1.3,1.8,1*29
$GPGSV,2,1,06,01,16,255,47,08,73,298,57,10,56,076,55,16,26,182,50,1*65
$GPGSV,2,2,06,21,45,263,54,23,27,048,52,,,,,,,,,1*69
$GPRMC,000117.00,A,4852.4525413,N,00217.6571695,E,8.58,51.86,180502,0.0,E,A*03
$GPGGA,000117.00,4852.4525413,N,00217.6571695,E,1,06,1.0,-5.124,M,0.000,M,0.0,*5D
$GPGSA,A,3,01,08,10,16,21,23,,,,,,,2.2,1.3,1.8,1*29
$GPGSV,2,1,06,01,16,255,48,08,73,298,58,10,56,076,56,16,26,182,50,1*66
$GPGSV,2,2,06,21,45,263,52,23,27,048,51,,,,,,,,,1*6C
$GPRMC,000118.00,A,4852.4561729,N,00217.6616035,E,17.71,26.58,180502,0.0,E,A*3E
$GPGGA,000118.00,4852.4561729,N,00217.6616035,E,1,06,1.0,-11.061,M,0.000,M,0.0,*63
$GPGSA,A,3,01,08,10,16,21,23,,,,,,,2.2,1.3,1.8,1*29
$GPGSV,2,1,06,01,16,255,49,08,73,298,56,10,56,076,53,16,26,182,51,1*6D
$GPGSV,2,2,06,21,45,263,52,23,27,048,50,,,,,,,,,1*6D
$GPRMC,000119.00,A,4852.4602575,N,00217.6660592,E,21.67,13.51,180502,0.0,E,A*36
$GPGGA,000119.00,4852.4602575,N,00217.6660592,E,1,06,1.0,-11.090,M,0.000,M,0.0,*68
$GPGSA,A,3,01,08,10,16,21,23,,,,,,,2.2,1.3,1.8,1*29
$GPGSV,2,1,06,01,16,255,48,08,74,298,55,10,56,076,52,16,26,182,50,1*68
$GPGSV,2,2,06,21,45,263,54,23,27,048,52,,,,,,,,,1*69
$GPRMC,000120.00,A,4852.4660356,N,00217.6665111,E,12.50,358.11,180502,0.0,E,A*09
$GPGGA,000120.00,4852.4660356,N,00217.6665111,E,1,06,1.0,-16.439,M,0.000,M,0.0,*6B
$GPGSA,A,3,01,08,10,16,21,23,,,,,,,2.2,1.3,1.8,1*29
$GPGSV,2,1,06,01,16,255,50,08,74,298,56,10,56,076,54,16,26,182,50,1*64
$GPGSV,2,2,06,21,45,263,52,23,27,048,49,,,,,,,,,1*65
$GPRMC,000121.00,A,4852.4690127,N,00217.6632798,E,15.78,341.88,180502,0.0,E,A*03
$GPGGA,000121.00,4852.4690127,N,00217.6632798,E,1,06,1.0,-14.510,M,0.000,M,0.0,*6C
$GPGSA,A,3,01,08,10,16,21,23,,,,,,,2.2,1.3,1.8,1*29
$GPGSV,2,1,06,01,16,255,49,08,74,298,57,10,56,076,53,16,26,182,48,1*63
$GPGSV,2,2,06,21,45,263,53,23,27,048,52,,,,,,,,,1*6E
$GPRMC,000122.00,A,4852.4743734,N,00217.6614500,E,23.95,331.69,180502,0.0,E,A*02
$GPGGA,000122.00,4852.4743734,N,00217.6614500,E,1,06,1.0,-14.478,M,0.000,M,0.0,*6C
$GPGSA,A,3,01,08,10,16,21,23,,,,,,,2.2,1.3,1.8,1*29
$GPGSV,2,1,06,01,16,255,48,08,74,298,58,10,56,076,54,16,26,182,48,1*6A
$GPGSV,2,2,06,21,45,263,53,23,27,048,52,,,,,,,,,1*6E
$GPRMC,000123.00,A,4852.4805274,N,00217.6560391,E,31.86,328.77,180502,0.0,E,A*07
$GPGGA,000123.00,4852.4805274,N,00217.6560391,E,1,06,1.0,-11.603,M,0.000,M,0.0,*64
$GPGSA,A,3,01,08,10,16,21,23,,,,,,,2.2,1.3,1.8,1*29
$GPGSV,2,1,06,01,16,255,48,08,74,298,54,10,56,076,54,16,26,182,49,1*67
$GPGSV,2,2,06,21,45,263,51,23,27,048,51,,,,,,,,,1*6F
$GPRMC,000124.00,A,4852.4894648,N,00217.6476252,E,32.64,327.84,180502,0.0,E,A*07
$GPGGA,000124.00,4852.4894648,N,00217.6476252,E,1,06,1.0,-9.844,M,0.000,M,0.0,*5C
$GPGSA,A,3,01,08,10,16,21,23,,,,,,,2.2,1.3,1.8,1*29
$GPGSV,2,1,06,01,16,255,47,08,74,298,54,10,56,076,54,16,26,182,50,1*60
$GPGSV,2,2,06,21,45,263,52,23,27,048,51,,,,,,,,,1*6C
$GPRMC,000125.00,A,4852.4975439,N,00217.6398071,E,32.65,329.11,180502,0.0,E,A*0B
$GPGGA,000125.00,4852.4975439,N,00217.6398071,E,1,06,1.0,-4.212,M,0.000,M,0.0,*57
$GPGSA,A,3,01,08,10,16,21,23,,,,,,,2.2,1.3,1.8,1*29
$GPGSV,2,1,06,01,16,255,48,08,74,298,56,10,56,076,55,16,26,182,50,1*6C
$GPGSV,2,2,06,21,45,263,54,23,27,048,50,,,,,,,,,1*6B
$GPRMC,000126.00,A,4852.5040896,N,00217.6338343,E,32.47,330.56,180502,0.0,E,A*0C
$GPGGA,000126.00,4852.5040896,N,00217.6338343,E,1,06,1.0,1.783,M,0.000,M,0.0,*7E
$GPGSA,A,3,01,08,10,16,21,23,,,,,,,2.2,1.3,1.8,1*29
$GPGSV,2,1,06,01,16,255,48,08,74,298,56,10,56,076,54,16,26,182,50,1*6D
$GPGSV,2,2,06,21,45,263,54,23,27,048,51,,,,,,,,,1*6A
$GPRMC,000127.00,A,4852.5122300,N,00217.6281135,E,32.79,331.44,180502,0.0,E,A*03
$GPGGA,000127.00,4852.5122300,N,00217.6281135,E,1,06,1.0,-4.580,M,0.000,M,0.0,*57
$GPGSA,A,3,01,08,10,16,21,23,,,,,,,2.2,1.3,1.8,1*29
$GPGSV,2,1,06,01,16,255,47,08,74,298,57,10,56,076,56,16,26,182,51,1*60
$GPGSV,2,2,06,21,45,263,54,23,27,048,50,,,,,,,,,1*6B
$GPRMC,000128.00,A,4852.5201415,N,00217.6197585,E,32.49,330.76,180502,0.0,E,A*05
$GPGGA,000128.00,4852.5201415,N,00217.6197585,E,1,06,1.0,-2.522,M,0.000,M,0.0,*5C
$GPGSA,A,3,01,08,10,16,21,23,,,,,,,2.2,1.3,1.8,1*29
$GPGSV,2,1,06,01,16,255,48,08,74,298,56,10,56,076,57,16,26,182,51,1*6F
$GPGSV,2,2,06,21,45,263,52,23,27,048,50,,,,,,,,,1*6D
$GPRMC,000129.00,A,4852.5286581,N,00217.6147494,E,32.76,330.39,180502,0.0,E,A*0C
$GPGGA,000129.00,4852.5286581,N,00217.6147494,E,1,06,1.0,-7.104,M,0.000,M,0.0,*57
$GPGSA,A,3,01,08,10,16,21,23,,,,,,,2.2,1.3,1.8,1*29
$GPGSV,2,1,06,01,16,255,48,08,74,298,56,10,56,076,54,16,26,182,50,1*6D
$GPGSV,2,2,06,21,45,263,54,23,27,048,50,,,,,,,,,1*6B
$GPRMC,000130.00,A,4852.5354695,N,00217.6089780,E,31.31,331.57,180502,0.0,E,A*00
$GPGGA,000130.00,4852.5354695,N,00217.6089780,E,1,06,1.0,-10.194,M,0.000,M,0.0,*6D
$GPGSA,A,3,01,08,10,16,21,23,,,,,,,2.2,1.3,1.8,1*29
$GPGSV,2,1,06,01,16,255,48,08,74,298,56,10,56,076,53,16,26,182,51,1*6B
$GPGSV,2,2,06,21,45,263,54,23,27,048,51,,,,,,,,,1*6A
$GPRMC,000131.00,A,4852.5435235,N,00217.6026605,E,33.12,329.43,180502,0.0,E,A*09
$GPGGA,000131.00,4852.5435235,N,00217.6026605,E,1,06,1.0,-15.584,M,0.000,M,0.0,*6B
$GPGSA,A,3,01,08,10,16,21,23,,,,,,,2.2,1.3,1.8,1*29
$GPGSV,2,1,06,01,16,255,48,08,74,298,57,10,56,076,53,16,26,182,50,1*6B
$GPGSV,2,2,06,21,45,263,52,23,27,048,50,,,,,,,,,1*6D
$GPRMC,000132.00,A,4852.5515029,N,00217.5935412,E,33.00,328.62,180502,0.0,E,A*0B
$GPGGA,000132.00,4852.5515029,N,00217.5935412,E,1,06,1.0,-14.374,M,0.000,M,0.0,*60
$GPGSA,A,3,01,08,10,16,21,23,,,,,,,2.2,1.3,1.8,1*29
$GPGSV,2,1,06,01,16,255,49,08,74,298,54,10,56,076,53,16,26,182,50,1*69
$GPGSV,2,2,06,21,45,263,53,23,27,048,49,,,,,,,,,1*64
$GPRMC,000133.00,A,4852.5588595,N,00217.5866193,E,32.11,328.99,180502,0.0,E,A*02
$GPGGA,000133.00,4852.5588595,N,00217.5866193,E,1,06,1.0,-12.594,M,0.000,M,0.0,*62
$GPGSA,A,3,01,08,10,16,21,23,,,,,,,2.2,1.3,1.8,1*29
$GPGSV,2,1,06,01,16,255,48,08,74,298,56,10,56,076,54,16,26,182,50,1*6D
$GPGSV,2,2,06,21,45,263,52,23,27,048,50,,,,,,,,,1*6D
$GPRMC,000134.00,A,4852.5672827,N,00217.5805624,E,33.11,328.73,180502,0.0,E,A*0C
$GPGGA,000134.00,4852.5672827,N,00217.5805624,E,1,06,1.0,-13.561,M,0.000,M,0.0,*62
$GPGSA,A,3,01,08,10,16,21,23,,,,,,,2.2,1.3,1.8,1*29
$GPGSV,2,1,06,01,16,255,48,08,74,298,54,10,56,076,54,16,26,182,49,1*67
$GPGSV,2,2,06,21,45,263,53,23,27,048,52,,,,,,,,,1*6E
$GPRMC,000135.00,A,4852.5745650,N,00217.5710602,E,32.16,330.39,180502,0.0,E,A*08
$GPGGA,000135.00,4852.5745650,N,00217.5710602,E,1,06,1.0,-7.866,M,0.000,M,0.0,*58
$GPGSA,A,3,01,08,10,16,21,23,,,,,,,2.2,1.3,1.8,1*29
$GPGSV,2,1,06,01,16,255,48,08,74,298,56,10,56,076,55,16,26,182,48,1*65
$GPGSV,2,2,06,21,45,263,54,23,27,048,50,,,,,,,,,1*6B
$GPRMC,000136.00,A,4852.5832019,N,00217.5638951,E,33.91,330.77,180502,0.0,E,A*09
$GPGGA,000136.00,4852.5832019,N,00217.5638951,E,1,06,1.0,-5.676,M,0.000,M,0.0,*50
$GPGSA,A,3,01,08,10,16,21,23,,,,,,,2.2,1.3,1.8,1*29
$GPGSV,2,1,06,01,16,255,48,08,74,298,56,10,56,076,56,16,26,182,49,1*67
$GPGSV,2,2,06,21,45,263,52,23,27,048,49,,,,,,,,,1*65
$GPRMC,000137.00,A,4852.5908789,N,00217.5590054,E,31.70,330.48,180502,0.0,E,A*02
$GPGGA,000137.00,4852.5908789,N,00217.5590054,E,1,06,1.0,-2.771,M,0.000,M,0.0,*5B
$GPGSA,A,3,01,08,10,16,21,23,,,,,,,2.2,1.3,1.8,1*29
$GPGSV,2,1,06,01,16,255,47,08,74,298,56,10,56,076,55,16,26,182,50,1*63
$GPGSV,2,2,06,21,45,263,51,23,27,048,50,,,,,,,,,1*6E
$GPRMC,000138.00,A,4852.5977027,N,00217.5531474,E,32.90,330.90,180502,0.0,E,A*03
$GPGGA,000138.00,4852.5977027,N,00217.5531474,E,1,06,1.0,-0.842,M,0.000,M,0.0,*5F
$GPGSA,A,3,01,08,10,16,21,23,,,,,,,2.2,1.3,1.8,1*29
$GPGSV,2,1,06,01,16,255,48,08,74,298,54,10,56,076,54,16,26,182,50,1*6F
$GPGSV,2,2,06,21,45,263,51,23,27,048,51,,,,,,,,,1*6F
$GPRMC,000139.00,A,4852.6062782,N,00217.5456440,E,32.13,330.75,180502,0.0,E,A*03
$GPGGA,000139.00,4852.6062782,N,00217.5456440,E,1,06,1.0,-5.894,M,0.000,M,0.0,*51
$GPGSA,A,3,01,08,10,16,21,23,,,,,,,2.2,1.3,1.8,1*29
$GPGSV,2,1,06,01,16,255,49,08,74,298,55,10,56,076,54,16,26,182,49,1*67
$GPGSV,2,2,06,21,45,263,54,23,27,048,50,,,,,,,,,1*6B
$GPRMC,000140.00,A,4852.6137402,N,00217.5392673,E,30.47,332.83,180502,0.0,E,A*02
$GPGGA,000140.00,4852.6137402,N,00217.5392673,E,1,06,1.0,-6.602,M,0.000,M,0.0,*5A
$GPGSA,A,3,01,08,10,16,21,23,,,,,,,2.2,1.3,1.8,1*29
$GPGSV,2,1,06,01,16,255,48,08,74,298,56,10,56,076,55,16,26,182,50,1*6C
$GPGSV,2,2,06,21,45,263,56,23,27,048,50,,,,,,,,,1*69
$GPRMC,000141.00,A,4852.6197604,N,00217.5372142,E,20.35,339.51,180502,0.0,E,A*06
$GPGGA,000141.00,4852.6197604,N,00217.5372142,E,1,06,1.0,-9.295,M,0.000,M,0.0,*5B
$GPGSA,A,3,01,08,10,16,21,23,,,,,,,2.2,1.3,1.8,1*29
$GPGSV,2,1,06,01,16,255,47,08,74,298,57,10,56,076,56,16,26,182,51,1*60
$GPGSV,2,2,06,21,45,263,54,23,27,048,52,,,,,,,,,1*69
$GPRMC,000142.00,A,4852.6236570,N,00217.5354509,E,11.54,357.92,180502,0.0,E,A*00
$GPGGA,000142.00,4852.6236570,N,00217.5354509,E,1,06,1.0,-12.144,M,0.000,M,0.0,*6A
$GPGSA,A,3,01,08,10,16,21,23,,,,,,,2.2,1.3,1.8,1*29
$GPGSV,2,1,06,01,16,255,48,08,74,298,56,10,56,076,57,16,26,182,50,1*6E
$GPGSV,2,2,06,21,45,263,52,23,27,048,51,,,,,,,,,1*6C
$GPRMC,000143.00,A,4852.6258867,N,00217.5347320,E,8.90,22.30,180502,0.0,E,A*04
$GPGGA,000143.00,4852.6258867,N,00217.5347320,E,1,06,1.0,-13.121,M,0.000,M,0.0,*65
$GPGSA,A,3,01,08,10,16,21,23,,,,,,,2.2,1.3,1.8,1*29
$GPGSV,2,1,06,01,16,255,48,08,74,298,55,10,56,076,56,16,26,182,50,1*6C
$GPGSV,2,2,06,21,45,263,51,23,27,048,50,,,,,,,,,1*6E
$GPRMC,000144.00,A,4852.6295647,N,00217.5387498,E,17.44,53.26,180502,0.0,E,A*30
$GPGGA,000144.00,4852.6295647,N,00217.5387498,E,1,06,1.0,-15.476,M,0.000,M,0.0,*66
$GPGSA,A,3,01,08,10,16,21,23,,,,,,,2.2,1.3,1.8,1*29
$GPGSV,2,1,06,01,16,255,49,08,74,298,58,10,56,076,54,16,26,182,49,1*6A
$GPGSV,2,2,06,21,45,263,54,23,27,048,50,,,,,,,,,1*6B
$GPRMC,000145.00,A,4852.6327893,N,00217.5465228,E,26.67,53.79,180502,0.0,E,A*31
$GPGGA,000145.00,4852.6327893,N,00217.5465228,E,1,06,1.0,-13.742,M,0.000,M,0.0,*6C
$GPGSA,A,3,01,08,10,16,21,23,,,,,,,2.2,1.3,1.8,1*29
$GPGSV,2,1,06,01,16,255,48,08,74,298,58,10,56,076,55,16,26,182,50,1*62
$GPGSV,2,2,06,21,45,263,52,23,27,048,51,,,,,,,,,1*6C
$GPRMC,000146.00,A,4852.6385377,N,00217.5572586,E,32.50,49.97,180502,0.0,E,A*35
$GPGGA,000146.00,4852.6385377,N,00217.5572586,E,1,06,1.0,-15.595,M,0.000,M,0.0,*6C
$GPGSA,A,3,01,08,10,16,21,23,,,,,,,2.2,1.3,1.8,1*29
$GPGSV,2,1,06,01,16,255,47,08,74,298,56,10,56,076,54,16,26,182,51,1*63
$GPGSV,2,2,06,21,45,263,54,23,27,048,49,,,,,,,,,1*63
$GPRMC,000147.00,A,4852.6438739,N,00217.5660270,E,31.97,50.48,180502,0.0,E,A*37
$GPGGA,000147.00,4852.6438739,N,00217.5660270,E,1,06,1.0,-11.159,M,0.000,M,0.0,*6C
$GPGSA,A,3,01,08,10,16,21,23,,,,,,,2.2,1.3,1.8,1*29
$GPGSV,2,1,06,01,16,255,48,08,74,298,54,10,56,076,51,16,26,182,51,1*6B
$GPGSV,2,2,06,21,45,263,54,23,27,048,52,,,,,,,,,1*69
$GPRMC,000148.00,A,4852.6509536,N,00217.5756293,E,32.63,49.90,180502,0.0,E,A*3A
$GPGGA,000148.00,4852.6509536,N,00217.5756293,E,1,06,1.0,-11.067,M,0.000,M,0.0,*68
$GPGSA,A,3,01,08,10,16,21,23,,,,,,,2.2,1.3,1.8,1*29
$GPGSV,2,1,06,01,16,255,49,08,74,298,56,10,55,076,54,16,26,182,51,1*6E
$GPGSV,2,2,06,21,45,263,54,23,27,048,51,,,,,,,,,1*6A
$GPRMC,000149.00,A,4852.6562948,N,00217.5854464,E,32.78,47.40,180502,0.0,E,A*39
$GPGGA,000149.00,4852.6562948,N,00217.5854464,E,1,06,1.0,-7.955,M,0.000,M,0.0,*5D
$GPGSA,A,3,01,08,10,16,21,23,,,,,,,2.2,1.3,1.8,1*29
$GPGSV,2,1,06,01,16,255,50,08,74,298,57,10,55,076,54,16,26,182,50,1*66
$GPGSV,2,2,06,21,45,263,54,23,27,048,50,,,,,,,,,1*6B
$GPRMC,000150.00,A,4852.6626744,N,00217.5962238,E,32.38,40.94,180502,0.0,E,A*31
$GPGGA,000150.00,4852.6626744,N,00217.5962238,E,1,06,1.0,-8.382,M,0.000,M,0.0,*50
$GPGSA,A,3,01,08,10,16,21,23,,,,,,,2.2,1.3,1.8,1*29
$GPGSV,2,1,06,01,16,255,49,08,74,298,57,10,55,076,53,16,26,182,52,1*6B
$GPGSV,2,2,06,21,45,263,54,23,27,048,49,,,,,,,,,1*63
$GPRMC,000151.00,A,4852.6691787,N,00217.6050108,E,33.14,40.49,180502,0.0,E,A*37
$GPGGA,000151.00,4852.6691787,N,00217.6050108,E,1,06,1.0,-7.338,M,0.000,M,0.0,*57
$GPGSA,A,3,01,08,10,16,21,23,,,,,,,2.2,1.3,1.8,1*29
$GPGSV,2,1,06,01,16,255,48,08,74,298,57,10,55,076,56,16,26,182,50,1*6D
$GPGSV,2,2,06,21,45,263,52,23,27,048,50,,,,,,,,,1*6D
$GPRMC,000152.00,A,4852.6773346,N,00217.6138151,E,32.36,43.59,180502,0.0,E,A*30
$GPGGA,000152.00,4852.6773346,N,00217.6138151,E,1,06,1.0,-7.130,M,0.000,M,0.0,*59
$GPGSA,A,3,01,08,10,16,21,23,,,,,,,2.2,1.3,1.8,1*29
$GPGSV,2,1,06,01,16,255,48,08,74,298,56,10,55,075,56,16,26,182,51,1*6E
$GPGSV,2,2,06,21,45,263,53,23,27,048,50,,,,,,,,,1*6C
$GPRMC,000153.00,A,4852.6831821,N,00217.6224643,E,32.08,45.43,180502,0.0,E,A*38
$GPGGA,000153.00,4852.6831821,N,00217.6224643,E,1,06,1.0,-4.106,M,0.000,M,0.0,*57
$GPGSA,A,3,01,08,10,16,21,23,,,,,,,2.2,1.3,1.8,1*29
$GPGSV,2,1,06,01,16,255,48,08,74,298,56,10,55,075,55,16,26,182,50,1*6C
$GPGSV,2,2,06,21,45,263,54,23,27,048,49,,,,,,,,,1*63
$GPRMC,000154.00,A,4852.6895061,N,00217.6319903,E,32.11,45.90,180502,0.0,E,A*3F
$GPGGA,000154.00,4852.6895061,N,00217.6319903,E,1,06,1.0,-3.299,M,0.000,M,0.0,*54
$GPGSA,A,3,01,08,10,16,21,23,,,,,,,2.2,1.3,1.8,1*29
$GPGSV,2,1,06,01,16,255,50,08,74,298,57,10,55,075,56,16,26,182,50,1*67
$GPGSV,2,2,06,21,45,263,55,23,27,048,49,,,,,,,,,1*62
$GPRMC,000155.00,A,4852.6951653,N,00217.6409582,E,29.98,43.86,180502,0.0,E,A*39
$GPGGA,000155.00,4852.6951653,N,00217.6409582,E,1,06,1.0,0.766,M,0.000,M,0.0,*73
$GPGSA,A,3,01,08,10,16,21,23,,,,,,,2.2,1.3,1.8,1*29
$GPGSV,2,1,06,01,16,255,48,08,74,298,56,10,55,075,54,16,26,182,48,1*64
$GPGSV,2,2,06,21,45,263,55,23,27,048,47,,,,,,,,,1*6C
$GPRMC,000156.00,A,4852.7008227,N,00217.6485189,E,20.40,37.25,180502,0.0,E,A*34
$GPGGA,000156.00,4852.7008227,N,00217.6485189,E,1,06,1.0,-4.738,M,0.000,M,0.0,*5A
$GPGSA,A,3,01,08,10,16,21,23,,,,,,,2.2,1.3,1.8,1*29
$GPGSV,2,1,06,01,16,255,48,08,74,298,56,10,55,075,56,16,26,182,48,1*66
$GPGSV,2,2,06,21,45,263,53,23,27,048,51,,,,,,,,,1*6D
$GPRMC,000157.00,A,4852.7043176,N,00217.6539137,E,12.21,26.94,180502,0.0,E,A*32
$GPGGA,000157.00,4852.7043176,N,00217.6539137,E,1,06,1.0,-9.150,M,0.000,M,0.0,*55
$GPGSA,A,3,01,08,10,16,21,23,,,,,,,2.2,1.3,1.8,1*29
$GPGSV,2,1,06,01,16,255,48,08,74,298,56,10,55,075,55,16,26,182,49,1*64
$GPGSV,2,2,06,21,45,263,54,23,27,048,50,,,,,,,,,1*6B
$GPRMC,000158.00,A,4852.7080012,N,00217.6544247,E,18.73,11.95,180502,0.0,E,A*37
$GPGGA,000158.00,4852.7080012,N,00217.6544247,E,1,06,1.0,-6.001,M,0.000,M,0.0,*52
$GPGSA,A,3,01,08,10,16,21,23,,,,,,,2.2,1.3,1.8,1*29
$GPGSV,2,1,06,01,16,255,49,08,74,298,56,10,55,075,53,16,26,182,48,1*62
$GPGSV,2,2,06,21,45,263,53,23,27,048,50,,,,,,,,,1*6C
$GPRMC,000159.00,A,4852.7154570,N,00217.6542586,E,26.21,4.22,180502,0.0,E,A*01
$GPGGA,000159.00,4852.7154570,N,00217.6542586,E,1,06,1.0,-6.839,M,0.000,M,0.0,*55
$GPGSA,A,3,01,08,10,16,21,23,,,,,,,2.2,1.3,1.8,1*29
$GPGSV,2,1,06,01,16,255,49,08,74,298,56,10,55,075,54,16,26,182,51,1*6D
$GPGSV,2,2,06,21,45,263,54,23,27,048,49,,,,,,,,,1*63
$GPRMC,000200.00,A,4852.7221087,N,00217.6555934,E,25.11,4.85,180502,0.0,E,A*0C
$GPGGA,000200.00,4852.7221087,N,00217.6555934,E,1,06,1.0,-8.153,M,0.000,M,0.0,*5E
$GPGSA,A,3,01,08,10,16,21,23,,,,,,,2.2,1.3,1.8,1*29
$GPGSV,2,1,06,01,16,255,47,08,74,298,54,10,55,075,54,16,26,182,49,1*68
$GPGSV,2,2,06,21,45,263,53,23,27,048,51,,,,,,,,,1*6D
$GPRMC,000201.00,A,4852.7275713,N,00217.6590579,E,20.80,10.78,180502,0.0,E,A*30
$GPGGA,000201.00,4852.7275713,N,00217.6590579,E,1,06,1.0,-9.771,M,0.000,M,0.0,*5F
$GPGSA,A,3,01,08,10,16,21,23,,,,,,,2.2,1.3,1.8,1*29
$GPGSV,2,1,06,01,16,255,49,08,74,298,57,10,55,075,56,16,26,182,51,1*6E
$GPGSV,2,2,06,21,45,263,52,23,27,048,50,,,,,,,,,1*6D
$GPRMC,000202.00,A,4852.7338038,N,00217.6626316,E,29.85,16.26,180502,0.0,E,A*35
$GPGGA,000202.00,4852.7338038,N,00217.6626316,E,1,06,1.0,-10.628,M,0.000,M,0.0,*6E
$GPGSA,A,3,01,08,10,16,21,23,,,,,,,2.2,1.3,1.8,1*29
$GPGSV,2,1,06,01,16,255,50,08,74,298,57,10,55,075,58,16,26,182,51,1*68
$GPGSV,2,2,06,21,45,263,52,23,27,048,51,,,,,,,,,1*6C
$GPRMC,000203.00,A,4852.7433019,N,00217.6659010,E,32.86,17.48,180502,0.0,E,A*36
$GPGGA,000203.00,4852.7433019,N,00217.6659010,E,1,06,1.0,-13.265,M,0.000,M,0.0,*63
$GPGSA,A,3,01,08,10,16,21,23,,,,,,,2.2,1.3,1.8,1*29
$GPGSV,2,1,06,01,16,255,48,08,74,298,54,10,55,075,56,16,26,182,50,1*6D
$GPGSV,2,2,06,21,45,263,51,23,27,048,49,,,,,,,,,1*66
$GPRMC,000204.00,A,4852.7518086,N,00217.6689694,E,33.03,18.49,180502,0.0,E,A*3A
$GPGGA,000204.00,4852.7518086,N,00217.6689694,E,1,06,1.0,-13.669,M,0.000,M,0.0,*65
$GPGSA,A,3,01,08,10,16,21,23,,,,,,,2.2,1.3,1.8,1*29
$GPGSV,2,1,06,01,16,255,48,08,74,298,56,10,55,075,56,16,26,182,50,1*6F
$GPGSV,2,2,06,21,45,263,52,23,27,048,50,,,,,,,,,1*6D
$GPRMC,000205.00,A,4852.7599306,N,00217.6752422,E,32.25,20.99,180502,0.0,E,A*32
$GPGGA,000205.00,4852.7599306,N,00217.6752422,E,1,06,1.0,-15.777,M,0.000,M,0.0,*66
$GPGSA,A,3,01,08,10,16,21,23,,,,,,,2.2,1.3,1.8,1*29
$GPGSV,2,1,06,01,16,255,48,08,74,298,58,10,55,075,57,16,26,182,49,1*68
$GPGSV,2,2,06,21,45,263,54,23,27,048,52,,,,,,,,,1*69
$GPRMC,000206.00,A,4852.7676783,N,00217.6815504,E,32.69,20.35,180502,0.0,E,A*3D
$GPGGA,000206.00,4852.7676783,N,00217.6815504,E,1,06,1.0,-12.590,M,0.000,M,0.0,*6B
$GPGSA,A,3,01,08,10,16,21,23,,,,,,,2.2,1.3,1.8,1*29
$GPGSV,2,1,06,01,16,255,48,08,74,298,56,10,55,075,56,16,26,182,50,1*6F
$GPGSV,2,2,06,21,45,263,53,23,27,047,52,,,,,,,,,1*61
$GPRMC,000207.00,A,4852.7767325,N,00217.6848575,E,33.05,19.76,180502,0.0,E,A*3D
$GPGGA,000207.00,4852.7767325,N,00217.6848575,E,1,06,1.0,-10.859,M,0.000,M,0.0,*67
$GPGSA,A,3,01,08,10,16,21,23,,,,,,,2.2,1.3,1.8,1*29
$GPGSV,2,1,06,01,16,255,48,08,74,298,58,10,55,075,55,16,26,182,50,1*62
$GPGSV,2,2,06,21,45,263,55,23,27,047,52,,,,,,,,,1*67
$GPRMC,000208.00,A,4852.7866900,N,00217.6881334,E,32.47,19.22,180502,0.0,E,A*31
$GPGGA,000208.00,4852.7866900,N,00217.6881334,E,1,06,1.0,-12.241,M,0.000,M,0.0,*6C
$GPGSA,A,3,01,08,10,16,21,23,,,,,,,2.2,1.3,1.8,1*29
$GPGSV,2,1,06,01,16,255,48,08,74,298,56,10,55,075,54,16,26,182,50,1*6D
$GPGSV,2,2,06,21,45,263,54,23,27,047,50,,,,,,,,,1*64
$GPRMC,000209.00,A,4852.7939721,N,00217.6905968,E,32.11,19.18,180502,0.0,E,A*32
$GPGGA,000209.00,4852.7939721,N,00217.6905968,E,1,06,1.0,-7.945,M,0.000,M,0.0,*5E
$GPGSA,A,3,01,08,10,16,21,23,,,,,,,2.2,1.3,1.8,1*29
$GPGSV,2,1,06,01,16,255,48,08,74,298,59,10,55,075,56,16,26,182,50,1*60
$GPGSV,2,2,06,21,45,263,52,23,27,047,50,,,,,,,,,1*62
$GPRMC,000210.00,A,4852.8030646,N,00217.6967459,E,31.72,20.41,180502,0.0,E,A*3E
$GPGGA,000210.00,4852.8030646,N,00217.6967459,E,1,06,1.0,-9.635,M,0.000,M,0.0,*54
$GPGSA,A,3,01,08,10,16,21,23,,,,,,,2.2,1.3,1.8,1*29
$GPGSV,2,1,06,01,16,255,48,08,74,298,56,10,55,075,54,16,26,182,50,1*6D
$GPGSV,2,2,06,21,45,263,52,23,27,047,51,,,,,,,,,1*63
$GPRMC,000211.00,A,4852.8100818,N,00217.7012629,E,32.07,20.07,180502,0.0,E,A*34
$GPGGA,000211.00,4852.8100818,N,00217.7012629,E,1,06,1.0,-6.164,M,0.000,M,0.0,*51
$GPGSA,A,3,01,08,10,16,21,23,,,,,,,2.2,1.3,1.8,1*29
$GPGSV,2,1,06,01,16,255,47,08,74,298,55,10,55,075,52,16,26,182,48,1*6E
$GPGSV,2,2,06,21,45,263,54,23,27,047,51,,,,,,,,,1*65
$GPRMC,000212.00,A,4852.8204054,N,00217.7050025,E,32.66,17.43,180502,0.0,E,A*3F
$GPGGA,000212.00,4852.8204054,N,00217.7050025,E,1,06,1.0,-7.357,M,0.000,M,0.0,*5A
$GPGSA,A,3,01,08,10,16,21,23,,,,,,,2.2,1.3,1.8,1*29
$GPGSV,2,1,06,01,16,255,48,08,74,298,56,10,55,075,55,16,26,182,51,1*6D
$GPGSV,2,2,06,21,45,263,54,23,27,047,50,,,,,,,,,1*64
$GPRMC,000213.00,A,4852.8286886,N,00217.7074782,E,32.68,15.06,180502,0.0,E,A*32
$GPGGA,000213.00,4852.8286886,N,00217.7074782,E,1,06,1.0,-4.038,M,0.000,M,0.0,*53
$GPGSA,A,3,01,08,10,16,21,23,,,,,,,2.2,1.3,1.8,1*29
$GPGSV,2,1,06,01,16,255,48,08,74,298,54,10,55,075,54,16,26,182,51,1*6E
$GPGSV,2,2,06,21,45,263,54,23,27,047,50,,,,,,,,,1*64
$GPRMC,000214.00,A,4852.8374039,N,00217.7108190,E,32.79,16.62,180502,0.0,E,A*3B
$GPGGA,000214.00,4852.8374039,N,00217.7108190,E,1,06,1.0,-2.073,M,0.000,M,0.0,*52
$GPGSA,A,3,01,08,10,16,21,23,,,,,,,2.2,1.3,1.8,1*29
$GPGSV,2,1,06,01,16,255,47,08,74,298,55,10,55,075,55,16,26,182,50,1*60
$GPGSV,2,2,06,21,45,263,52,23,27,047,50,,,,,,,,,1*62
$GPRMC,000215.00,A,4852.8453083,N,00217.7157218,E,32.75,17.05,180502,0.0,E,A*3C
$GPGGA,000215.00,4852.8453083,N,00217.7157218,E,1,06,1.0,-1.780,M,0.000,M,0.0,*51
$GPGSA,A,3,01,08,10,16,21,23,,,,,,,2.2,1.3,1.8,1*29
$GPGSV,2,1,06,01,16,255,48,08,74,298,56,10,55,075,55,16,26,182,51,1*6D
$GPGSV,2,2,06,21,45,263,54,23,27,047,48,,,,,,,,,1*6D
$GPRMC,000216.00,A,4852.8537646,N,00217.7209362,E,26.68,20.50,180502,0.0,E,A*3A
$GPGGA,000216.00,4852.8537646,N,00217.7209362,E,1,06,1.0,-3.851,M,0.000,M,0.0,*5B
$GPGSA,A,3,01,08,10,16,21,23,,,,,,,2.2,1.3,1.8,1*29
$GPGSV,2,1,06,01,16,255,48,08,74,298,57,10,55,075,55,16,26,182,50,1*6D
$GPGSV,2,2,06,21,45,263,55,23,27,047,50,,,,,,,,,1*65
$GPRMC,000217.00,A,4852.8599843,N,00217.7245016,E,17.70,22.79,180502,0.0,E,A*3E
$GPGGA,000217.00,4852.8599843,N,00217.7245016,E,1,06,1.0,-5.960,M,0.000,M,0.0,*58
$GPGSA,A,3,01,08,10,16,21,23,,,,,,,2.2,1.3,1.8,1*29
$GPGSV,2,1,06,01,16,255,49,08,74,298,56,10,55,075,55,16,26,182,50,1*6D
$GPGSV,2,2,06,21,45,263,52,23,27,047,51,,,,,,,,,1*63
$GPRMC,000218.00,A,4852.8621113,N,00217.7261216,E,7.89,24.48,180502,0.0,E,A*0A
$GPGGA,000218.00,4852.8621113,N,00217.7261216,E,1,06,1.0,-2.881,M,0.000,M,0.0,*56
$GPGSA,A,3,01,08,10,16,21,23,,,,,,,2.2,1.3,1.8,1*29
$GPGSV,2,1,06,01,16,255,50,08,74,298,56,10,55,075,54,16,26,182,51,1*65
$GPGSV,2,2,06,21,45,263,52,23,27,047,50,,,,,,,,,1*62
$GPRMC,000219.00,A,4852.8646655,N,00217.7274042,E,6.35,30.19,180502,0.0,E,A*0F
$GPGGA,000219.00,4852.8646655,N,00217.7274042,E,1,06,1.0,-5.775,M,0.000,M,0.0,*57
$GPGSA,A,3,01,08,10,16,21,23,,,,,,,2.2,1.3,1.8,1*29
$GPGSV,2,1,06,01,16,255,49,08,74,298,54,10,55,075,55,16,26,182,51,1*6E
$GPGSV,2,2,06,21,45,263,51,23,27,047,52,,,,,,,,,1*63
$GPRMC,000220.00,A,4852.8667956,N,00217.7298071,E,14.06,33.26,180502,0.0,E,A*34
$GPGGA,000220.00,4852.8667956,N,00217.7298071,E,1,06,1.0,-5.140,M,0.000,M,0.0,*50
$GPGSA,A,3,01,08,10,16,21,23,,,,,,,2.2,1.3,1.8,1*29
$GPGSV,2,1,06,01,16,255,50,08,74,298,55,10,55,075,54,16,26,182,51,1*66
$GPGSV,2,2,06,21,45,263,50,23,27,047,50,,,,,,,,,1*60
$GPRMC,000221.00,A,4852.8696704,N,00217.7345894,E,11.12,49.44,180502,0.0,E,A*39
$GPGGA,000221.00,4852.8696704,N,00217.7345894,E,1,06,1.0,-7.906,M,0.000,M,0.0,*5C
$GPGSA,A,3,01,08,10,16,21,23,,,,,,,2.2,1.3,1.8,1*29
$GPGSV,2,1,06,01,16,255,50,08,74,298,56,10,55,075,54,16,26,182,50,1*64
$GPGSV,2,2,06,21,45,263,53,23,27,047,49,,,,,,,,,1*6B
$GPRMC,000222.00,A,4852.8704628,N,00217.7384962,E,5.20,94.38,180502,0.0,E,A*05
$GPGGA,000222.00,4852.8704628,N,00217.7384962,E,1,06,1.0,-9.904,M,0.000,M,0.0,*53
$GPGSA,A,3,01,08,10,16,21,23,,,,,,,2.2,1.3,1.8,1*29
$GPGSV,2,1,06,01,16,255,48,08,74,298,55,10,55,075,54,16,26,182,50,1*6E
$GPGSV,2,2,06,21,45,263,55,23,27,047,51,,,,,,,,,1*64
$GPRMC,000223.00,A,4852.8692641,N,00217.7392923,E,12.27,124.66,180502,0.0,E,A*07
$GPGGA,000223.00,4852.8692641,N,00217.7392923,E,1,06,1.0,-6.943,M,0.000,M,0.0,*5D
$GPGSA,A,3,01,08,10,16,21,23,,,,,,,2.2,1.3,1.8,1*29
$GPGSV,2,1,06,01,16,255,48,08,74,298,56,10,55,075,54,16,26,182,50,1*6D
$GPGSV,2,2,06,21,45,263,54,23,27,047,52,,,,,,,,,1*66
$GPRMC,000224.00,A,4852.8679259,N,00217.7420368,E,22.47,139.98,180502,0.0,E,A*0B
$GPGGA,000224.00,4852.8679259,N,00217.7420368,E,1,06,1.0,-13.790,M,0.000,M,0.0,*6D
$GPGSA,A,3,01,08,10,16,21,23,,,,,,,2.2,1.3,1.8,1*29
$GPGSV,2,1,06,01,16,255,51,08,74,298,56,10,55,075,54,16,26,182,50,1*65
$GPGSV,2,2,06,21,45,263,54,23,27,047,51,,,,,,,,,1*65
$GPRMC,000225.00,A,4852.8599491,N,00217.7518294,E,30.54,140.69,180502,0.0,E,A*0C
$GPGGA,000225.00,4852.8599491,N,00217.7518294,E,1,06,1.0,-11.116,M,0.000,M,0.0,*61
$GPGSA,A,3,01,08,10,16,21,23,,,,,,,2.2,1.3,1.8,1*29
$GPGSV,2,1,06,01,16,255,48,08,74,298,56,10,55,075,54,16,26,182,50,1*6D
$GPGSV,2,2,06,21,45,263,53,23,27,047,51,,,,,,,,,1*62
$GPRMC,000226.00,A,4852.8525636,N,00217.7615730,E,33.18,140.50,180502,0.0,E,A*03
$GPGGA,000226.00,4852.8525636,N,00217.7615730,E,1,06,1.0,-9.218,M,0.000,M,0.0,*5B
$GPGSA,A,3,01,08,10,16,21,23,,,,,,,2.2,1.3,1.8,1*29
$GPGSV,2,1,06,01,16,255,48,08,74,298,55,10,55,075,54,16,26,182,52,1*6C
$GPGSV,2,2,06,21,45,263,53,23,27,047,49,,,,,,,,,1*6B
$GPRMC,000227.00,A,4852.8459269,N,00217.7700844,E,32.16,144.67,180502,0.0,E,A*00
$GPGGA,000227.00,4852.8459269,N,00217.7700844,E,1,06,1.0,-12.797,M,0.000,M,0.0,*6F
$GPGSA,A,3,01,08,10,16,21,23,,,,,,,2.2,1.3,1.8,1*29
$GPGSV,2,1,06,01,16,255,50,08,74,298,54,10,55,075,52,16,26,182,49,1*68
$GPGSV,2,2,06,21,45,263,53,23,27,047,50,,,,,,,,,1*63
$GPRMC,000228.00,A,4852.8390838,N,00217.7755675,E,32.92,147.20,180502,0.0,E,A*03
$GPGGA,000228.00,4852.8390838,N,00217.7755675,E,1,06,1.0,-11.405,M,0.000,M,0.0,*6B
$GPGSA,A,3,01,08,10,16,21,23,,,,,,,2.2,1.3,1.8,1*29
$GPGSV,2,1,06,01,16,255,48,08,74,298,53,10,55,075,52,16,26,182,50,1*6E
$GPGSV,2,2,06,21,45,263,52,23,27,047,50,,,,,,,,,1*62
$GPRMC,000229.00,A,4852.8317140,N,00217.7826739,E,32.35,142.07,180502,0.0,E,A*04
$GPGGA,000229.00,4852.8317140,N,00217.7826739,E,1,06,1.0,-10.141,M,0.000,M,0.0,*65
$GPGSA,A,3,01,08,10,16,21,23,,,,,,,2.2,1.3,1.8,1*29
$GPGSV,2,1,06,01,16,255,48,08,74,298,55,10,55,075,53,16,26,182,50,1*69
$GPGSV,2,2,06,21,45,263,54,23,27,047,49,,,,,,,,,1*6C
$GPRMC,000230.00,A,4852.8244181,N,00217.7930742,E,33.01,140.70,180502,0.0,E,A*08
$GPGGA,000230.00,4852.8244181,N,00217.7930742,E,1,06,1.0,-9.428,M,0.000,M,0.0,*5F
$GPGSA,A,3,01,08,10,16,21,23,,,,,,,2.2,1.3,1.8,1*29
$GPGSV,2,1,06,01,16,255,47,08,74,298,55,10,55,075,54,16,26,182,50,1*61
$GPGSV,2,2,06,21,45,263,51,23,27,047,51,,,,,,,,,1*60
$GPRMC,000231.00,A,4852.8171363,N,00217.8031144,E,32.57,141.22,180502,0.0,E,A*01
$GPGGA,000231.00,4852.8171363,N,00217.8031144,E,1,06,1.0,-9.735,M,0.000,M,0.0,*5D
$GPGSA,A,3,01,08,10,16,21,23,,,,,,,2.2,1.3,1.8,1*29
$GPGSV,2,1,06,01,16,255,46,08,74,298,57,10,55,075,54,16,26,182,52,1*60
$GPGSV,2,2,06,21,45,263,51,23,27,047,51,,,,,,,,,1*60
$GPRMC,000232.00,A,4852.8094242,N,00217.8115935,E,32.79,140.23,180502,0.0,E,A*0F
$GPGGA,000232.00,4852.8094242,N,00217.8115935,E,1,06,1.0,-10.962,M,0.000,M,0.0,*6B
$GPGSA,A,3,01,08,10,16,21,23,,,,,,,2.2,1.3,1.8,1*29
$GPGSV,2,1,06,01,16,255,47,08,74,298,59,10,55,075,54,16,26,182,50,1*6D
$GPGSV,2,2,06,21,45,263,52,23,27,047,50,,,,,,,,,1*62
$GPRMC,000233.00,A,4852.8037078,N,00217.8193428,E,34.17,138.07,180502,0.0,E,A*04
$GPGGA,000233.00,4852.8037078,N,00217.8193428,E,1,06,1.0,-8.998,M,0.000,M,0.0,*5B
$GPGSA,A,3,01,08,10,16,21,23,,,,,,,2.2,1.3,1.8,1*29
$GPGSV,2,1,06,01,16,255,49,08,74,298,55,10,55,075,55,16,26,182,49,1*66
$GPGSV,2,2,06,21,45,263,51,23,27,047,50,,,,,,,,,1*61
$GPRMC,000234.00,A,4852.7965880,N,00217.8277573,E,32.44,138.74,180502,0.0,E,A*0F
$GPGGA,000234.00,4852.7965880,N,00217.8277573,E,1,06,1.0,-6.880,M,0.000,M,0.0,*52
$GPGSA,A,3,01,08,10,16,21,23,,,,,,,2.2,1.3,1.8,1*29
$GPGSV,2,1,06,01,16,255,48,08,74,298,54,10,55,075,53,16,26,182,50,1*68
$GPGSV,2,2,06,21,45,263,53,23,27,047,50,,,,,,,,,1*63
$GPRMC,000235.00,A,4852.7901887,N,00217.8370399,E,32.42,140.01,180502,0.0,E,A*04
$GPGGA,000235.00,4852.7901887,N,00217.8370399,E,1,06,1.0,-9.681,M,0.000,M,0.0,*52
$GPGSA,A,3,01,08,10,16,21,23,,,,,,,2.2,1.3,1.8,1*29
$GPGSV,2,1,06,01,16,255,49,08,74,298,56,10,55,075,52,16,26,182,51,1*6B
$GPGSV,2,2,06,21,45,263,52,23,27,047,50,,,,,,,,,1*62
$GPRMC,000236.00,A,4852.7839465,N,00217.8462692,E,31.81,135.91,180502,0.0,E,A*00
$GPGGA,000236.00,4852.7839465,N,00217.8462692,E,1,06,1.0,-11.132,M,0.000,M,0.0,*67
$GPGSA,A,3,01,08,10,16,21,23,,,,,,,2.2,1.3,1.8,1*29
$GPGSV,2,1,06,01,16,255,48,08,74,298,55,10,55,075,53,16,26,182,51,1*68
$GPGSV,2,2,06,21,45,263,53,23,27,047,51,,,,,,,,,1*62
$GPRMC,000237.00,A,4852.7768379,N,00217.8555419,E,27.42,134.16,180502,0.0,E,A*02
$GPGGA,000237.00,4852.7768379,N,00217.8555419,E,1,06,1.0,-12.407,M,0.000,M,0.0,*63
$GPGSA,A,3,01,08,10,16,21,23,,,,,,,2.2,1.3,1.8,1*29
$GPGSV,2,1,06,01,16,255,48,08,74,298,56,10,55,075,53,16,26,182,48,1*63
$GPGSV,2,2,06,21,45,263,54,23,27,047,50,,,,,,,,,1*64
$GPRMC,000238.00,A,4852.7734858,N,00217.8635874,E,18.11,127.66,180502,0.0,E,A*01
$GPGGA,000238.00,4852.7734858,N,00217.8635874,E,1,06,1.0,-11.749,M,0.000,M,0.0,*65
$GPGSA,A,3,01,08,10,16,21,23,,,,,,,2.2,1.3,1.8,1*29
$GPGSV,2,1,06,01,16,255,49,08,74,298,56,10,55,075,54,16,26,182,50,1*6C
$GPGSV,2,2,06,21,45,263,54,23,27,047,50,,,,,,,,,1*64
$GPRMC,000239.00,A,4852.7724977,N,00217.8663386,E,7.93,96.51,180502,0.0,E,A*03
$GPGGA,000239.00,4852.7724977,N,00217.8663386,E,1,06,1.0,-9.205,M,0.000,M,0.0,*58
$GPGSA,A,3,01,08,10,16,21,23,,,,,,,2.2,1.3,1.8,1*29
$GPGSV,2,1,06,01,16,255,49,08,74,298,57,10,55,075,55,16,26,182,50,1*6C
$GPGSV,2,2,06,21,45,263,53,23,27,047,50,,,,,,,,,1*63
$GPRMC,000240.00,A,4852.7722568,N,00217.8692880,E,11.59,70.11,180502,0.0,E,A*37
$GPGGA,000240.00,4852.7722568,N,00217.8692880,E,1,06,1.0,-10.942,M,0.000,M,0.0,*61
$GPGSA,A,3,01,08,10,16,21,23,,,,,,,2.2,1.3,1.8,1*29
$GPGSV,2,1,06,01,16,255,49,08,74,298,58,10,55,075,56,16,26,182,52,1*62
$GPGSV,2,2,06,21,45,263,53,23,27,047,50,,,,,,,,,1*63
$GPRMC,000241.00,A,4852.7744402,N,00217.8767423,E,21.06,58.92,180502,0.0,E,A*3D
$GPGGA,000241.00,4852.7744402,N,00217.8767423,E,1,06,1.0,-12.950,M,0.000,M,0.0,*62
$GPGSA,A,3,01,08,10,16,21,23,,,,,,,2.2,1.3,1.8,1*29
$GPGSV,2,1,06,01,16,255,49,08,74,298,54,10,55,075,52,16,26,182,52,1*6A
$GPGSV,2,2,06,21,45,263,53,23,27,047,51,,,,,,,,,1*62
$GPRMC,000242.00,A,4852.7786388,N,00217.8866640,E,30.41,53.39,180502,0.0,E,A*35
$GPGGA,000242.00,4852.7786388,N,00217.8866640,E,1,06,1.0,-12.451,M,0.000,M,0.0,*6F
$GPGSA,A,3,01,08,10,16,21,23,,,,,,,2.2,1.3,1.8,1*29
$GPGSV,2,1,06,01,16,255,50,08,74,298,54,10,55,075,53,16,26,182,50,1*61
$GPGSV,2,2,06,21,45,263,53,23,27,047,50,,,,,,,,,1*63
$GPRMC,000243.00,A,4852.7843437,N,00217.8979824,E,32.27,50.56,180502,0.0,E,A*3A
$GPGGA,000243.00,4852.7843437,N,00217.8979824,E,1,06,1.0,-13.210,M,0.000,M,0.0,*6A
$GPGSA,A,3,01,08,10,16,21,23,,,,,,,2.2,1.3,1.8,1*29
$GPGSV,2,1,06,01,16,255,48,08,74,298,56,10,55,075,52,16,26,182,51,1*6A
$GPGSV,2,2,06,21,45,263,54,23,27,047,49,,,,,,,,,1*6C
$GPRMC,000244.00,A,4852.7889389,N,00217.9081209,E,32.79,49.78,180502,0.0,E,A*3C
$GPGGA,000244.00,4852.7889389,N,00217.9081209,E,1,06,1.0,-10.853,M,0.000,M,0.0,*6D
$GPGSA,A,3,01,08,10,16,21,23,,,,,,,2.2,1.3,1.8,1*29
$GPGSV,2,1,06,01,16,255,50,08,74,298,56,10,55,075,52,16,26,182,48,1*6B
$GPGSV,2,2,06,21,45,263,55,23,27,047,50,,,,,,,,,1*65
$GPRMC,000245.00,A,4852.7955025,N,00217.9180576,E,32.62,49.74,180502,0.0,E,A*31
$GPGGA,000245.00,4852.7955025,N,00217.9180576,E,1,06,1.0,-13.330,M,0.000,M,0.0,*6B
$GPGSA,A,3,01,08,10,16,21,23,,,,,,,2.2,1.3,1.8,1*29
$GPGSV,2,1,06,01,16,255,48,08,74,298,56,10,55,075,54,16,26,182,49,1*65
$GPGSV,2,2,06,21,45,263,54,23,27,047,49,,,,,,,,,1*6C
$GPRMC,000246.00,A,4852.8013010,N,00217.9276761,E,31.97,50.90,180502,0.0,E,A*35
$GPGGA,000246.00,4852.8013010,N,00217.9276761,E,1,06,1.0,-12.188,M,0.000,M,0.0,*64
$GPGSA,A,3,01,08,10,16,21,23,,,,,,,2.2,1.3,1.8,1*29
$GPGSV,2,1,06,01,16,255,49,08,74,298,58,10,55,075,54,16,26,182,48,1*6B
$GPGSV,2,2,06,21,45,263,51,23,27,047,50,,,,,,,,,1*61
$GPRMC,000247.00,A,4852.8067171,N,00217.9392112,E,32.35,50.84,180502,0.0,E,A*36
$GPGGA,000247.00,4852.8067171,N,00217.9392112,E,1,06,1.0,-12.301,M,0.000,M,0.0,*6A
$GPGSA,A,3,01,08,10,16,21,23,,,,,,,2.2,1.3,1.8,1*29
$GPGSV,2,1,06,01,16,255,50,08,74,298,55,10,55,075,54,16,26,182,50,1*67
$GPGSV,2,2,06,21,45,263,52,23,27,047,52,,,,,,,,,1*60
$GPRMC,000248.00,A,4852.8112412,N,00217.9513793,E,32.30,51.64,180502,0.0,E,A*30
$GPGGA,000248.00,4852.8112412,N,00217.9513793,E,1,06,1.0,-12.291,M,0.000,M,0.0,*6E
$GPGSA,A,3,01,08,10,16,21,23,,,,,,,2.2,1.3,1.8,1*29
$GPGSV,2,1,06,01,16,255,48,08,74,298,57,10,55,075,55,16,26,182,51,1*6C
$GPGSV,2,2,06,21,45,263,53,23,27,047,52,,,,,,,,,1*61
$GPRMC,000249.00,A,4852.8169464,N,00217.9623741,E,32.46,50.42,180502,0.0,E,A*37
$GPGGA,000249.00,4852.8169464,N,00217.9623741,E,1,06,1.0,-13.671,M,0.000,M,0.0,*66
$GPGSA,A,3,01,08,10,16,21,23,,,,,,,2.2,1.3,1.8,1*29
$GPGSV,2,1,06,01,16,255,49,08,74,298,58,10,55,075,54,16,26,182,50,1*62
$GPGSV,2,2,06,21,45,263,54,23,27,047,50,,,,,,,,,1*64
$GPRMC,000250.00,A,4852.8234039,N,00217.9724440,E,32.75,50.71,180502,0.0,E,A*3C
$GPGGA,000250.00,4852.8234039,N,00217.9724440,E,1,06,1.0,-15.794,M,0.000,M,0.0,*61
$GPGSA,A,3,01,08,10,16,21,23,,,,,,,2.2,1.3,1.8,1*29
$GPGSV,2,1,06,01,16,255,49,08,74,298,58,10,55,075,56,16,26,182,50,1*60
$GPGSV,2,2,06,21,45,263,55,23,27,047,48,,,,,,,,,1*6C
$GPRMC,000251.00,A,4852.8283277,N,00217.9808966,E,26.23,48.03,180502,0.0,E,A*3B
$GPGGA,000251.00,4852.8283277,N,00217.9808966,E,1,06,1.0,-15.346,M,0.000,M,0.0,*67
$GPGSA,A,3,01,08,10,16,21,23,,,,,,,2.2,1.3,1.8,1*29
$GPGSV,2,1,06,01,16,255,48,08,74,298,58,10,55,075,56,16,26,182,52,1*63
$GPGSV,2,2,06,21,46,264,54,23,27,047,48,,,,,,,,,1*69
$GPRMC,000252.00,A,4852.8328655,N,00217.9865643,E,16.51,36.76,180502,0.0,E,A*32
$GPGGA,000252.00,4852.8328655,N,00217.9865643,E,1,06,1.0,-16.809,M,0.000,M,0.0,*60
$GPGSA,A,3,01,08,10,16,21,23,,,,,,,2.2,1.3,1.8,1*29
$GPGSV,2,1,06,01,16,255,48,08,74,298,56,10,55,075,56,16,26,182,51,1*6E
$GPGSV,2,2,06,21,46,264,52,23,27,047,49,,,,,,,,,1*6E
$GPRMC,000253.00,A,4852.8353180,N,00217.9881775,E,10.00,11.61,180502,0.0,E,A*3F
$GPGGA,000253.00,4852.8353180,N,00217.9881775,E,1,06,1.0,-12.759,M,0.000,M,0.0,*62
$GPGSA,A,3,01,08,10,16,21,23,,,,,,,2.2,1.3,1.8,1*29
$GPGSV,2,1,06,01,16,255,48,08,74,298,58,10,55,075,55,16,26,182,49,1*6A
$GPGSV,2,2,06,21,46,264,53,23,27,047,49,,,,,,,,,1*6F
$GPRMC,000254.00,A,4852.8394584,N,00217.9899752,E,17.04,359.16,180502,0.0,E,A*03
$GPGGA,000254.00,4852.8394584,N,00217.9899752,E,1,06,1.0,-16.925,M,0.000,M,0.0,*63
$GPGSA,A,3,01,08,10,16,21,23,,,,,,,2.2,1.3,1.8,1*29
$GPGSV,2,1,06,01,16,255,49,08,74,298,57,10,55,075,55,16,26,182,52,1*6E
$GPGSV,2,2,06,21,46,264,55,23,27,047,50,,,,,,,,,1*61
$GPRMC,000255.00,A,4852.8445509,N,00217.9903463,E,25.06,348.99,180502,0.0,E,A*0B
$GPGGA,000255.00,4852.8445509,N,00217.9903463,E,1,06,1.0,-16.307,M,0.000,M,0.0,*65
$GPGSA,A,3,01,08,10,16,21,23,,,,,,,2.2,1.3,1.8,1*29
$GPGSV,2,1,06,01,16,255,48,08,74,298,56,10,55,075,56,16,26,182,48,1*66
$GPGSV,2,2,06,21,46,264,54,23,27,047,50,,,,,,,,,1*60
$GPRMC,000256.00,A,4852.8528901,N,00217.9861966,E,33.03,344.04,180502,0.0,E,A*01
$GPGGA,000256.00,4852.8528901,N,00217.9861966,E,1,06,1.0,-12.847,M,0.000,M,0.0,*6E
$GPGSA,A,3,01,08,10,16,21,23,,,,,,,2.2,1.3,1.8,1*29
$GPGSV,2,1,06,01,16,255,48,08,74,298,56,10,55,075,55,16,26,182,49,1*64
$GPGSV,2,2,06,21,46,264,54,23,27,047,51,,,,,,,,,1*61
$GPRMC,000257.00,A,4852.8622546,N,00217.9824028,E,32.92,343.86,180502,0.0,E,A*00
$GPGGA,000257.00,4852.8622546,N,00217.9824028,E,1,06,1.0,-12.757,M,0.000,M,0.0,*65
$GPGSA,A,3,01,08,10,16,21,23,,,,,,,2.2,1.3,1.8,1*29
$GPGSV,2,1,06,01,16,255,48,08,74,298,55,10,55,075,55,16,26,182,51,1*6E
$GPGSV,2,2,06,21,46,264,53,23,27,047,52,,,,,,,,,1*65
$GPRMC,000258.00,A,4852.8710252,N,00217.9786278,E,32.89,343.74,180502,0.0,E,A*0A
$GPGGA,000258.00,4852.8710252,N,00217.9786278,E,1,06,1.0,-11.664,M,0.000,M,0.0,*6A
$GPGSA,A,3,01,08,10,16,21,23,,,,,,,2.2,1.3,1.8,1*29
$GPGSV,2,1,06,01,16,255,50,08,74,298,56,10,55,075,56,16,26,182,49,1*6E
$GPGSV,2,2,06,21,46,264,51,23,27,047,50,,,,,,,,,1*65
$GPRMC,000259.00,A,4852.8796725,N,00217.9753725,E,33.54,343.82,180502,0.0,E,A*0D
$GPGGA,000259.00,4852.8796725,N,00217.9753725,E,1,06,1.0,-13.376,M,0.000,M,0.0,*61
$GPGSA,A,3,01,08,10,16,21,23,,,,,,,2.2,1.3,1.8,1*29
$GPGSV,2,1,06,01,16,255,47,08,74,298,57,10,55,075,54,16,26,182,48,1*6A
$GPGSV,2,2,06,21,46,264,53,23,27,047,49,,,,,,,,,1*6F
$GPRMC,000300.00,A,4852.8878532,N,00217.9711556,E,32.16,343.96,180502,0.0,E,A*09
$GPGGA,000300.00,4852.8878532,N,00217.9711556,E,1,06,1.0,-11.725,M,0.000,M,0.0,*67
$GPGSA,A,3,01,08,10,16,21,23,,,,,,,2.2,1.3,1.8,1*29
$GPGSV,2,1,06,01,16,255,48,08,74,298,56,10,55,075,56,16,26,182,48,1*66
$GPGSV,2,2,06,21,46,264,53,23,27,047,50,,,,,,,,,1*67
$GPRMC,000301.00,A,4852.8954662,N,00217.9658594,E,32.17,344.58,180502,0.0,E,A*07
$GPGGA,000301.00,4852.8954662,N,00217.9658594,E,1,06,1.0,-5.383,M,0.000,M,0.0,*50
$GPGSA,A,3,01,08,10,16,21,23,,,,,,,2.2,1.3,1.8,1*29
$GPGSV,2,1,06,01,16,255,48,08,74,298,56,10,55,075,55,16,26,182,49,1*64
$GPGSV,2,2,06,21,46,264,54,23,27,047,48,,,,,,,,,1*69
$GPRMC,000302.00,A,4852.9063073,N,00217.9617310,E,32.36,343.91,180502,0.0,E,A*0E
$GPGGA,000302.00,4852.9063073,N,00217.9617310,E,1,06,1.0,-9.663,M,0.000,M,0.0,*5F
$GPGSA,A,3,01,08,10,16,21,23,,,,,,,2.2,1.3,1.8,1*29
$GPGSV,2,1,06,01,16,255,49,08,74,298,58,10,55,075,57,16,26,182,48,1*68
$GPGSV,2,2,06,21,46,264,52,23,27,047,51,,,,,,,,,1*67
$GPRMC,000303.00,A,4852.9144592,N,00217.9594306,E,31.61,344.01,180502,0.0,E,A*01
$GPGGA,000303.00,4852.9144592,N,00217.9594306,E,1,06,1.0,-6.748,M,0.000,M,0.0,*58
$GPGSA,A,3,01,08,10,16,21,23,,,,,,,2.2,1.3,1.8,1*29
$GPGSV,2,1,06,01,16,255,48,08,74,298,58,10,55,075,56,16,26,182,50,1*61
$GPGSV,2,2,06,21,46,264,54,23,27,047,49,,,,,,,,,1*68
$GPRMC,000304.00,A,4852.9225222,N,00217.9567427,E,31.68,344.47,180502,0.0,E,A*0D
$GPGGA,000304.00,4852.9225222,N,00217.9567427,E,1,06,1.0,-6.272,M,0.000,M,0.0,*53
$GPGSA,A,3,01,08,10,16,21,23,,,,,,,2.2,1.3,1.8,1*29
$GPGSV,2,1,06,01,16,255,46,08,74,298,57,10,55,075,55,16,26,182,50,1*63
$GPGSV,2,2,06,21,46,264,54,23,27,047,49,,,,,,,,,1*68
$GPRMC,000305.00,A,4852.9315162,N,00217.9519774,E,33.16,343.07,180502,0.0,E,A*0D
$GPGGA,000305.00,4852.9315162,N,00217.9519774,E,1,06,1.0,-5.437,M,0.000,M,0.0,*5F
$GPGSA,A,3,01,08,10,16,21,23,,,,,,,2.2,1.3,1.8,1*29
$GPGSV,2,1,06,01,16,255,47,08,74,298,57,10,55,075,56,16,26,182,51,1*60
$GPGSV,2,2,06,21,46,264,53,23,27,047,51,,,,,,,,,1*66
$GPRMC,000306.00,A,4852.9391711,N,00217.9465783,E,27.17,341.78,180502,0.0,E,A*0C
$GPGGA,000306.00,4852.9391711,N,00217.9465783,E,1,06,1.0,-1.465,M,0.000,M,0.0,*53
$GPGSA,A,3,01,08,10,16,21,23,,,,,,,2.2,1.3,1.8,1*29
$GPGSV,2,1,06,01,16,255,48,08,74,298,58,10,55,075,54,16,26,182,50,1*63
$GPGSV,2,2,06,21,46,264,54,23,27,047,49,,,,,,,,,1*68
$GPRMC,000307.00,A,4852.9459309,N,00217.9431963,E,18.31,331.65,180502,0.0,E,A*01
$GPGGA,000307.00,4852.9459309,N,00217.9431963,E,1,06,1.0,-2.586,M,0.000,M,0.0,*52
$GPGSA,A,3,01,08,10,16,21,23,,,,,,,2.2,1.3,1.8,1*29
$GPGSV,2,1,06,01,16,255,48,08,74,298,57,10,55,075,54,16,26,182,50,1*6C
$GPGSV,2,2,06,21,46,264,54,23,27,047,50,,,,,,,,,1*60
$GPRMC,000308.00,A,4852.9483442,N,00217.9404881,E,11.52,315.69,180502,0.0,E,A*0C
$GPGGA,000308.00,4852.9483442,N,00217.9404881,E,1,06,1.0,-2.797,M,0.000,M,0.0,*5B
$GPGSA,A,3,01,08,10,16,21,23,,,,,,,2.2,1.3,1.8,1*29
$GPGSV,2,1,06,01,16,255,49,08,74,298,55,10,55,075,54,16,26,182,50,1*6F
$GPGSV,2,2,06,21,46,264,52,23,27,047,51,,,,,,,,,1*67
$GPRMC,000309.00,A,4852.9501541,N,00217.9352301,E,17.88,297.01,180502,0.0,E,A*07
$GPGGA,000309.00,4852.9501541,N,00217.9352301,E,1,06,1.0,-3.035,M,0.000,M,0.0,*5A
$GPGSA,A,3,01,08,10,16,21,23,,,,,,,2.2,1.3,1.8,1*29
$GPGSV,2,1,06,01,16,255,48,08,74,298,56,10,55,075,55,16,26,182,50,1*6C
$GPGSV,2,2,06,21,46,264,54,23,27,047,50,,,,,,,,,1*60
$GPRMC,000310.00,A,4852.9538014,N,00217.9255230,E,28.58,291.12,180502,0.0,E,A*00
$GPGGA,000310.00,4852.9538014,N,00217.9255230,E,1,06,1.0,0.177,M,0.000,M,0.0,*71
$GPGSA,A,3,01,08,10,16,21,23,,,,,,,2.2,1.3,1.8,1*29
$GPGSV,2,1,06,01,16,255,48,08,74,298,59,10,55,075,56,16,25,182,49,1*6B
$GPGSV,2,2,06,21,46,264,53,23,27,047,51,,,,,,,,,1*66
$GPRMC,000311.00,A,4852.9567330,N,00217.9137115,E,32.02,288.60,180502,0.0,E,A*04
$GPGGA,000311.00,4852.9567330,N,00217.9137115,E,1,06,1.0,-0.483,M,0.000,M,0.0,*5F
$GPGSA,A,3,01,08,10,16,21,23,,,,,,,2.2,1.3,1.8,1*29
$GPGSV,2,1,06,01,16,255,46,08,74,298,57,10,55,075,56,16,25,182,51,1*62
$GPGSV,2,2,06,21,46,264,53,23,27,047,51,,,,,,,,,1*66
$GPRMC,000312.00,A,4852.9582181,N,00217.9020562,E,32.51,287.74,180502,0.0,E,A*0B
$GPGGA,000312.00,4852.9582181,N,00217.9020562,E,1,06,1.0,-1.516,M,0.000,M,0.0,*50
$GPGSA,A,3,01,08,10,16,21,23,,,,,,,2.2,1.3,1.8,1*29
$GPGSV,2,1,06,01,16,255,48,08,74,298,56,10,55,075,54,16,25,182,50,1*6E
$GPGSV,2,2,06,21,46,264,52,23,27,047,51,,,,,,,,,1*67
$GPRMC,000313.00,A,4852.9616500,N,00217.8881260,E,32.26,288.88,180502,0.0,E,A*02
$GPGGA,000313.00,4852.9616500,N,00217.8881260,E,1,06,1.0,-3.592,M,0.000,M,0.0,*5B
$GPGSA,A,3,01,08,10,16,21,23,,,,,,,2.2,1.3,1.8,1*29
$GPGSV,2,1,06,01,16,255,50,08,74,298,56,10,55,075,54,16,25,182,49,1*6F
$GPGSV,2,2,06,21,46,264,54,23,27,047,50,,,,,,,,,1*60
$GPRMC,000314.00,A,4852.9655693,N,00217.8734964,E,33.05,289.00,180502,0.0,E,A*04
$GPGGA,000314.00,4852.9655693,N,00217.8734964,E,1,06,1.0,-5.204,M,0.000,M,0.0,*52
$GPGSA,A,3,01,08,10,16,21,23,,,,,,,2.2,1.3,1.8,1*29
$GPGSV,2,1,06,01,16,255,49,08,74,298,56,10,55,075,57,16,25,182,50,1*6C
$GPGSV,2,2,06,21,46,264,54,23,27,047,51,,,,,,,,,1*61
$GPRMC,000315.00,A,4852.9673704,N,00217.8621265,E,31.39,286.23,180502,0.0,E,A*02
$GPGGA,000315.00,4852.9673704,N,00217.8621265,E,1,06,1.0,-5.132,M,0.000,M,0.0,*51
$GPGSA,A,3,01,08,10,16,21,23,,,,,,,2.2,1.3,1.8,1*29
$GPGSV,2,1,06,01,16,255,48,08,74,298,56,10,55,075,56,16,25,182,50,1*6C
$GPGSV,2,2,06,21,46,264,54,23,27,047,50,,,,,,,,,1*60
$GPRMC,000316.00,A,4852.9692417,N,00217.8511383,E,32.69,288.43,180502,0.0,E,A*08
$GPGGA,000316.00,4852.9692417,N,00217.8511383,E,1,06,1.0,-5.052,M,0.000,M,0.0,*52
$GPGSA,A,3,01,08,10,16,21,23,,,,,,,2.2,1.3,1.8,1*29
$GPGSV,2,1,06,01,16,255,48,08,74,298,57,10,55,075,56,16,25,182,51,1*6C
$GPGSV,2,2,06,21,46,264,54,23,27,047,50,,,,,,,,,1*60
$GPRMC,000317.00,A,4852.9731944,N,00217.8365558,E,33.16,290.11,180502,0.0,E,A*08
$GPGGA,000317.00,4852.9731944,N,00217.8365558,E,1,06,1.0,-6.398,M,0.000,M,0.0,*53
$GPGSA,A,3,01,08,10,16,21,23,,,,,,,2.2,1.3,1.8,1*29
$GPGSV,2,1,06,01,16,255,49,08,74,298,57,10,55,074,58,16,25,182,49,1*6B
$GPGSV,2,2,06,21,46,264,54,23,26,047,50,,,,,,,,,1*61
$GPRMC,000318.00,A,4852.9762722,N,00217.8224221,E,32.32,288.39,180502,0.0,E,A*06
$GPGGA,000318.00,4852.9762722,N,00217.8224221,E,1,06,1.0,-6.738,M,0.000,M,0.0,*57
$GPGSA,A,3,01,08,10,16,21,23,,,,,,,2.2,1.3,1.8,1*29
$GPGSV,2,1,06,01,16,255,49,08,74,298,56,10,55,074,57,16,25,182,52,1*6F
$GPGSV,2,2,06,21,46,264,54,23,26,047,50,,,,,,,,,1*61
$GPRMC,000319.00,A,4852.9778559,N,00217.8111777,E,32.25,286.37,180502,0.0,E,A*07
$GPGGA,000319.00,4852.9778559,N,00217.8111777,E,1,06,1.0,-9.588,M,0.000,M,0.0,*56
$GPGSA,A,3,01,08,10,16,21,23,,,,,,,2.2,1.3,1.8,1*29
$GPGSV,2,1,06,01,16,255,48,08,74,298,57,10,55,074,55,16,25,182,50,1*6F
$GPGSV,2,2,06,21,46,264,53,23,26,047,50,,,,,,,,,1*66
$GPRMC,000320.00,A,4852.9812229,N,00217.7981004,E,33.12,289.26,180502,0.0,E,A*09
$GPGGA,000320.00,4852.9812229,N,00217.7981004,E,1,06,1.0,-11.814,M,0.000,M,0.0,*63
$GPGSA,A,3,01,08,10,16,21,23,,,,,,,2.2,1.3,1.8,1*29
$GPGSV,2,1,06,01,16,255,48,08,74,298,56,10,55,074,55,16,25,182,50,1*6E
$GPGSV,2,2,06,21,46,264,54,23,26,047,51,,,,,,,,,1*60
$GPRMC,000321.00,A,4852.9842084,N,00217.7847146,E,32.38,288.50,180502,0.0,E,A*0D
$GPGGA,000321.00,4852.9842084,N,00217.7847146,E,1,06,1.0,-7.249,M,0.000,M,0.0,*5B
$GPGSA,A,3,01,08,10,16,21,23,,,,,,,2.2,1.3,1.8,1*29
$GPGSV,2,1,06,01,16,255,47,08,74,298,58,10,55,074,54,16,25,182,50,1*6E
$GPGSV,2,2,06,21,46,264,54,23,26,047,51,,,,,,,,,1*60
$GPRMC,000322.00,A,4852.9867418,N,00217.7727808,E,32.40,288.23,180502,0.0,E,A*09
$GPGGA,000322.00,4852.9867418,N,00217.7727808,E,1,06,1.0,-9.333,M,0.000,M,0.0,*56
$GPGSA,A,3,01,08,10,16,21,23,,,,,,,2.2,1.3,1.8,1*29
$GPGSV,2,1,06,01,16,255,48,08,74,298,57,10,55,074,54,16,25,182,48,1*67
$GPGSV,2,2,06,21,46,264,53,23,26,047,48,,,,,,,,,1*6F
$GPRMC,000323.00,A,4852.9890170,N,00217.7601486,E,32.15,288.48,180502,0.0,E,A*09
$GPGGA,000323.00,4852.9890170,N,00217.7601486,E,1,06,1.0,-11.484,M,0.000,M,0.0,*69
$GPGSA,A,3,01,08,10,16,21,23,,,,,,,2.2,1.3,1.8,1*29
$GPGSV,2,1,06,01,16,255,48,08,74,298,54,10,55,074,54,16,25,182,48,1*64
$GPGSV,2,2,06,21,46,264,54,23,26,047,49,,,,,,,,,1*69
$GPRMC,000324.00,A,4852.9925185,N,00217.7458703,E,31.38,287.37,180502,0.0,E,A*00
$GPGGA,000324.00,4852.9925185,N,00217.7458703,E,1,06,1.0,-13.032,M,0.000,M,0.0,*60
$GPGSA,A,3,01,08,10,16,21,23,,,,,,,2.2,1.3,1.8,1*29
