$GPRMC,000030.00,A,4852.4662606,N,00217.5805365,E,1.19,0.00,180502,0.0,E,A*30
$GPGGA,000030.00,4852.4662606,N,00217.5805365,E,1,06,1.0,-8.491,M,0.000,M,0.0,*5E
$GPGSA,A,3,01,08,10,16,21,23,,,,,,,2.2,1.3,1.8,1*29
$GPGSV,2,1,06,01,15,255,47,08,73,299,56,10,56,076,54,16,27,182,50,1*66
$GPGSV,2,2,06,21,45,263,53,23,28,048,50,,,,,,,,,1*63
$GPRMC,000031.00,A,4852.4660586,N,00217.5818123,E,0.53,0.00,180502,0.0,E,A*3B
$GPGGA,000031.00,4852.4660586,N,00217.5818123,E,1,06,1.0,-9.729,M,0.000,M,0.0,*5B
$GPGSA,A,3,01,08,10,16,21,23,,,,,,,2.2,1.3,1.8,1*29
$GPGSV,2,1,06,01,15,255,47,08,73,299,57,10,56,076,54,16,27,182,50,1*67
$GPGSV,2,2,06,21,45,263,54,23,28,048,50,,,,,,,,,1*64
$GPRMC,000032.00,A,4852.4666250,N,00217.5821019,E,1.28,0.00,180502,0.0,E,A*3D
$GPGGA,000032.00,4852.4666250,N,00217.5821019,E,1,06,1.0,-15.230,M,0.000,M,0.0,*60
$GPGSA,A,3,01,08,10,16,21,23,,,,,,,2.2,1.3,1.8,1*29
$GPGSV,2,1,06,01,15,255,48,08,73,299,57,10,56,076,54,16,27,182,50,1*68
$GPGSV,2,2,06,21,45,263,53,23,28,048,51,,,,,,,,,1*62
$GPRMC,000033.00,A,4852.4665694,N,00217.5806387,E,1.50,0.00,180502,0.0,E,A*3D
$GPGGA,000033.00,4852.4665694,N,00217.5806387,E,1,06,1.0,-15.302,M,0.000,M,0.0,*6F
$GPGSA,A,3,01,08,10,16,21,23,,,,,,,2.2,1.3,1.8,1*29
$GPGSV,2,1,06,01,15,255,48,08,73,299,56,10,56,076,54,16,27,182,49,1*61
$GPGSV,2,2,06,21,45,263,54,23,28,048,50,,,,,,,,,1*64
$GPRMC,000034.00,A,4852.4669008,N,00217.5813381,E,1.85,0.00,180502,0.0,E,A*3F
$GPGGA,000034.00,4852.4669008,N,00217.5813381,E,1,06,1.0,-13.868,M,0.000,M,0.0,*64
$GPGSA,A,3,01,08,10,16,21,23,,,,,,,2.2,1.3,1.8,1*29
$GPGSV,2,1,06,01,15,255,48,08,73,299,56,10,56,076,54,16,27,182,50,1*69
$GPGSV,2,2,06,21,45,263,52,23,28,048,50,,,,,,,,,1*62
$GPRMC,000035.00,A,4852.4661320,N,00217.5808781,E,0.37,0.00,180502,0.0,E,A*39
$GPGGA,000035.00,4852.4661320,N,00217.5808781,E,1,06,1.0,-7.684,M,0.000,M,0.0,*53
$GPGSA,A,3,01,08,10,16,21,23,,,,,,,2.2,1.3,1.8,1*29
$GPGSV,2,1,06,01,15,255,47,08,73,299,58,10,56,076,57,16,27,182,50,1*6B
$GPGSV,2,2,06,21,45,263,52,23,27,048,51,,,,,,,,,1*6C
$GPRMC,000036.00,A,4852.4672806,N,00217.5796395,E,0.93,0.00,180502,0.0,E,A*30
$GPGGA,000036.00,4852.4672806,N,00217.5796395,E,1,06,1.0,-8.336,M,0.000,M,0.0,*57
$GPGSA,A,3,01,08,10,16,21,23,,,,,,,2.2,1.3,1.8,1*29
$GPGSV,2,1,06,01,15,255,49,08,73,299,57,10,56,076,57,16,27,182,51,1*6B
$GPGSV,2,2,06,21,45,263,54,23,27,048,50,,,,,,,,,1*6B
$GPRMC,000037.00,A,4852.4677519,N,00217.5783636,E,0.60,0.00,180502,0.0,E,A*33
$GPGGA,000037.00,4852.4677519,N,00217.5783636,E,1,06,1.0,-2.654,M,0.000,M,0.0,*53
$GPGSA,A,3,01,08,10,16,21,23,,,,,,,2.2,1.3,1.8,1*29
$GPGSV,2,1,06,01,15,255,47,08,73,299,59,10,56,076,56,16,27,182,49,1*63
$GPGSV,2,2,06,21,45,263,53,23,27,048,50,,,,,,,,,1*6C
$GPRMC,000038.00,A,4852.4664009,N,00217.5801735,E,0.54,0.00,180502,0.0,E,A*3A
$GPGGA,000038.00,4852.4664009,N,00217.5801735,E,1,06,1.0,-2.124,M,0.000,M,0.0,*5D
$GPGSA,A,3,01,08,10,16,21,23,,,,,,,2.2,1.3,1.8,1*29
$GPGSV,2,1,06,01,15,255,48,08,73,299,55,10,56,076,55,16,27,182,50,1*6B
$GPGSV,2,2,06,21,45,263,53,23,27,048,50,,,,,,,,,1*6C
$GPRMC,000039.00,A,4852.4669189,N,00217.5808800,E,0.80,0.00,180502,0.0,E,A*36
$GPGGA,000039.00,4852.4669189,N,00217.5808800,E,1,06,1.0,-7.811,M,0.000,M,0.0,*52
$GPGSA,A,3,01,08,10,16,21,23,,,,,,,2.2,1.3,1.8,1*29
$GPGSV,2,1,06,01,15,255,48,08,73,299,56,10,56,076,54,16,27,182,50,1*69
$GPGSV,2,2,06,21,45,263,52,23,27,048,52,,,,,,,,,1*6F
$GPRMC,000040.00,A,4852.4669684,N,00217.5786996,E,1.62,0.00,180502,0.0,E,A*38
$GPGGA,000040.00,4852.4669684,N,00217.5786996,E,1,06,1.0,-7.032,M,0.000,M,0.0,*58
$GPGSA,A,3,01,08,10,16,21,23,,,,,,,2.2,1.3,1.8,1*29
$GPGSV,2,1,06,01,15,255,48,08,73,299,57,10,56,076,55,16,27,182,50,1*69
$GPGSV,2,2,06,21,45,263,52,23,27,048,50,,,,,,,,,1*6D
$GPRMC,000041.00,A,4852.4665634,N,00217.5803623,E,0.52,0.00,180502,0.0,E,A*3F
$GPGGA,000041.00,4852.4665634,N,00217.5803623,E,1,06,1.0,-10.928,M,0.000,M,0.0,*69
$GPGSA,A,3,01,08,10,16,21,23,,,,,,,2.2,1.3,1.8,1*29
$GPGSV,2,1,06,01,15,255,47,08,73,299,55,10,56,076,54,16,27,182,50,1*65
$GPGSV,2,2,06,21,45,263,54,23,27,048,50,,,,,,,,,1*6B
$GPRMC,000042.00,A,4852.4658126,N,00217.5820778,E,0.85,0.00,180502,0.0,E,A*32
$GPGGA,000042.00,4852.4658126,N,00217.5820778,E,1,06,1.0,-14.039,M,0.000,M,0.0,*63
$GPGSA,A,3,01,08,10,16,21,23,,,,,,,2.2,1.3,1.8,1*29
$GPGSV,2,1,06,01,15,255,49,08,73,299,57,10,56,076,54,16,27,182,50,1*69
$GPGSV,2,2,06,21,45,263,53,23,27,048,50,,,,,,,,,1*6C
$GPRMC,000043.00,A,4852.4667886,N,00217.5812419,E,0.97,0.00,180502,0.0,E,A*3A
$GPGGA,000043.00,4852.4667886,N,00217.5812419,E,1,06,1.0,-16.884,M,0.000,M,0.0,*64
$GPGSA,A,3,01,08,10,16,21,23,,,,,,,2.2,1.3,1.8,1*29
$GPGSV,2,1,06,01,15,255,47,08,73,299,56,10,56,076,54,16,27,182,48,1*6F
$GPGSV,2,2,06,21,45,263,54,23,27,048,52,,,,,,,,,1*69
$GPRMC,000044.00,A,4852.4663513,N,00217.5806330,E,0.68,0.00,180502,0.0,E,A*31
$GPGGA,000044.00,4852.4663513,N,00217.5806330,E,1,06,1.0,-13.101,M,0.000,M,0.0,*6E
$GPGSA,A,3,01,08,10,16,21,23,,,,,,,2.2,1.3,1.8,1*29
$GPGSV,2,1,06,01,15,255,49,08,73,299,58,10,56,076,56,16,27,182,48,1*6D
$GPGSV,2,2,06,21,45,263,52,23,27,048,51,,,,,,,,,1*6C
$GPRMC,000045.00,A,4852.4663965,N,00217.5802138,E,0.41,0.00,180502,0.0,E,A*38
$GPGGA,000045.00,4852.4663965,N,00217.5802138,E,1,06,1.0,-10.360,M,0.000,M,0.0,*6A
$GPGSA,A,3,01,08,10,16,21,23,,,,,,,2.2,1.3,1.8,1*29
$GPGSV,2,1,06,01,15,255,48,08,73,299,57,10,56,076,56,16,27,182,48,1*63
$GPGSV,2,2,06,21,45,263,52,23,27,048,50,,,,,,,,,1*6D
$GPRMC,000046.00,A,4852.4672188,N,00217.5808335,E,0.46,0.00,180502,0.0,E,A*32
$GPGGA,000046.00,4852.4672188,N,00217.5808335,E,1,06,1.0,-11.115,M,0.000,M,0.0,*66
$GPGSA,A,3,01,08,10,16,21,23,,,,,,,2.2,1.3,1.8,1*29
$GPGSV,2,1,06,01,15,255,49,08,73,299,55,10,56,076,56,16,27,182,48,1*60
$GPGSV,2,2,06,21,45,263,51,23,27,048,50,,,,,,,,,1*6E
$GPRMC,000047.00,A,4852.4662382,N,00217.5796649,E,1.55,0.00,180502,0.0,E,A*3F
$GPGGA,000047.00,4852.4662382,N,00217.5796649,E,1,06,1.0,-4.160,M,0.000,M,0.0,*5E
$GPGSA,A,3,01,08,10,16,21,23,,,,,,,2.2,1.3,1.8,1*29
$GPGSV,2,1,06,01,15,255,50,08,73,299,57,10,56,076,58,16,27,182,49,1*65
$GPGSV,2,2,06,21,45,263,52,23,27,048,52,,,,,,,,,1*6F
$GPRMC,000048.00,A,4852.4673182,N,00217.5779564,E,1.32,0.00,180502,0.0,E,A*3E
$GPGGA,000048.00,4852.4673182,N,00217.5779564,E,1,06,1.0,-2.646,M,0.000,M,0.0,*5B
$GPGSA,A,3,01,08,10,16,21,23,,,,,,,2.2,1.3,1.8,1*29
$GPGSV,2,1,06,01,15,255,50,08,73,299,57,10,56,076,55,16,27,182,50,1*60
$GPGSV,2,2,06,21,45,263,54,23,27,048,49,,,,,,,,,1*63
$GPRMC,000049.00,A,4852.4672517,N,00217.5791449,E,1.43,0.00,180502,0.0,E,A*38
$GPGGA,000049.00,4852.4672517,N,00217.5791449,E,1,06,1.0,-5.468,M,0.000,M,0.0,*52
$GPGSA,A,3,01,08,10,16,21,23,,,,,,,2.2,1.3,1.8,1*29
$GPGSV,2,1,06,01,15,255,49,08,73,299,57,10,56,076,54,16,27,182,49,1*61
$GPGSV,2,2,06,21,45,263,51,23,27,048,50,,,,,,,,,1*6E
$GPRMC,000050.00,A,4852.4658381,N,00217.5809905,E,1.13,0.00,180502,0.0,E,A*3F
$GPGGA,000050.00,4852.4658381,N,00217.5809905,E,1,06,1.0,-6.841,M,0.000,M,0.0,*54
$GPGSA,A,3,01,08,10,16,21,23,,,,,,,2.2,1.3,1.8,1*29
$GPGSV,2,1,06,01,15,255,49,08,73,299,56,10,56,076,55,16,27,182,51,1*68
$GPGSV,2,2,06,21,45,263,52,23,27,048,51,,,,,,,,,1*6C
$GPRMC,000051.00,A,4852.4671726,N,00217.5807607,E,1.18,0.00,180502,0.0,E,A*34
$GPGGA,000051.00,4852.4671726,N,00217.5807607,E,1,06,1.0,-9.595,M,0.000,M,0.0,*5F
$GPGSA,A,3,01,08,10,16,21,23,,,,,,,2.2,1.3,1.8,1*29
$GPGSV,2,1,06,01,15,255,49,08,73,299,57,10,56,076,55,16,27,182,52,1*6A
$GPGSV,2,2,06,21,45,263,54,23,27,048,53,,,,,,,,,1*68
$GPRMC,000052.00,A,4852.4667957,N,00217.5797216,E,1.98,136.97,180502,0.0,E,A*38
$GPGGA,000052.00,4852.4667957,N,00217.5797216,E,1,06,1.0,-10.248,M,0.000,M,0.0,*6E
$GPGSA,A,3,01,08,10,16,21,23,,,,,,,2.2,1.3,1.8,1*29
$GPGSV,2,1,06,01,15,255,48,08,73,299,56,10,56,076,56,16,27,182,49,1*63
$GPGSV,2,2,06,21,45,263,54,23,27,048,51,,,,,,,,,1*6A
$GPRMC,000053.00,A,4852.4661813,N,00217.5818718,E,1.41,136.97,180502,0.0,E,A*39
$GPGGA,000053.00,4852.4661813,N,00217.5818718,E,1,06,1.0,-15.869,M,0.000,M,0.0,*67
$GPGSA,A,3,01,08,10,16,21,23,,,,,,,2.2,1.3,1.8,1*29
$GPGSV,2,1,06,01,15,255,48,08,73,299,57,10,56,076,56,16,27,182,49,1*62
$GPGSV,2,2,06,21,45,263,52,23,27,048,49,,,,,,,,,1*65
$GPRMC,000054.00,A,4852.4662698,N,00217.5830260,E,0.43,136.97,180502,0.0,E,A*33
$GPGGA,000054.00,4852.4662698,N,00217.5830260,E,1,06,1.0,-15.753,M,0.000,M,0.0,*68
$GPGSA,A,3,01,08,10,16,21,23,,,,,,,2.2,1.3,1.8,1*29
$GPGSV,2,1,06,01,15,255,49,08,73,299,57,10,56,076,55,16,27,182,50,1*68
$GPGSV,2,2,06,21,45,263,53,23,27,048,49,,,,,,,,,1*64
$GPRMC,000055.00,A,4852.4663822,N,00217.5810495,E,0.52,136.97,180502,0.0,E,A*32
$GPGGA,000055.00,4852.4663822,N,00217.5810495,E,1,06,1.0,-12.194,M,0.000,M,0.0,*63
$GPGSA,A,3,01,08,10,16,21,23,,,,,,,2.2,1.3,1.8,1*29
$GPGSV,2,1,06,01,15,255,49,08,73,299,59,10,56,076,58,16,27,182,51,1*6A
$GPGSV,2,2,06,21,45,263,52,23,27,048,50,,,,,,,,,1*6D
$GPRMC,000056.00,A,4852.4665031,N,00217.5808818,E,1.23,136.97,180502,0.0,E,A*3A
$GPGGA,000056.00,4852.4665031,N,00217.5808818,E,1,06,1.0,-11.088,M,0.000,M,0.0,*63
$GPGSA,A,3,01,08,10,16,21,23,,,,,,,2.2,1.3,1.8,1*29
$GPGSV,2,1,06,01,15,255,48,08,73,299,58,10,56,076,56,16,27,182,48,1*6C
$GPGSV,2,2,06,21,45,263,54,23,27,048,50,,,,,,,,,1*6B
$GPRMC,000057.00,A,4852.4662522,N,00217.5814053,E,1.86,136.97,180502,0.0,E,A*3E
$GPGGA,000057.00,4852.4662522,N,00217.5814053,E,1,06,1.0,-6.081,M,0.000,M,0.0,*57
$GPGSA,A,3,01,08,10,16,21,23,,,,,,,2.2,1.3,1.8,1*29
$GPGSV,2,1,06,01,16,255,50,08,73,299,57,10,56,076,55,16,27,182,50,1*63
$GPGSV,2,2,06,21,45,263,53,23,27,048,50,,,,,,,,,1*6C
$GPRMC,000058.00,A,4852.4667172,N,00217.5816956,E,1.12,136.97,180502,0.0,E,A*36
$GPGGA,000058.00,4852.4667172,N,00217.5816956,E,1,06,1.0,-5.180,M,0.000,M,0.0,*51
$GPGSA,A,3,01,08,10,16,21,23,,,,,,,2.2,1.3,1.8,1*29
$GPGSV,2,1,06,01,16,255,48,08,73,299,57,10,56,076,56,16,27,182,51,1*68
$GPGSV,2,2,06,21,45,263,52,23,27,048,50,,,,,,,,,1*6D
$GPRMC,000059.00,A,4852.4667338,N,00217.5797530,E,0.89,136.97,180502,0.0,E,A*32
$GPGGA,000059.00,4852.4667338,N,00217.5797530,E,1,06,1.0,-0.653,M,0.000,M,0.0,*5A
$GPGSA,A,3,01,08,10,16,21,23,,,,,,,2.2,1.3,1.8,1*29
$GPGSV,2,1,06,01,16,255,50,08,73,299,57,10,56,076,57,16,26,182,52,1*62
$GPGSV,2,2,06,21,45,263,53,23,27,048,51,,,,,,,,,1*6D
$GPRMC,000100.00,A,4852.4668185,N,00217.5792587,E,0.66,136.97,180502,0.0,E,A*3C
$GPGGA,000100.00,4852.4668185,N,00217.5792587,E,1,06,1.0,0.260,M,0.000,M,0.0,*7C
$GPGSA,A,3,01,08,10,16,21,23,,,,,,,2.2,1.3,1.8,1*29
$GPGSV,2,1,06,01,16,255,49,08,73,299,56,10,56,076,57,16,26,182,50,1*69
$GPGSV,2,2,06,21,45,263,53,23,27,048,50,,,,,,,,,1*6C
$GPRMC,000101.00,A,4852.4665691,N,00217.5817054,E,0.63,136.97,180502,0.0,E,A*3E
$GPGGA,000101.00,4852.4665691,N,00217.5817054,E,1,06,1.0,-4.793,M,0.000,M,0.0,*5B
$GPGSA,A,3,01,08,10,16,21,23,,,,,,,2.2,1.3,1.8,1*29
$GPGSV,2,1,06,01,16,255,48,08,73,299,55,10,56,076,55,16,26,182,50,1*69
$GPGSV,2,2,06,21,45,263,52,23,27,048,51,,,,,,,,,1*6C
$GPRMC,000102.00,A,4852.4655889,N,00217.5811230,E,0.55,136.97,180502,0.0,E,A*3A
$GPGGA,000102.00,4852.4655889,N,00217.5811230,E,1,06,1.0,-5.524,M,0.000,M,0.0,*55
$GPGSA,A,3,01,08,10,16,21,23,,,,,,,2.2,1.3,1.8,1*29
$GPGSV,2,1,06,01,16,255,49,08,73,299,56,10,56,076,55,16,26,182,49,1*63
$GPGSV,2,2,06,21,45,263,53,23,27,048,50,,,,,,,,,1*6C
$GPRMC,000103.00,A,4852.4671196,N,00217.5809623,E,1.54,136.97,180502,0.0,E,A*35
$GPGGA,000103.00,4852.4671196,N,00217.5809623,E,1,06,1.0,-8.944,M,0.000,M,0.0,*5D
$GPGSA,A,3,01,08,10,16,21,23,,,,,,,2.2,1.3,1.8,1*29
$GPGSV,2,1,06,01,16,255,48,08,73,299,56,10,56,076,56,16,26,182,50,1*69
$GPGSV,2,2,06,21,45,263,53,23,27,048,51,,,,,,,,,1*6D
$GPRMC,000104.00,A,4852.4663682,N,00217.5814671,E,1.60,136.97,180502,0.0,E,A*3F
$GPGGA,000104.00,4852.4663682,N,00217.5814671,E,1,06,1.0,-9.870,M,0.000,M,0.0,*57
$GPGSA,A,3,01,08,10,16,21,23,,,,,,,2.2,1.3,1.8,1*29
$GPGSV,2,1,06,01,16,255,47,08,73,299,58,10,56,076,56,16,26,182,50,1*68
$GPGSV,2,2,06,21,45,263,54,23,27,048,50,,,,,,,,,1*6B
$GPRMC,000105.00,A,4852.4656530,N,00217.5829002,E,2.02,353.12,180502,0.0,E,A*35
$GPGGA,000105.00,4852.4656530,N,00217.5829002,E,1,06,1.0,-13.285,M,0.000,M,0.0,*6D
$GPGSA,A,3,01,08,10,16,21,23,,,,,,,2.2,1.3,1.8,1*29
$GPGSV,2,1,06,01,16,255,48,08,73,299,58,10,56,076,55,16,26,182,50,1*64
$GPGSV,2,2,06,21,45,263,53,23,27,048,50,,,,,,,,,1*6C
$GPRMC,000106.00,A,4852.4668592,N,00217.5825829,E,1.16,353.12,180502,0.0,E,A*38
$GPGGA,000106.00,4852.4668592,N,00217.5825829,E,1,06,1.0,-18.067,M,0.000,M,0.0,*63
$GPGSA,A,3,01,08,10,16,21,23,,,,,,,2.2,1.3,1.8,1*29
$GPGSV,2,1,06,01,16,255,48,08,73,299,56,10,56,076,55,16,26,182,51,1*6B
$GPGSV,2,2,06,21,45,263,53,23,27,048,50,,,,,,,,,1*6C
$GPRMC,000107.00,A,4852.4662301,N,00217.5809533,E,0.86,353.12,180502,0.0,E,A*3F
$GPGGA,000107.00,4852.4662301,N,00217.5809533,E,1,06,1.0,-11.615,M,0.000,M,0.0,*66
$GPGSA,A,3,01,08,10,16,21,23,,,,,,,2.2,1.3,1.8,1*29
$GPGSV,2,1,06,01,16,255,47,08,73,299,56,10,56,076,54,16,26,182,50,1*64
$GPGSV,2,2,06,21,45,263,51,23,27,048,51,,,,,,,,,1*6F
$GPRMC,000108.00,A,4852.4657535,N,00217.5826532,E,9.86,111.92,180502,0.0,E,A*3E
$GPGGA,000108.00,4852.4657535,N,00217.5826532,E,1,06,1.0,-11.684,M,0.000,M,0.0,*6A
$GPGSA,A,3,01,08,10,16,21,23,,,,,,,2.2,1.3,1.8,1*29
$GPGSV,2,1,06,01,16,255,46,08,73,299,57,10,56,076,55,16,26,182,51,1*64
$GPGSV,2,2,06,21,45,263,51,23,27,048,52,,,,,,,,,1*6C
$GPRMC,000109.00,A,4852.4646660,N,00217.5885205,E,20.17,116.08,180502,0.0,E,A*01
$GPGGA,000109.00,4852.4646660,N,00217.5885205,E,1,06,1.0,-10.888,M,0.000,M,0.0,*61
$GPGSA,A,3,01,08,10,16,21,23,,,,,,,2.2,1.3,1.8,1*29
$GPGSV,2,1,06,01,16,255,44,08,73,299,58,10,56,076,52,16,26,182,50,1*6F
$GPGSV,2,2,06,21,45,263,50,23,27,048,53,,,,,,,,,1*6C
$GPRMC,000110.00,A,4852.4599038,N,00217.5991756,E,29.63,116.57,180502,0.0,E,A*04
$GPGGA,000110.00,4852.4599038,N,00217.5991756,E,1,06,1.0,-10.060,M,0.000,M,0.0,*6A
$GPGSA,A,3,01,08,10,16,21,23,,,,,,,2.2,1.3,1.8,1*29
$GPGSV,2,1,06,01,16,255,50,08,73,299,57,10,56,076,52,16,26,182,47,1*63
$GPGSV,2,2,06,21,45,263,52,23,27,048,48,,,,,,,,,1*64
$GPRMC,000111.00,A,4852.4574226,N,00217.6101122,E,31.42,115.62,180502,0.0,E,A*03
$GPGGA,000111.00,4852.4574226,N,00217.6101122,E,1,06,1.0,-8.348,M,0.000,M,0.0,*52
$GPGSA,A,3,01,08,10,16,21,23,,,,,,,2.2,1.3,1.8,1*29
$GPGSV,2,1,06,01,16,255,52,08,73,299,52,10,56,076,55,16,26,182,48,1*6C
$GPGSV,2,2,06,21,45,263,57,23,27,048,47,,,,,,,,,1*6E
$GPRMC,000112.00,A,4852.4549790,N,00217.6201102,E,32.61,115.68,180502,0.0,E,A*0F
$GPGGA,000112.00,4852.4549790,N,00217.6201102,E,1,06,1.0,-3.900,M,0.000,M,0.0,*5B
$GPGSA,A,3,01,08,10,16,21,23,,,,,,,2.2,1.3,1.8,1*29
$GPGSV,2,1,06,01,16,255,50,08,73,299,52,10,56,076,57,16,26,182,50,1*65
$GPGSV,2,2,06,21,45,263,58,23,27,048,49,,,,,,,,,1*6F
$GPRMC,000113.00,A,4852.4494012,N,00217.6336491,E,31.57,114.36,180502,0.0,E,A*04
$GPGGA,000113.00,4852.4494012,N,00217.6336491,E,1,06,1.0,-4.142,M,0.000,M,0.0,*55
$GPGSA,A,3,01,08,10,16,21,23,,,,,,,2.2,1.3,1.8,1*29
$GPGSV,2,1,06,01,16,255,48,08,73,299,53,10,56,076,57,16,26,182,50,1*6D
$GPGSV,2,2,06,21,45,263,54,23,27,048,51,,,,,,,,,1*6A
$GPRMC,000114.00,A,4852.4462918,N,00217.6445662,E,22.60,109.64,180502,0.0,E,A*09
$GPGGA,000114.00,4852.4462918,N,00217.6445662,E,1,06,1.0,-0.095,M,0.000,M,0.0,*5A
$GPGSA,A,3,01,08,10,16,21,23,,,,,,,2.2,1.3,1.8,1*29
$GPGSV,2,1,06,01,16,255,46,08,73,299,52,10,56,076,54,16,26,182,47,1*67
$GPGSV,2,2,06,21,45,263,51,23,27,048,47,,,,,,,,,1*68
$GPRMC,000115.00,A,4852.4461769,N,00217.6531936,E,14.03,104.29,180502,0.0,E,A*0B
$GPGGA,000115.00,4852.4461769,N,00217.6531936,E,1,06,1.0,-6.825,M,0.000,M,0.0,*59
$GPGSA,A,3,01,08,10,16,21,23,,,,,,,2.2,1.3,1.8,1*29
$GPGSV,2,1,06,01,16,255,42,08,73,299,52,10,56,076,49,16,26,182,42,1*6A
$GPGSV,2,2,06,21,45,263,48,23,27,048,43,,,,,,,,,1*64
$GPRMC,000116.00,A,4852.4459852,N,00217.6564650,E,9.87,63.74,180502,0.0,E,A*03
$GPGGA,000116.00,4852.4459852,N,00217.6564650,E,1,06,1.0,-6.218,M,0.000,M,0.0,*5D
$GPGSA,A,3,01,08,10,16,21,23,,,,,,,2.2,1.3,1.8,1*29
$GPGSV,2,1,06,01,16,255,40,08,73,298,52,10,56,076,46,16,26,182,40,1*64
$GPGSV,2,2,06,21,45,263,45,23,27,048,40,,,,,,,,,1*6A
$GPRMC,000117.00,A,4852.4481286,N,00217.6613898,E,21.07,63.15,180502,0.0,E,A*38
$GPGGA,000117.00,4852.4481286,N,00217.6613898,E,1,06,1.0,-5.946,M,0.000,M,0.0,*50
$GPGSA,A,3,01,08,10,16,21,23,,,,,,,2.2,1.3,1.8,1*29
$GPGSV,2,1,06,01,16,255,38,08,73,298,58,10,56,076,40,16,26,182,38,1*68
$GPGSV,2,2,06,21,45,263,40,23,27,048,38,,,,,,,,,1*60
$GPRMC,000118.00,A,4852.4521660,N,00217.6710983,E,31.19,56.22,180502,0.0,E,A*35
$GPGGA,000118.00,4852.4521660,N,00217.6710983,E,1,06,1.0,-8.600,M,0.000,M,0.0,*51
$GPGSA,A,3,01,08,10,16,21,23,,,,,,,2.2,1.3,1.8,1*29
$GPGSV,2,1,06,01,16,255,38,08,73,298,55,10,56,076,38,16,26,182,38,1*6A
$GPGSV,2,2,06,21,45,263,38,23,27,048,38,,,,,,,,,1*6F
$GPRMC,000119.00,A,4852.4542476,N,00217.6850253,E,28.12,67.55,180502,0.0,E,A*38
$GPGGA,000119.00,4852.4542476,N,00217.6850253,E,1,06,1.0,-10.322,M,0.000,M,0.0,*61
$GPGSA,A,3,01,08,10,16,21,23,,,,,,,2.2,1.3,1.8,1*29
$GPGSV,2,1,06,01,16,255,38,08,74,298,53,10,56,076,38,16,26,182,39,1*6A
$GPGSV,2,2,06,21,45,263,38,23,27,048,39,,,,,,,,,1*6E
$GPRMC,000120.00,A,4852.4579899,N,00217.6939300,E,20.13,76.92,180502,0.0,E,A*3C
$GPGGA,000120.00,4852.4579899,N,00217.6939300,E,1,06,1.0,-14.131,M,0.000,M,0.0,*63
$GPGSA,A,3,01,08,10,16,21,23,,,,,,,2.2,1.3,1.8,1*29
$GPGSV,2,1,06,01,16,255,39,08,74,298,55,10,56,076,40,16,26,182,39,1*62
$GPGSV,2,2,06,21,45,263,39,23,27,048,40,,,,,,,,,1*61
$GPRMC,000121.00,A,4852.4587388,N,00217.6988608,E,19.59,85.12,180502,0.0,E,A*30
$GPGGA,000121.00,4852.4587388,N,00217.6988608,E,1,06,1.0,-13.021,M,0.000,M,0.0,*68
$GPGSA,A,3,01,08,10,16,21,23,,,,,,,2.2,1.3,1.8,1*29
$GPGSV,2,1,06,01,16,255,40,08,74,298,56,10,56,076,42,16,26,182,39,1*6D
$GPGSV,2,2,06,21,45,263,42,23,27,048,40,,,,,,,,,1*6D
$GPRMC,000122.00,A,4852.4582033,N,00217.7076729,E,20.05,95.24,180502,0.0,E,A*39
$GPGGA,000122.00,4852.4582033,N,00217.7076729,E,1,06,1.0,-14.235,M,0.000,M,0.0,*66
$GPGSA,A,3,01,08,10,16,21,23,,,,,,,2.2,1.3,1.8,1*29
$GPGSV,2,1,06,01,16,255,40,08,74,298,55,10,56,076,42,16,26,182,40,1*60
$GPGSV,2,2,06,21,45,263,42,23,27,048,40,,,,,,,,,1*6D
$GPRMC,000123.00,A,4852.4552997,N,00217.7169131,E,19.44,107.68,180502,0.0,E,A*0F
$GPGGA,000123.00,4852.4552997,N,00217.7169131,E,1,06,1.0,-14.470,M,0.000,M,0.0,*6A
$GPGSA,A,3,01,08,10,16,21,23,,,,,,,2.2,1.3,1.8,1*29
$GPGSV,2,1,06,01,16,255,42,08,74,298,53,10,56,076,46,16,26,182,42,1*62
$GPGSV,2,2,06,21,45,263,44,23,27,048,43,,,,,,,,,1*68
$GPRMC,000124.00,A,4852.4552509,N,00217.7222969,E,19.54,112.12,180502,0.0,E,A*02
$GPGGA,000124.00,4852.4552509,N,00217.7222969,E,1,06,1.0,-26.058,M,0.000,M,0.0,*60
$GPGSA,A,3,01,08,10,16,21,23,,,,,,,2.2,1.3,1.8,1*29
$GPGSV,2,1,06,01,16,255,45,08,74,298,51,10,56,076,52,16,26,182,47,1*67
$GPGSV,2,2,06,21,45,263,49,23,27,048,47,,,,,,,,,1*61
$GPRMC,000125.00,A,4852.4475246,N,00217.7358678,E,20.62,125.54,180502,0.0,E,A*01
$GPGGA,000125.00,4852.4475246,N,00217.7358678,E,1,06,1.0,-8.513,M,0.000,M,0.0,*5C
$GPGSA,A,3,01,08,10,16,21,23,,,,,,,2.2,1.3,1.8,1*29
$GPGSV,2,1,06,01,16,255,47,08,74,298,54,10,56,076,52,16,26,182,48,1*6F
$GPGSV,2,2,06,21,45,263,53,23,27,048,49,,,,,,,,,1*64
$GPRMC,000126.00,A,4852.4477144,N,00217.7370318,E,15.09,134.11,180502,0.0,E,A*02
$GPGGA,000126.00,4852.4477144,N,00217.7370318,E,1,06,1.0,-13.404,M,0.000,M,0.0,*68
$GPGSA,A,3,01,08,10,16,21,23,,,,,,,2.2,1.3,1.8,1*29
$GPGSV,2,1,06,01,16,255,45,08,74,298,54,10,56,076,49,16,26,182,45,1*6A
$GPGSV,2,2,06,21,45,263,48,23,27,048,45,,,,,,,,,1*62
$GPRMC,000127.00,A,4852.4452145,N,00217.7394310,E,16.37,146.43,180502,0.0,E,A*0B
$GPGGA,000127.00,4852.4452145,N,00217.7394310,E,1,06,1.0,-9.519,M,0.000,M,0.0,*5B
$GPGSA,A,3,01,08,10,16,21,23,,,,,,,2.2,1.3,1.8,1*29
$GPGSV,2,1,06,01,16,255,41,08,74,298,53,10,56,076,44,16,26,182,43,1*62
$GPGSV,2,2,06,21,45,263,43,23,27,048,42,,,,,,,,,1*6E
$GPRMC,000128.00,A,4852.4385810,N,00217.7449956,E,21.58,161.64,180502,0.0,E,A*02
$GPGGA,000128.00,4852.4385810,N,00217.7449956,E,1,06,1.0,-8.485,M,0.000,M,0.0,*5A
$GPGSA,A,3,01,08,10,16,21,23,,,,,,,2.2,1.3,1.8,1*29
$GPGSV,2,1,06,01,16,255,40,08,74,298,54,10,56,076,43,16,26,182,40,1*60
$GPGSV,2,2,06,21,45,263,42,23,27,048,40,,,,,,,,,1*6D
$GPRMC,000129.00,A,4852.4342795,N,00217.7476163,E,23.65,166.80,180502,0.0,E,A*09
$GPGGA,000129.00,4852.4342795,N,00217.7476163,E,1,06,1.0,-7.365,M,0.000,M,0.0,*56
$GPGSA,A,3,01,08,10,16,21,23,,,,,,,2.2,1.3,1.8,1*29
$GPGSV,2,1,06,01,16,255,39,08,74,298,51,10,56,076,40,16,26,182,40,1*68
$GPGSV,2,2,06,21,45,263,40,23,27,048,40,,,,,,,,,1*6F
$GPRMC,000130.00,A,4852.4271117,N,00217.7488600,E,21.11,169.71,180502,0.0,E,A*0F
$GPGGA,000130.00,4852.4271117,N,00217.7488600,E,1,06,1.0,-5.225,M,0.000,M,0.0,*57
$GPGSA,A,3,01,08,10,16,21,23,,,,,,,2.2,1.3,1.8,1*29
$GPGSV,2,1,06,01,16,255,39,08,74,298,50,10,56,076,39,16,26,182,40,1*67
$GPGSV,2,2,06,21,45,263,39,23,27,048,40,,,,,,,,,1*61
$GPRMC,000131.00,A,4852.4224721,N,00217.7484586,E,21.26,165.84,180502,0.0,E,A*0E
$GPGGA,000131.00,4852.4224721,N,00217.7484586,E,1,06,1.0,-0.184,M,0.000,M,0.0,*59
$GPGSA,A,3,01,08,10,16,21,23,,,,,,,2.2,1.3,1.8,1*29
$GPGSV,2,1,06,01,16,255,38,08,74,298,57,10,56,076,39,16,26,182,39,1*6F
$GPGSV,2,2,06,21,45,263,38,23,27,048,39,,,,,,,,,1*6E
$GPRMC,000132.00,A,4852.4195290,N,00217.7517248,E,11.19,149.09,180502,0.0,E,A*01
$GPGGA,000132.00,4852.4195290,N,00217.7517248,E,1,06,1.0,-2.875,M,0.000,M,0.0,*57
$GPGSA,A,3,01,08,10,16,21,23,,,,,,,2.2,1.3,1.8,1*29
$GPGSV,2,1,06,01,16,255,38,08,74,298,54,10,56,076,39,16,26,182,38,1*6D
$GPGSV,2,2,06,21,45,263,39,23,27,048,38,,,,,,,,,1*6E
$GPRMC,000133.00,A,4852.4140026,N,00217.7575599,E,16.86,128.33,180502,0.0,E,A*07
$GPGGA,000133.00,4852.4140026,N,00217.7575599,E,1,06,1.0,1.063,M,0.000,M,0.0,*7F
$GPGSA,A,3,01,08,10,16,21,23,,,,,,,2.2,1.3,1.8,1*29
$GPGSV,2,1,06,01,16,255,40,08,74,298,52,10,56,076,44,16,26,182,38,1*6E
$GPGSV,2,2,06,21,45,263,43,23,27,048,38,,,,,,,,,1*63
$GPRMC,000134.00,A,4852.4152360,N,00217.7668951,E,25.39,118.69,180502,0.0,E,A*0D
$GPGGA,000134.00,4852.4152360,N,00217.7668951,E,1,06,1.0,-11.937,M,0.000,M,0.0,*69
$GPGSA,A,3,01,08,10,16,21,23,,,,,,,2.2,1.3,1.8,1*29
$GPGSV,2,1,06,01,16,255,42,08,74,298,46,10,56,076,47,16,26,182,38,1*6A
$GPGSV,2,2,06,21,45,263,44,23,27,048,45,,,,,,,,,1*6E
$GPRMC,000135.00,A,4852.4084227,N,00217.7776656,E,34.03,118.24,180502,0.0,E,A*02
$GPGGA,000135.00,4852.4084227,N,00217.7776656,E,1,06,1.0,-7.505,M,0.000,M,0.0,*5C
$GPGSA,A,3,01,08,10,16,21,23,,,,,,,2.2,1.3,1.8,1*29
$GPGSV,2,1,06,01,16,255,40,08,74,298,44,10,56,076,45,16,26,182,38,1*68
$GPGSV,2,2,06,21,45,263,42,23,27,048,46,,,,,,,,,1*6B
$GPRMC,000136.00,A,4852.4045572,N,00217.7866390,E,32.25,118.37,180502,0.0,E,A*0A
$GPGGA,000136.00,4852.4045572,N,00217.7866390,E,1,06,1.0,-8.030,M,0.000,M,0.0,*58
$GPGSA,A,3,01,08,10,16,21,23,,,,,,,2.2,1.3,1.8,1*29
$GPGSV,2,1,06,01,16,255,44,08,74,298,49,10,56,076,50,16,26,182,40,1*6A
$GPGSV,2,2,06,21,45,263,46,23,27,048,48,,,,,,,,,1*61
$GPRMC,000137.00,A,4852.4001199,N,00217.7994951,E,33.10,119.18,180502,0.0,E,A*0A
$GPGGA,000137.00,4852.4001199,N,00217.7994951,E,1,06,1.0,-1.562,M,0.000,M,0.0,*58
$GPGSA,A,3,01,08,10,16,21,23,,,,,,,2.2,1.3,1.8,1*29
$GPGSV,2,1,06,01,16,255,45,08,74,298,56,10,56,076,54,16,26,182,45,1*64
$GPGSV,2,2,06,21,45,263,50,23,27,048,48,,,,,,,,,1*66
$GPRMC,000138.00,A,4852.3936612,N,00217.8121464,E,27.31,120.89,180502,0.0,E,A*0D
$GPGGA,000138.00,4852.3936612,N,00217.8121464,E,1,06,1.0,-6.981,M,0.000,M,0.0,*5D
$GPGSA,A,3,01,08,10,16,21,23,,,,,,,2.2,1.3,1.8,1*29
$GPGSV,2,1,06,01,16,255,44,08,74,298,53,10,56,076,49,16,26,182,47,1*6E
$GPGSV,2,2,06,21,45,263,47,23,27,048,45,,,,,,,,,1*6D
$GPRMC,000139.00,A,4852.3920653,N,00217.8196279,E,16.47,129.41,180502,0.0,E,A*06
$GPGGA,000139.00,4852.3920653,N,00217.8196279,E,1,06,1.0,-7.018,M,0.000,M,0.0,*50
$GPGSA,A,3,01,08,10,16,21,23,,,,,,,2.2,1.3,1.8,1*29
$GPGSV,2,1,06,01,16,255,40,08,74,298,48,10,56,076,43,16,26,182,48,1*65
$GPGSV,2,2,06,21,45,263,42,23,27,048,42,,,,,,,,,1*6F
$GPRMC,000140.00,A,4852.3897410,N,00217.8212139,E,9.80,155.10,180502,0.0,E,A*32
$GPGGA,000140.00,4852.3897410,N,00217.8212139,E,1,06,1.0,-9.205,M,0.000,M,0.0,*5E
$GPGSA,A,3,01,08,10,16,21,23,,,,,,,2.2,1.3,1.8,1*29
$GPGSV,2,1,06,01,16,255,38,08,74,298,46,10,56,076,40,16,26,182,47,1*68
$GPGSV,2,2,06,21,45,263,39,23,27,048,40,,,,,,,,,1*61
$GPRMC,000141.00,A,4852.3867602,N,00217.8218090,E,10.96,182.55,180502,0.0,E,A*01
$GPGGA,000141.00,4852.3867602,N,00217.8218090,E,1,06,1.0,-10.372,M,0.000,M,0.0,*60
$GPGSA,A,3,01,08,10,16,21,23,,,,,,,2.2,1.3,1.8,1*29
$GPGSV,2,1,06,01,16,255,38,08,74,298,47,10,56,076,42,16,26,182,51,1*6C
$GPGSV,2,2,06,21,45,263,40,23,27,048,40,,,,,,,,,1*6F
$GPRMC,000142.00,A,4852.3832071,N,00217.8222565,E,22.17,198.82,180502,0.0,E,A*0F
$GPGGA,000142.00,4852.3832071,N,00217.8222565,E,1,06,1.0,-16.802,M,0.000,M,0.0,*6D
$GPGSA,A,3,01,08,10,16,21,23,,,,,,,2.2,1.3,1.8,1*29
$GPGSV,2,1,06,01,16,255,38,08,74,298,53,10,56,076,42,16,26,182,42,1*6B
$GPGSV,2,2,06,21,45,263,41,23,27,048,39,,,,,,,,,1*60
$GPRMC,000143.00,A,4852.3758636,N,00217.8162397,E,28.81,214.32,180502,0.0,E,A*0D
$GPGGA,000143.00,4852.3758636,N,00217.8162397,E,1,06,1.0,-16.842,M,0.000,M,0.0,*62
$GPGSA,A,3,01,08,10,16,21,23,,,,,,,2.2,1.3,1.8,1*29
$GPGSV,2,1,06,01,16,255,38,08,74,298,52,10,56,076,41,16,26,182,39,1*65
$GPGSV,2,2,06,21,45,263,40,23,27,048,38,,,,,,,,,1*60
$GPRMC,000144.00,A,4852.3687861,N,00217.8060490,E,34.14,222.68,180502,0.0,E,A*0D
$GPGGA,000144.00,4852.3687861,N,00217.8060490,E,1,06,1.0,-15.502,M,0.000,M,0.0,*63
$GPGSA,A,3,01,08,10,16,21,23,,,,,,,2.2,1.3,1.8,1*29
$GPGSV,2,1,06,01,16,255,38,08,74,298,51,10,56,076,42,16,26,182,41,1*6A
$GPGSV,2,2,06,21,45,263,40,23,27,048,39,,,,,,,,,1*61
$GPRMC,000145.00,A,4852.3665237,N,00217.7991779,E,29.59,220.36,180502,0.0,E,A*09
$GPGGA,000145.00,4852.3665237,N,00217.7991779,E,1,06,1.0,-25.277,M,0.000,M,0.0,*6D
$GPGSA,A,3,01,08,10,16,21,23,,,,,,,2.2,1.3,1.8,1*29
$GPGSV,2,1,06,01,16,255,42,08,74,298,53,10,56,076,48,16,26,182,45,1*6B
$GPGSV,2,2,06,21,45,263,46,23,27,048,46,,,,,,,,,1*6F
$GPRMC,000146.00,A,4852.3574795,N,00217.7920889,E,23.46,230.79,180502,0.0,E,A*00
$GPGGA,000146.00,4852.3574795,N,00217.7920889,E,1,06,1.0,-15.275,M,0.000,M,0.0,*6B
$GPGSA,A,3,01,08,10,16,21,23,,,,,,,2.2,1.3,1.8,1*29
$GPGSV,2,1,06,01,16,255,43,08,74,298,56,10,56,076,50,16,26,182,42,1*61
$GPGSV,2,2,06,21,45,263,48,23,27,048,43,,,,,,,,,1*64
$GPRMC,000147.00,A,4852.3522709,N,00217.7831628,E,30.64,234.38,180502,0.0,E,A*00
$GPGGA,000147.00,4852.3522709,N,00217.7831628,E,1,06,1.0,-8.315,M,0.000,M,0.0,*53
$GPGSA,A,3,01,08,10,16,21,23,,,,,,,2.2,1.3,1.8,1*29
$GPGSV,2,1,06,01,16,255,45,08,74,298,53,10,56,076,50,16,26,182,44,1*64
$GPGSV,2,2,06,21,45,263,49,23,27,048,47,,,,,,,,,1*61
$GPRMC,000148.00,A,4852.3509680,N,00217.7674553,E,33.26,246.86,180502,0.0,E,A*03
$GPGGA,000148.00,4852.3509680,N,00217.7674553,E,1,06,1.0,-5.959,M,0.000,M,0.0,*5A
$GPGSA,A,3,01,08,10,16,21,23,,,,,,,2.2,1.3,1.8,1*29
$GPGSV,2,1,06,01,16,255,41,08,74,298,50,10,55,076,44,16,26,182,50,1*60
$GPGSV,2,2,06,21,45,263,43,23,27,048,42,,,,,,,,,1*6E
$GPRMC,000149.00,A,4852.3450338,N,00217.7549458,E,33.25,246.79,180502,0.0,E,A*0D
$GPGGA,000149.00,4852.3450338,N,00217.7549458,E,1,06,1.0,-8.906,M,0.000,M,0.0,*50
$GPGSA,A,3,01,08,10,16,21,23,,,,,,,2.2,1.3,1.8,1*29
$GPGSV,2,1,06,01,16,255,45,08,74,298,52,10,55,076,50,16,26,182,45,1*67
$GPGSV,2,2,06,21,45,263,48,23,27,048,46,,,,,,,,,1*61
$GPRMC,000150.00,A,4852.3427594,N,00217.7442726,E,32.77,253.92,180502,0.0,E,A*02
$GPGGA,000150.00,4852.3427594,N,00217.7442726,E,1,06,1.0,8.590,M,0.000,M,0.0,*76
$GPGSA,A,3,01,08,10,16,21,23,,,,,,,2.2,1.3,1.8,1*29
$GPGSV,2,1,06,01,16,255,49,08,74,298,52,10,55,076,54,16,26,182,43,1*69
$GPGSV,2,2,06,21,45,263,50,23,27,048,46,,,,,,,,,1*68
$GPRMC,000151.00,A,4852.3424122,N,00217.7255577,E,33.89,264.20,180502,0.0,E,A*02
$GPGGA,000151.00,4852.3424122,N,00217.7255577,E,1,06,1.0,-14.422,M,0.000,M,0.0,*63
$GPGSA,A,3,01,08,10,16,21,23,,,,,,,2.2,1.3,1.8,1*29
$GPGSV,2,1,06,01,16,255,44,08,74,298,54,10,55,075,53,16,26,182,43,1*66
$GPGSV,2,2,06,21,45,263,50,23,27,048,46,,,,,,,,,1*68
$GPRMC,000153.00,A,4852.3421463,N,00217.6979432,E,31.42,265.58,180502,0.0,E,A*0A
$GPGGA,000153.00,4852.3421463,N,00217.6979432,E,1,06,1.0,-14.543,M,0.000,M,0.0,*66
$GPGSA,A,3,01,08,10,16,21,23,,,,,,,2.2,1.3,1.8,1*29
$GPGSV,2,1,06,01,16,255,48,08,74,298,54,10,55,075,56,16,26,182,46,1*6A
$GPGSV,2,2,06,21,45,263,50,23,27,048,48,,,,,,,,,1*66
$GPRMC,000154.00,A,4852.3407927,N,00217.6871053,E,33.25,278.08,180502,0.0,E,A*04
$GPGGA,000154.00,4852.3407927,N,00217.6871053,E,1,06,1.0,-8.007,M,0.000,M,0.0,*5A
$GPGSA,A,3,01,08,10,16,21,23,,,,,,,2.2,1.3,1.8,1*29
$GPGSV,2,1,06,01,16,255,48,08,74,298,55,10,55,075,55,16,26,182,44,1*6A
$GPGSV,2,2,06,21,45,263,55,23,27,048,46,,,,,,,,,1*6D
$GPRMC,000155.00,A,4852.3403649,N,00217.6789183,E,33.08,280.86,180502,0.0,E,A*0C
$GPGGA,000155.00,4852.3403649,N,00217.6789183,E,1,06,1.0,-11.071,M,0.000,M,0.0,*65
$GPGSA,A,3,01,08,10,16,21,23,,,,,,,2.2,1.3,1.8,1*29
$GPGSV,2,1,06,01,16,255,47,08,74,298,53,10,55,075,53,16,26,182,44,1*65
$GPGSV,2,2,06,21,45,263,54,23,27,048,46,,,,,,,,,1*6C
$GPRMC,000156.00,A,4852.3431271,N,00217.6633523,E,31.64,282.33,180502,0.0,E,A*0B
$GPGGA,000156.00,4852.3431271,N,00217.6633523,E,1,06,1.0,-10.978,M,0.000,M,0.0,*67
$GPGSA,A,3,01,08,10,16,21,23,,,,,,,2.2,1.3,1.8,1*29
$GPGSV,2,1,06,01,16,255,47,08,74,298,54,10,55,075,53,16,26,182,44,1*62
$GPGSV,2,2,06,21,45,263,52,23,27,048,46,,,,,,,,,1*6A
$GPRMC,000157.00,A,4852.3444731,N,00217.6530518,E,32.98,286.17,180502,0.0,E,A*03
$GPGGA,000157.00,4852.3444731,N,00217.6530518,E,1,06,1.0,-6.386,M,0.000,M,0.0,*51
$GPGSA,A,3,01,08,10,16,21,23,,,,,,,2.2,1.3,1.8,1*29
$GPGSV,2,1,06,01,16,255,48,08,74,298,55,10,55,075,53,16,26,182,44,1*6C
$GPGSV,2,2,06,21,45,263,52,23,27,048,45,,,,,,,,,1*69
$GPRMC,000158.00,A,4852.3475104,N,00217.6382966,E,33.02,297.90,180502,0.0,E,A*09
$GPGGA,000158.00,4852.3475104,N,00217.6382966,E,1,06,1.0,-14.294,M,0.000,M,0.0,*67
$GPGSA,A,3,01,08,10,16,21,23,,,,,,,2.2,1.3,1.8,1*29
$GPGSV,2,1,06,01,16,255,46,08,74,298,56,10,55,075,50,16,26,182,43,1*65
$GPGSV,2,2,06,21,45,263,50,23,27,048,44,,,,,,,,,1*6A
$GPRMC,000159.00,A,4852.3515884,N,00217.6284142,E,24.83,299.52,180502,0.0,E,A*08
$GPGGA,000159.00,4852.3515884,N,00217.6284142,E,1,06,1.0,-13.366,M,0.000,M,0.0,*62
$GPGSA,A,3,01,08,10,16,21,23,,,,,,,2.2,1.3,1.8,1*29
$GPGSV,2,1,06,01,16,255,41,08,74,298,52,10,55,075,46,16,26,182,46,1*64
$GPGSV,2,2,06,21,45,263,44,23,27,048,42,,,,,,,,,1*69
$GPRMC,000200.00,A,4852.3548052,N,00217.6184929,E,24.95,304.54,180502,0.0,E,A*0E
$GPGGA,000200.00,4852.3548052,N,00217.6184929,E,1,06,1.0,-6.510,M,0.000,M,0.0,*53
$GPGSA,A,3,01,08,10,16,21,23,,,,,,,2.2,1.3,1.8,1*29
$GPGSV,2,1,06,01,16,255,40,08,74,298,50,10,55,075,45,16,26,182,48,1*6A
$GPGSV,2,2,06,21,45,263,43,23,27,048,42,,,,,,,,,1*6E
$GPRMC,000201.00,A,4852.3598432,N,00217.6111085,E,27.16,312.37,180502,0.0,E,A*09
$GPGGA,000201.00,4852.3598432,N,00217.6111085,E,1,06,1.0,-14.011,M,0.000,M,0.0,*69
$GPGSA,A,3,01,08,10,16,21,23,,,,,,,2.2,1.3,1.8,1*29
$GPGSV,2,1,06,01,16,255,44,08,74,298,56,10,55,075,50,16,26,182,46,1*62
$GPGSV,2,2,06,21,45,263,48,23,27,048,46,,,,,,,,,1*61
$GPRMC,000202.00,A,4852.3646896,N,00217.6040653,E,24.28,317.55,180502,0.0,E,A*0F
$GPGGA,000202.00,4852.3646896,N,00217.6040653,E,1,06,1.0,-4.002,M,0.000,M,0.0,*53
$GPGSA,A,3,01,08,10,16,21,23,,,,,,,2.2,1.3,1.8,1*29
$GPGSV,2,1,06,01,16,255,46,08,74,298,56,10,55,075,52,16,26,182,48,1*6C
$GPGSV,2,2,06,21,45,263,48,23,27,048,46,,,,,,,,,1*61
$GPRMC,000204.00,A,4852.3762839,N,00217.5906405,E,33.23,328.87,180502,0.0,E,A*0C
$GPGGA,000204.00,4852.3762839,N,00217.5906405,E,1,06,1.0,0.236,M,0.000,M,0.0,*72
$GPGSA,A,3,01,08,10,16,21,23,,,,,,,2.2,1.3,1.8,1*29
$GPGSV,2,1,06,01,16,255,46,08,74,298,52,10,55,075,54,16,26,182,41,1*67
$GPGSV,2,2,06,21,45,263,50,23,27,048,44,,,,,,,,,1*6A
$GPRMC,000205.00,A,4852.3832414,N,00217.5832087,E,31.39,333.57,180502,0.0,E,A*02
$GPGGA,000205.00,4852.3832414,N,00217.5832087,E,1,06,1.0,-4.352,M,0.000,M,0.0,*58
$GPGSA,A,3,01,08,10,16,21,23,,,,,,,2.2,1.3,1.8,1*29
$GPGSV,2,1,06,01,16,255,45,08,74,298,55,10,55,075,52,16,26,182,41,1*65
$GPGSV,2,2,06,21,45,263,50,23,27,047,44,,,,,,,,,1*65
$GPRMC,000206.00,A,4852.3915947,N,00217.5787670,E,30.38,337.40,180502,0.0,E,A*03
$GPGGA,000206.00,4852.3915947,N,00217.5787670,E,1,06,1.0,-3.074,M,0.000,M,0.0,*5B
$GPGSA,A,3,01,08,10,16,21,23,,,,,,,2.2,1.3,1.8,1*29
$GPGSV,2,1,06,01,16,255,44,08,74,298,56,10,55,075,50,16,26,182,47,1*63
$GPGSV,2,2,06,21,45,263,47,23,27,047,44,,,,,,,,,1*63
$GPRMC,000207.00,A,4852.3991717,N,00217.5742100,E,33.04,343.03,180502,0.0,E,A*04
$GPGGA,000207.00,4852.3991717,N,00217.5742100,E,1,06,1.0,-8.739,M,0.000,M,0.0,*51
$GPGSA,A,3,01,08,10,16,21,23,,,,,,,2.2,1.3,1.8,1*29
$GPGSV,2,1,06,01,16,255,44,08,74,298,56,10,55,075,50,16,26,182,48,1*6C
$GPGSV,2,2,06,21,45,263,48,23,27,047,45,,,,,,,,,1*6D
$GPRMC,000208.00,A,4852.4110662,N,00217.5672951,E,33.90,347.66,180502,0.0,E,A*0A
$GPGGA,000208.00,4852.4110662,N,00217.5672951,E,1,06,1.0,-8.553,M,0.000,M,0.0,*5B
$GPGSA,A,3,01,08,10,16,21,23,,,,,,,2.2,1.3,1.8,1*29
$GPGSV,2,1,06,01,16,255,43,08,74,298,53,10,55,075,48,16,26,182,48,1*67
$GPGSV,2,2,06,21,45,263,47,23,27,047,46,,,,,,,,,1*61
$GPRMC,000209.00,A,4852.4165090,N,00217.5672472,E,31.31,349.42,180502,0.0,E,A*0F
$GPGGA,000209.00,4852.4165090,N,00217.5672472,E,1,06,1.0,-13.061,M,0.000,M,0.0,*61
$GPGSA,A,3,01,08,10,16,21,23,,,,,,,2.2,1.3,1.8,1*29
$GPGSV,2,1,06,01,16,255,44,08,74,298,55,10,55,075,49,16,26,182,48,1*67
$GPGSV,2,2,06,21,45,263,48,23,27,047,46,,,,,,,,,1*6E
$GPRMC,000210.00,A,4852.4257252,N,00217.5653774,E,31.55,355.26,180502,0.0,E,A*02
$GPGGA,000210.00,4852.4257252,N,00217.5653774,E,1,06,1.0,-13.945,M,0.000,M,0.0,*6E
$GPGSA,A,3,01,08,10,16,21,23,,,,,,,2.2,1.3,1.8,1*29
$GPGSV,2,1,06,01,16,255,44,08,74,298,54,10,55,075,49,16,26,182,48,1*66
$GPGSV,2,2,06,21,45,263,48,23,27,047,48,,,,,,,,,1*60
$GPRMC,000211.00,A,4852.4374616,N,00217.5649311,E,33.84,1.15,180502,0.0,E,A*07
$GPGGA,000211.00,4852.4374616,N,00217.5649311,E,1,06,1.0,-16.035,M,0.000,M,0.0,*6C
$GPGSA,A,3,01,08,10,16,21,23,,,,,,,2.2,1.3,1.8,1*29
$GPGSV,2,1,06,01,16,255,42,08,74,298,52,10,55,075,47,16,26,182,47,1*67
$GPGSV,2,2,06,21,45,263,46,23,27,047,46,,,,,,,,,1*60
$GPRMC,000212.00,A,4852.4412171,N,00217.5675883,E,32.51,5.61,180502,0.0,E,A*04
$GPGGA,000212.00,4852.4412171,N,00217.5675883,E,1,06,1.0,-15.313,M,0.000,M,0.0,*65
$GPGSA,A,3,01,08,10,16,21,23,,,,,,,2.2,1.3,1.8,1*29
$GPGSV,2,1,06,01,16,255,42,08,74,298,52,10,55,075,48,16,26,182,48,1*67
$GPGSV,2,2,06,21,45,263,46,23,27,047,44,,,,,,,,,1*62
$GPRMC,000213.00,A,4852.4547523,N,00217.5690508,E,25.98,13.91,180502,0.0,E,A*39
$GPGGA,000213.00,4852.4547523,N,00217.5690508,E,1,06,1.0,-18.629,M,0.000,M,0.0,*62
$GPGSA,A,3,01,08,10,16,21,23,,,,,,,2.2,1.3,1.8,1*29
$GPGSV,2,1,06,01,16,255,42,08,74,298,50,10,55,075,48,16,26,182,46,1*6B
$GPGSV,2,2,06,21,45,263,46,23,27,047,46,,,,,,,,,1*60
$GPRMC,000214.00,A,4852.4572544,N,00217.5713007,E,18.29,11.07,180502,0.0,E,A*30
$GPGGA,000214.00,4852.4572544,N,00217.5713007,E,1,06,1.0,-10.657,M,0.000,M,0.0,*63
$GPGSA,A,3,01,08,10,16,21,23,,,,,,,2.2,1.3,1.8,1*29
$GPGSV,2,1,06,01,16,255,46,08,74,298,50,10,55,075,51,16,26,182,40,1*61
$GPGSV,2,2,06,21,45,263,51,23,27,047,43,,,,,,,,,1*63
$GPRMC,000215.00,A,4852.4610217,N,00217.5737195,E,6.74,19.14,180502,0.0,E,A*06
$GPGGA,000215.00,4852.4610217,N,00217.5737195,E,1,06,1.0,-10.846,M,0.000,M,0.0,*66
$GPGSA,A,3,01,08,10,16,21,23,,,,,,,2.2,1.3,1.8,1*29
$GPGSV,2,1,06,01,16,255,42,08,74,298,53,10,55,075,46,16,26,182,38,1*6F
$GPGSV,2,2,06,21,45,263,48,23,27,047,39,,,,,,,,,1*66
$GPRMC,000216.00,A,4852.4624134,N,00217.5729606,E,2.88,357.73,180502,0.0,E,A*3D
$GPGGA,000216.00,4852.4624134,N,00217.5729606,E,1,06,1.0,-9.514,M,0.000,M,0.0,*50
$GPGSA,A,3,01,08,10,16,21,23,,,,,,,2.2,1.3,1.8,1*29
$GPGSV,2,1,06,01,16,255,40,08,74,298,53,10,55,075,45,16,26,182,38,1*6E
$GPGSV,2,2,06,21,45,263,45,23,27,047,39,,,,,,,,,1*6B
$GPRMC,000217.00,A,4852.4596128,N,00217.5714545,E,1.69,357.73,180502,0.0,E,A*3D
$GPGGA,000217.00,4852.4596128,N,00217.5714545,E,1,06,1.0,0.592,M,0.000,M,0.0,*76
$GPGSA,A,3,01,08,10,16,21,23,,,,,,,2.2,1.3,1.8,1*29
$GPGSV,2,1,06,01,16,255,43,08,74,298,55,10,55,075,49,16,26,182,41,1*69
$GPGSV,2,2,06,21,45,263,48,23,27,047,42,,,,,,,,,1*6A
$GPRMC,000218.00,A,4852.4622686,N,00217.5717366,E,1.15,357.73,180502,0.0,E,A*32
$GPGGA,000218.00,4852.4622686,N,00217.5717366,E,1,06,1.0,-6.931,M,0.000,M,0.0,*5C
$GPGSA,A,3,01,08,10,16,21,23,,,,,,,2.2,1.3,1.8,1*29
$GPGSV,2,1,06,01,16,255,48,08,74,298,56,10,55,075,55,16,26,182,50,1*6C
$GPGSV,2,2,06,21,45,263,51,23,27,047,49,,,,,,,,,1*69
$GPRMC,000219.00,A,4852.4620053,N,00217.5717968,E,0.41,357.73,180502,0.0,E,A*3B
$GPGGA,000219.00,4852.4620053,N,00217.5717968,E,1,06,1.0,-8.067,M,0.000,M,0.0,*51
$GPGSA,A,3,01,08,10,16,21,23,,,,,,,2.2,1.3,1.8,1*29
$GPGSV,2,1,06,01,16,255,49,08,74,298,56,10,55,075,53,16,26,182,52,1*69
$GPGSV,2,2,06,21,45,263,52,23,27,047,51,,,,,,,,,1*63
$GPRMC,000220.00,A,4852.4608079,N,00217.5719919,E,0.74,357.73,180502,0.0,E,A*3D
$GPGGA,000220.00,4852.4608079,N,00217.5719919,E,1,06,1.0,-4.378,M,0.000,M,0.0,*50
$GPGSA,A,3,01,08,10,16,21,23,,,,,,,2.2,1.3,1.8,1*29
$GPGSV,2,1,06,01,16,255,51,08,74,298,56,10,55,075,53,16,26,182,52,1*60
$GPGSV,2,2,06,21,45,263,54,23,27,047,50,,,,,,,,,1*64
$GPRMC,000221.00,A,4852.4632549,N,00217.5713777,E,1.16,357.73,180502,0.0,E,A*3A
$GPGGA,000221.00,4852.4632549,N,00217.5713777,E,1,06,1.0,-6.270,M,0.000,M,0.0,*59
$GPGSA,A,3,01,08,10,16,21,23,,,,,,,2.2,1.3,1.8,1*29
$GPGSV,2,1,06,01,16,255,50,08,74,298,57,10,55,075,54,16,26,182,50,1*65
$GPGSV,2,2,06,21,45,263,55,23,27,047,51,,,,,,,,,1*64
$GPRMC,000222.00,A,4852.4625753,N,00217.5691426,E,0.78,357.73,180502,0.0,E,A*33
$GPGGA,000222.00,4852.4625753,N,00217.5691426,E,1,06,1.0,-2.102,M,0.000,M,0.0,*5B
$GPGSA,A,3,01,08,10,16,21,23,,,,,,,2.2,1.3,1.8,1*29
$GPGSV,2,1,06,01,16,255,48,08,74,298,55,10,55,075,54,16,26,182,51,1*6F
$GPGSV,2,2,06,21,45,263,53,23,27,047,50,,,,,,,,,1*63
