$GPRMC,000030.00,A,4852.4662587,N,00217.5805414,E,1.19,0.00,180502,0.0,E,A*3B
$GPGGA,000030.00,4852.4662587,N,00217.5805414,E,1,06,1.0,-8.476,M,0.000,M,0.0,*5C
$GPGSA,A,3,01,08,10,16,21,23,,,,,,,2.2,1.3,1.8,1*29
$GPGSV,2,1,06,01,15,255,47,08,73,299,56,10,56,076,54,16,27,182,50,1*66
$GPGSV,2,2,06,21,45,263,53,23,28,048,50,,,,,,,,,1*63
$GPRMC,000031.00,A,4852.4660586,N,00217.5818123,E,0.53,0.00,180502,0.0,E,A*3B
$GPGGA,000031.00,4852.4660586,N,00217.5818123,E,1,06,1.0,-9.729,M,0.000,M,0.0,*5B
$GPGSA,A,3,01,08,10,16,21,23,,,,,,,2.2,1.3,1.8,1*29
$GPGSV,2,1,06,01,15,255,47,08,73,299,57,10,56,076,54,16,27,182,50,1*67
$GPGSV,2,2,06,21,45,263,54,23,28,048,50,,,,,,,,,1*64
$GPRMC,000032.00,A,4852.4666250,N,00217.5821019,E,1.28,0.00,180502,0.0,E,A*3D
$GPGGA,000032.00,4852.4666250,N,00217.5821019,E,1,06,1.0,-15.230,M,0.000,M,0.0,*60
$GPGSA,A,3,01,08,10,16,21,23,,,,,,,2.2,1.3,1.8,1*29
$GPGSV,2,1,06,01,15,255,48,08,73,299,57,10,56,076,54,16,27,182,50,1*68
$GPGSV,2,2,06,21,45,263,53,23,28,048,51,,,,,,,,,1*62
$GPRMC,000033.00,A,4852.4665653,N,00217.5806528,E,1.50,0.00,180502,0.0,E,A*35
$GPGGA,000033.00,4852.4665653,N,00217.5806528,E,1,06,1.0,-15.327,M,0.000,M,0.0,*60
$GPGSA,A,3,01,08,10,16,21,23,,,,,,,2.2,1.3,1.8,1*29
$GPGSV,2,1,06,01,15,255,48,08,73,299,56,10,56,076,54,16,27,182,49,1*61
$GPGSV,2,2,06,21,45,263,54,23,28,048,50,,,,,,,,,1*64
$GPRMC,000034.00,A,4852.4668928,N,00217.5813428,E,1.85,0.00,180502,0.0,E,A*31
$GPGGA,000034.00,4852.4668928,N,00217.5813428,E,1,06,1.0,-13.871,M,0.000,M,0.0,*62
$GPGSA,A,3,01,08,10,16,21,23,,,,,,,2.2,1.3,1.8,1*29
$GPGSV,2,1,06,01,15,255,48,08,73,299,56,10,56,076,54,16,27,182,50,1*69
$GPGSV,2,2,06,21,45,263,52,23,28,048,50,,,,,,,,,1*62
$GPRMC,000035.00,A,4852.4661301,N,00217.5808829,E,0.37,0.00,180502,0.0,E,A*37
$GPGGA,000035.00,4852.4661301,N,00217.5808829,E,1,06,1.0,-7.668,M,0.000,M,0.0,*5F
$GPGSA,A,3,01,08,10,16,21,23,,,,,,,2.2,1.3,1.8,1*29
$GPGSV,2,1,06,01,15,255,47,08,73,299,58,10,56,076,57,16,27,182,50,1*6B
$GPGSV,2,2,06,21,45,263,52,23,27,048,51,,,,,,,,,1*6C
$GPRMC,000036.00,A,4852.4672820,N,00217.5796340,E,0.93,0.00,180502,0.0,E,A*3C
$GPGGA,000036.00,4852.4672820,N,00217.5796340,E,1,06,1.0,-8.346,M,0.000,M,0.0,*5C
$GPGSA,A,3,01,08,10,16,21,23,,,,,,,2.2,1.3,1.8,1*29
$GPGSV,2,1,06,01,15,255,49,08,73,299,57,10,56,076,57,16,27,182,51,1*6B
$GPGSV,2,2,06,21,45,263,54,23,27,048,50,,,,,,,,,1*6B
$GPRMC,000037.00,A,4852.4677481,N,00217.5783733,E,0.60,0.00,180502,0.0,E,A*37
$GPGGA,000037.00,4852.4677481,N,00217.5783733,E,1,06,1.0,-2.623,M,0.000,M,0.0,*57
$GPGSA,A,3,01,08,10,16,21,23,,,,,,,2.2,1.3,1.8,1*29
$GPGSV,2,1,06,01,15,255,47,08,73,299,59,10,56,076,56,16,27,182,49,1*63
$GPGSV,2,2,06,21,45,263,53,23,27,048,50,,,,,,,,,1*6C
$GPRMC,000038.00,A,4852.4664009,N,00217.5801735,E,0.54,0.00,180502,0.0,E,A*3A
$GPGGA,000038.00,4852.4664009,N,00217.5801735,E,1,06,1.0,-2.124,M,0.000,M,0.0,*5D
$GPGSA,A,3,01,08,10,16,21,23,,,,,,,2.2,1.3,1.8,1*29
$GPGSV,2,1,06,01,15,255,48,08,73,299,55,10,56,076,55,16,27,182,50,1*6B
$GPGSV,2,2,06,21,45,263,53,23,27,048,50,,,,,,,,,1*6C
$GPRMC,000039.00,A,4852.4669109,N,00217.5808847,E,0.80,0.00,180502,0.0,E,A*3D
$GPGGA,000039.00,4852.4669109,N,00217.5808847,E,1,06,1.0,-7.814,M,0.000,M,0.0,*5C
$GPGSA,A,3,01,08,10,16,21,23,,,,,,,2.2,1.3,1.8,1*29
$GPGSV,2,1,06,01,15,255,48,08,73,299,56,10,56,076,54,16,27,182,50,1*69
$GPGSV,2,2,06,21,45,263,52,23,27,048,52,,,,,,,,,1*6F
$GPRMC,000040.00,A,4852.4669723,N,00217.5787090,E,1.61,0.00,180502,0.0,E,A*39
$GPGGA,000040.00,4852.4669723,N,00217.5787090,E,1,06,1.0,-7.054,M,0.000,M,0.0,*5A
$GPGSA,A,3,01,08,10,16,21,23,,,,,,,2.2,1.3,1.8,1*29
$GPGSV,2,1,06,01,15,255,48,08,73,299,57,10,56,076,55,16,27,182,50,1*69
$GPGSV,2,2,06,21,45,263,52,23,27,048,50,,,,,,,,,1*6D
$GPRMC,000041.00,A,4852.4665695,N,00217.5803625,E,0.52,0.00,180502,0.0,E,A*32
$GPGGA,000041.00,4852.4665695,N,00217.5803625,E,1,06,1.0,-10.909,M,0.000,M,0.0,*67
$GPGSA,A,3,01,08,10,16,21,23,,,,,,,2.2,1.3,1.8,1*29
$GPGSV,2,1,06,01,15,255,47,08,73,299,55,10,56,076,54,16,27,182,50,1*65
$GPGSV,2,2,06,21,45,263,54,23,27,048,50,,,,,,,,,1*6B
$GPRMC,000042.00,A,4852.4658106,N,00217.5820827,E,0.85,0.00,180502,0.0,E,A*35
$GPGGA,000042.00,4852.4658106,N,00217.5820827,E,1,06,1.0,-14.024,M,0.000,M,0.0,*68
$GPGSA,A,3,01,08,10,16,21,23,,,,,,,2.2,1.3,1.8,1*29
$GPGSV,2,1,06,01,15,255,49,08,73,299,57,10,56,076,54,16,27,182,50,1*69
$GPGSV,2,2,06,21,45,263,53,23,27,048,50,,,,,,,,,1*6C
$GPRMC,000043.00,A,4852.4667966,N,00217.5812372,E,0.96,0.00,180502,0.0,E,A*3E
$GPGGA,000043.00,4852.4667966,N,00217.5812372,E,1,06,1.0,-16.881,M,0.000,M,0.0,*64
$GPGSA,A,3,01,08,10,16,21,23,,,,,,,2.2,1.3,1.8,1*29
$GPGSV,2,1,06,01,15,255,47,08,73,299,56,10,56,076,54,16,27,182,48,1*6F
$GPGSV,2,2,06,21,45,263,54,23,27,048,52,,,,,,,,,1*69
$GPRMC,000044.00,A,4852.4663503,N,00217.5806360,E,0.68,0.00,180502,0.0,E,A*35
$GPGGA,000044.00,4852.4663503,N,00217.5806360,E,1,06,1.0,-13.122,M,0.000,M,0.0,*6B
$GPGSA,A,3,01,08,10,16,21,23,,,,,,,2.2,1.3,1.8,1*29
$GPGSV,2,1,06,01,15,255,49,08,73,299,58,10,56,076,56,16,27,182,48,1*6D
$GPGSV,2,2,06,21,45,263,52,23,27,048,51,,,,,,,,,1*6C
$GPRMC,000045.00,A,4852.4663965,N,00217.5802138,E,0.41,0.00,180502,0.0,E,A*38
$GPGGA,000045.00,4852.4663965,N,00217.5802138,E,1,06,1.0,-10.360,M,0.000,M,0.0,*6A
$GPGSA,A,3,01,08,10,16,21,23,,,,,,,2.2,1.3,1.8,1*29
$GPGSV,2,1,06,01,15,255,48,08,73,299,57,10,56,076,56,16,27,182,48,1*63
$GPGSV,2,2,06,21,45,263,52,23,27,048,50,,,,,,,,,1*6D
$GPRMC,000046.00,A,4852.4672188,N,00217.5808335,E,0.46,0.00,180502,0.0,E,A*32
$GPGGA,000046.00,4852.4672188,N,00217.5808335,E,1,06,1.0,-11.115,M,0.000,M,0.0,*66
$GPGSA,A,3,01,08,10,16,21,23,,,,,,,2.2,1.3,1.8,1*29
$GPGSV,2,1,06,01,15,255,49,08,73,299,55,10,56,076,56,16,27,182,48,1*60
$GPGSV,2,2,06,21,45,263,51,23,27,048,50,,,,,,,,,1*6E
$GPRMC,000047.00,A,4852.4662302,N,00217.5796696,E,1.54,0.00,180502,0.0,E,A*34
$GPGGA,000047.00,4852.4662302,N,00217.5796696,E,1,06,1.0,-4.163,M,0.000,M,0.0,*57
$GPGSA,A,3,01,08,10,16,21,23,,,,,,,2.2,1.3,1.8,1*29
$GPGSV,2,1,06,01,15,255,50,08,73,299,57,10,56,076,58,16,27,182,49,1*65
$GPGSV,2,2,06,21,45,263,52,23,27,048,52,,,,,,,,,1*6F
$GPRMC,000048.00,A,4852.4673182,N,00217.5779564,E,1.33,0.00,180502,0.0,E,A*3F
$GPGGA,000048.00,4852.4673182,N,00217.5779564,E,1,06,1.0,-2.646,M,0.000,M,0.0,*5B
$GPGSA,A,3,01,08,10,16,21,23,,,,,,,2.2,1.3,1.8,1*29
$GPGSV,2,1,06,01,15,255,50,08,73,299,57,10,56,076,55,16,27,182,50,1*60
$GPGSV,2,2,06,21,45,263,54,23,27,048,49,,,,,,,,,1*63
$GPRMC,000049.00,A,4852.4672530,N,00217.5791391,E,1.43,0.00,180502,0.0,E,A*3F
$GPGGA,000049.00,4852.4672530,N,00217.5791391,E,1,06,1.0,-5.463,M,0.000,M,0.0,*5E
$GPGSA,A,3,01,08,10,16,21,23,,,,,,,2.2,1.3,1.8,1*29
$GPGSV,2,1,06,01,15,255,49,08,73,299,57,10,56,076,54,16,27,182,49,1*61
$GPGSV,2,2,06,21,45,263,51,23,27,048,50,,,,,,,,,1*6E
$GPRMC,000050.00,A,4852.4658301,N,00217.5809952,E,1.13,0.00,180502,0.0,E,A*35
$GPGGA,000050.00,4852.4658301,N,00217.5809952,E,1,06,1.0,-6.844,M,0.000,M,0.0,*5B
$GPGSA,A,3,01,08,10,16,21,23,,,,,,,2.2,1.3,1.8,1*29
$GPGSV,2,1,06,01,15,255,49,08,73,299,56,10,56,076,55,16,27,182,51,1*68
$GPGSV,2,2,06,21,45,263,52,23,27,048,51,,,,,,,,,1*6C
$GPRMC,000051.00,A,4852.4671726,N,00217.5807607,E,1.18,0.00,180502,0.0,E,A*34
$GPGGA,000051.00,4852.4671726,N,00217.5807607,E,1,06,1.0,-9.595,M,0.000,M,0.0,*5F
$GPGSA,A,3,01,08,10,16,21,23,,,,,,,2.2,1.3,1.8,1*29
$GPGSV,2,1,06,01,15,255,49,08,73,299,57,10,56,076,55,16,27,182,52,1*6A
$GPGSV,2,2,06,21,45,263,54,23,27,048,53,,,,,,,,,1*68
$GPRMC,000052.00,A,4852.4667891,N,00217.5797239,E,1.97,136.90,180502,0.0,E,A*36
$GPGGA,000052.00,4852.4667891,N,00217.5797239,E,1,06,1.0,-10.236,M,0.000,M,0.0,*61
$GPGSA,A,3,01,08,10,16,21,23,,,,,,,2.2,1.3,1.8,1*29
$GPGSV,2,1,06,01,15,255,48,08,73,299,56,10,56,076,56,16,27,182,49,1*63
$GPGSV,2,2,06,21,45,263,54,23,27,048,51,,,,,,,,,1*6A
$GPRMC,000053.00,A,4852.4661845,N,00217.5818610,E,1.41,136.90,180502,0.0,E,A*34
$GPGGA,000053.00,4852.4661845,N,00217.5818610,E,1,06,1.0,-15.879,M,0.000,M,0.0,*6C
$GPGSA,A,3,01,08,10,16,21,23,,,,,,,2.2,1.3,1.8,1*29
$GPGSV,2,1,06,01,15,255,48,08,73,299,57,10,56,076,56,16,27,182,49,1*62
$GPGSV,2,2,06,21,45,263,52,23,27,048,49,,,,,,,,,1*65
$GPRMC,000054.00,A,4852.4662717,N,00217.5830211,E,0.43,136.90,180502,0.0,E,A*34
$GPGGA,000054.00,4852.4662717,N,00217.5830211,E,1,06,1.0,-15.768,M,0.000,M,0.0,*60
$GPGSA,A,3,01,08,10,16,21,23,,,,,,,2.2,1.3,1.8,1*29
$GPGSV,2,1,06,01,15,255,49,08,73,299,57,10,56,076,55,16,27,182,50,1*68
$GPGSV,2,2,06,21,45,263,53,23,27,048,49,,,,,,,,,1*64
$GPRMC,000055.00,A,4852.4663822,N,00217.5810495,E,0.52,136.90,180502,0.0,E,A*35
$GPGGA,000055.00,4852.4663822,N,00217.5810495,E,1,06,1.0,-12.194,M,0.000,M,0.0,*63
$GPGSA,A,3,01,08,10,16,21,23,,,,,,,2.2,1.3,1.8,1*29
$GPGSV,2,1,06,01,15,255,49,08,73,299,59,10,56,076,58,16,27,182,51,1*6A
$GPGSV,2,2,06,21,45,263,52,23,27,048,50,,,,,,,,,1*6D
$GPRMC,000056.00,A,4852.4665005,N,00217.5808857,E,1.23,136.90,180502,0.0,E,A*31
$GPGGA,000056.00,4852.4665005,N,00217.5808857,E,1,06,1.0,-11.053,M,0.000,M,0.0,*69
$GPGSA,A,3,01,08,10,16,21,23,,,,,,,2.2,1.3,1.8,1*29
$GPGSV,2,1,06,01,15,255,48,08,73,299,58,10,56,076,56,16,27,182,48,1*6C
$GPGSV,2,2,06,21,45,263,54,23,27,048,50,,,,,,,,,1*6B
$GPRMC,000057.00,A,4852.4662578,N,00217.5814059,E,1.86,136.90,180502,0.0,E,A*3C
$GPGGA,000057.00,4852.4662578,N,00217.5814059,E,1,06,1.0,-6.113,M,0.000,M,0.0,*58
$GPGSA,A,3,01,08,10,16,21,23,,,,,,,2.2,1.3,1.8,1*29
$GPGSV,2,1,06,01,16,255,50,08,73,299,57,10,56,076,55,16,27,182,50,1*63
$GPGSV,2,2,06,21,45,263,53,23,27,048,50,,,,,,,,,1*6C
$GPRMC,000058.00,A,4852.4667102,N,00217.5816984,E,1.12,136.90,180502,0.0,E,A*39
$GPGGA,000058.00,4852.4667102,N,00217.5816984,E,1,06,1.0,-5.218,M,0.000,M,0.0,*5B
$GPGSA,A,3,01,08,10,16,21,23,,,,,,,2.2,1.3,1.8,1*29
$GPGSV,2,1,06,01,16,255,48,08,73,299,57,10,56,076,56,16,27,182,51,1*68
$GPGSV,2,2,06,21,45,263,52,23,27,048,50,,,,,,,,,1*6D
$GPRMC,000059.00,A,4852.4667399,N,00217.5797532,E,0.89,136.90,180502,0.0,E,A*3C
$GPGGA,000059.00,4852.4667399,N,00217.5797532,E,1,06,1.0,-0.635,M,0.000,M,0.0,*53
$GPGSA,A,3,01,08,10,16,21,23,,,,,,,2.2,1.3,1.8,1*29
$GPGSV,2,1,06,01,16,255,50,08,73,299,57,10,56,076,57,16,26,182,52,1*62
$GPGSV,2,2,06,21,45,263,53,23,27,048,51,,,,,,,,,1*6D
$GPRMC,000100.00,A,4852.4668185,N,00217.5792587,E,0.66,136.90,180502,0.0,E,A*3B
$GPGGA,000100.00,4852.4668185,N,00217.5792587,E,1,06,1.0,0.260,M,0.000,M,0.0,*7C
$GPGSA,A,3,01,08,10,16,21,23,,,,,,,2.2,1.3,1.8,1*29
$GPGSV,2,1,06,01,16,255,49,08,73,299,56,10,56,076,57,16,26,182,50,1*69
$GPGSV,2,2,06,21,45,263,53,23,27,048,50,,,,,,,,,1*6C
$GPRMC,000101.00,A,4852.4665771,N,00217.5817007,E,0.63,136.90,180502,0.0,E,A*30
$GPGGA,000101.00,4852.4665771,N,00217.5817007,E,1,06,1.0,-4.790,M,0.000,M,0.0,*51
$GPGSA,A,3,01,08,10,16,21,23,,,,,,,2.2,1.3,1.8,1*29
$GPGSV,2,1,06,01,16,255,48,08,73,299,55,10,56,076,55,16,26,182,50,1*69
$GPGSV,2,2,06,21,45,263,52,23,27,048,51,,,,,,,,,1*6C
$GPRMC,000102.00,A,4852.4655889,N,00217.5811230,E,0.55,136.90,180502,0.0,E,A*3D
$GPGGA,000102.00,4852.4655889,N,00217.5811230,E,1,06,1.0,-5.524,M,0.000,M,0.0,*55
$GPGSA,A,3,01,08,10,16,21,23,,,,,,,2.2,1.3,1.8,1*29
$GPGSV,2,1,06,01,16,255,49,08,73,299,56,10,56,076,55,16,26,182,49,1*63
$GPGSV,2,2,06,21,45,263,53,23,27,048,50,,,,,,,,,1*6C
$GPRMC,000103.00,A,4852.4671116,N,00217.5809670,E,1.54,136.90,180502,0.0,E,A*3C
$GPGGA,000103.00,4852.4671116,N,00217.5809670,E,1,06,1.0,-8.947,M,0.000,M,0.0,*50
$GPGSA,A,3,01,08,10,16,21,23,,,,,,,2.2,1.3,1.8,1*29
$GPGSV,2,1,06,01,16,255,48,08,73,299,56,10,56,076,56,16,26,182,50,1*69
$GPGSV,2,2,06,21,45,263,53,23,27,048,51,,,,,,,,,1*6D
$GPRMC,000104.00,A,4852.4663610,N,00217.5814685,E,1.60,136.90,180502,0.0,E,A*38
$GPGGA,000104.00,4852.4663610,N,00217.5814685,E,1,06,1.0,-9.838,M,0.000,M,0.0,*5B
$GPGSA,A,3,01,08,10,16,21,23,,,,,,,2.2,1.3,1.8,1*29
$GPGSV,2,1,06,01,16,255,47,08,73,299,58,10,56,076,56,16,26,182,50,1*68
$GPGSV,2,2,06,21,45,263,54,23,27,048,50,,,,,,,,,1*6B
$GPRMC,000105.00,A,4852.4656510,N,00217.5829052,E,2.02,353.10,180502,0.0,E,A*30
$GPGGA,000105.00,4852.4656510,N,00217.5829052,E,1,06,1.0,-13.270,M,0.000,M,0.0,*60
$GPGSA,A,3,01,08,10,16,21,23,,,,,,,2.2,1.3,1.8,1*29
$GPGSV,2,1,06,01,16,255,48,08,73,299,58,10,56,076,55,16,26,182,50,1*64
$GPGSV,2,2,06,21,45,263,53,23,27,048,50,,,,,,,,,1*6C
$GPRMC,000106.00,A,4852.4668644,N,00217.5825864,E,1.16,353.10,180502,0.0,E,A*3B
$GPGGA,000106.00,4852.4668644,N,00217.5825864,E,1,06,1.0,-18.084,M,0.000,M,0.0,*6F
$GPGSA,A,3,01,08,10,16,21,23,,,,,,,2.2,1.3,1.8,1*29
$GPGSV,2,1,06,01,16,255,48,08,73,299,56,10,56,076,55,16,26,182,51,1*6B
$GPGSV,2,2,06,21,45,263,53,23,27,048,50,,,,,,,,,1*6C
$GPRMC,000107.00,A,4852.4662324,N,00217.5809445,E,0.90,353.10,180502,0.0,E,A*3D
$GPGGA,000107.00,4852.4662324,N,00217.5809445,E,1,06,1.0,-11.590,M,0.000,M,0.0,*6F
$GPGSA,A,3,01,08,10,16,21,23,,,,,,,2.2,1.3,1.8,1*29
$GPGSV,2,1,06,01,16,255,47,08,73,299,56,10,56,076,54,16,26,182,50,1*64
$GPGSV,2,2,06,21,45,263,51,23,27,048,51,,,,,,,,,1*6F
$GPRMC,000108.00,A,4852.4656331,N,00217.5827070,E,9.94,113.09,180502,0.0,E,A*3C
$GPGGA,000108.00,4852.4656331,N,00217.5827070,E,1,06,1.0,-11.771,M,0.000,M,0.0,*60
$GPGSA,A,3,01,08,10,16,21,23,,,,,,,2.2,1.3,1.8,1*29
$GPGSV,2,1,06,01,16,255,46,08,73,299,57,10,56,076,55,16,26,182,51,1*64
$GPGSV,2,2,06,21,45,263,51,23,27,048,52,,,,,,,,,1*6C
$GPRMC,000109.00,A,4852.4642531,N,00217.5886754,E,33.57,116.97,180502,0.0,E,A*00
$GPGGA,000109.00,4852.4642531,N,00217.5886754,E,1,06,1.0,-2.643,M,0.000,M,0.0,*5A
$GPGSA,A,3,01,08,10,16,21,23,,,,,,,2.2,1.3,1.8,1*29
$GPGSV,2,1,06,01,16,255,38,08,73,299,59,10,56,076,52,16,26,182,51,1*64
$GPGSV,2,2,06,21,45,263,42,23,27,048,54,,,,,,,,,1*68
$GPRMC,000110.00,A,4852.4629986,N,00217.5962191,E,25.26,109.08,180502,0.0,E,A*08
$GPGGA,000110.00,4852.4629986,N,00217.5962191,E,1,06,1.0,-11.584,M,0.000,M,0.0,*61
$GPGSA,A,3,01,08,10,16,21,23,,,,,,,2.2,1.3,1.8,1*29
$GPGSV,2,1,06,01,16,255,50,08,73,299,57,10,56,076,44,16,26,182,41,1*62
$GPGSV,2,2,06,21,45,263,51,23,27,048,46,,,,,,,,,1*69
$GPRMC,000111.00,A,4852.4411765,N,00217.6108513,E,34.04,110.46,180502,0.0,E,A*08
$GPGGA,000111.00,4852.4411765,N,00217.6108513,E,1,06,1.0,10.622,M,0.000,M,0.0,*40
$GPGSA,A,3,01,08,10,16,21,23,,,,,,,2.2,1.3,1.8,1*29
$GPGSV,2,1,06,01,16,255,53,08,73,299,48,10,56,076,53,16,26,182,32,1*6D
$GPGSV,2,2,06,21,45,263,59,23,27,048,34,,,,,,,,,1*64
$GPRMC,000112.00,A,4852.4544868,N,00217.6203582,E,32.74,115.64,180502,0.0,E,A*0C
$GPGGA,000112.00,4852.4544868,N,00217.6203582,E,1,06,1.0,-4.547,M,0.000,M,0.0,*58
$GPGSA,A,3,01,08,10,16,21,23,,,,,,,2.2,1.3,1.8,1*29
$GPGSV,2,1,06,01,16,255,50,08,73,299,44,10,56,076,57,16,26,182,47,1*64
$GPGSV,2,2,06,21,45,263,60,23,27,048,46,,,,,,,,,1*6B
$GPRMC,000113.00,A,4852.4494636,N,00217.6354397,E,31.35,115.20,180502,0.0,E,A*03
$GPGGA,000113.00,4852.4494636,N,00217.6354397,E,1,06,1.0,2.026,M,0.000,M,0.0,*78
$GPGSA,A,3,01,08,10,16,21,23,,,,,,,2.2,1.3,1.8,1*29
$GPGSV,2,1,06,01,16,255,46,08,73,299,46,10,56,076,54,16,26,182,46,1*63
$GPGSV,2,2,06,21,45,263,52,23,27,048,47,,,,,,,,,1*6B
$GPRMC,000114.00,A,4852.4434968,N,00217.6457675,E,23.88,117.97,180502,0.0,E,A*0C
$GPGGA,000114.00,4852.4434968,N,00217.6457675,E,1,06,1.0,-1.202,M,0.000,M,0.0,*56
$GPGSA,A,3,01,08,10,16,21,23,,,,,,,2.2,1.3,1.8,1*29
$GPGSV,2,1,06,01,16,255,43,08,73,299,36,10,56,076,50,16,26,182,43,1*60
$GPGSV,2,2,06,21,45,263,47,23,27,048,43,,,,,,,,,1*6B
$GPRMC,000115.00,A,4852.4455979,N,00217.6531745,E,52.35,132.32,180502,0.0,E,A*01
$GPGGA,000115.00,4852.4455979,N,00217.6531745,E,1,06,1.0,-22.298,M,0.000,M,0.0,*61
$GPGSA,A,3,01,08,10,16,21,23,,,,,,,2.2,1.3,1.8,1*29
$GPGSV,2,1,06,01,16,255,38,08,73,299,38,10,56,076,44,16,26,182,38,1*6B
$GPGSV,2,2,06,21,45,263,43,23,27,048,38,,,,,,,,,1*63
$GPRMC,000116.00,A,4852.4433479,N,00217.6534939,E,41.97,115.16,180502,0.0,E,A*06
$GPGGA,000116.00,4852.4433479,N,00217.6534939,E,1,06,1.0,-19.031,M,0.000,M,0.0,*66
$GPGSA,A,3,01,08,10,16,21,23,,,,,,,2.2,1.3,1.8,1*29
$GPGSV,2,1,06,01,16,255,36,08,73,298,40,10,56,076,40,16,26,182,35,1*62
$GPGSV,2,2,06,21,45,263,40,23,27,048,35,,,,,,,,,1*6D
$GPRMC,000117.00,A,4852.4429186,N,00217.6575920,E,108.86,112.49,180502,0.0,E,A*35
$GPGGA,000117.00,4852.4429186,N,00217.6575920,E,1,06,1.0,-3.958,M,0.000,M,0.0,*59
$GPGSA,A,3,01,08,10,16,21,23,,,,,,,2.2,1.3,1.8,1*29
$GPGSV,2,1,06,01,16,255,34,08,73,298,54,10,56,076,35,16,26,182,34,1*66
$GPGSV,2,2,06,21,45,263,35,23,27,048,34,,,,,,,,,1*6E
$GPRMC,000118.00,A,4852.4422245,N,00217.6601849,E,111.01,110.91,180502,0.0,E,A*33
$GPGGA,000118.00,4852.4422245,N,00217.6601849,E,1,06,1.0,-11.009,M,0.000,M,0.0,*61
$GPGSA,A,3,01,08,10,16,21,23,,,,,,,2.2,1.3,1.8,1*29
$GPGSV,2,1,06,01,16,255,34,08,73,298,52,10,56,076,34,16,26,182,34,1*61
$GPGSV,2,2,06,21,45,263,34,23,27,048,34,,,,,,,,,1*6F
$GPRMC,000119.00,A,4852.4381544,N,00217.6704030,E,15.94,110.64,180502,0.0,E,A*0B
$GPGGA,000119.00,4852.4381544,N,00217.6704030,E,1,05,1.0,-15.018,M,0.000,M,0.0,*6D
$GPGSA,A,3,01,10,16,21,23,,,,,,,,2.8,1.3,2.4,1*24
$GPGSV,2,1,05,01,16,255,34,10,56,076,34,16,26,182,34,21,45,263,34,1*68
$GPGSV,2,2,05,23,27,048,34,,,,,,,,,,,,,1*5E
$GPRMC,000120.00,A,4852.4372440,N,00217.6768564,E,14.27,123.38,180502,0.0,E,A*06
$GPGGA,000120.00,4852.4372440,N,00217.6768564,E,1,05,1.0,-22.483,M,0.000,M,0.0,*62
$GPGSA,A,3,01,10,16,21,23,,,,,,,,2.8,1.3,2.4,1*24
$GPGSV,2,1,05,01,16,255,34,10,56,076,34,16,26,182,34,21,45,263,34,1*68
$GPGSV,2,2,05,23,27,048,34,,,,,,,,,,,,,1*5E
$GPRMC,000121.00,A,4852.4344184,N,00217.6785777,E,19.07,121.23,180502,0.0,E,A*0B
$GPGGA,000121.00,4852.4344184,N,00217.6785777,E,1,05,1.0,-10.655,M,0.000,M,0.0,*60
$GPGSA,A,3,01,10,16,21,23,,,,,,,,2.8,1.3,2.4,1*24
$GPGSV,2,1,05,01,16,255,34,10,56,076,36,16,26,182,34,21,45,263,36,1*68
$GPGSV,2,2,05,23,27,048,34,,,,,,,,,,,,,1*5E
$GPRMC,000122.00,A,4852.4336892,N,00217.6845931,E,18.30,129.45,180502,0.0,E,A*01
$GPGGA,000122.00,4852.4336892,N,00217.6845931,E,1,05,1.0,-4.341,M,0.000,M,0.0,*52
$GPGSA,A,3,01,10,16,21,23,,,,,,,,2.8,1.3,2.4,1*24
$GPGSV,2,1,05,01,16,255,34,10,56,076,36,16,26,182,34,21,45,263,36,1*68
$GPGSV,2,2,05,23,27,048,34,,,,,,,,,,,,,1*5E
$GPRMC,000123.00,A,4852.4323151,N,00217.6933005,E,20.26,121.55,180502,0.0,E,A*09
$GPGGA,000123.00,4852.4323151,N,00217.6933005,E,1,05,1.0,-16.619,M,0.000,M,0.0,*64
$GPGSA,A,3,01,10,16,21,23,,,,,,,,2.8,1.3,2.4,1*24
$GPGSV,2,1,05,01,16,255,35,10,56,076,40,16,26,182,36,21,45,263,38,1*64
$GPGSV,2,2,05,23,27,048,35,,,,,,,,,,,,,1*5F
