     2.11           OBSERVATION DATA    G                   RINEX VERSION / TYPE
BLANK OR G = GPS,  R = GLONASS,  E = GALILEO,  M = MIXED    COMMENT             
GNSS-SDR            joel                17-APR-25 07:30     PGM / RUN BY / DATE 
GPS OBSERVATION DATA FILE GENERATED BY GNSS-SDR             COMMENT             
GNSS-SDR VERSION 0.0.16                                     COMMENT             
See https://gnss-sdr.org                                    COMMENT             
DEFAULT MARKER NAME                                         MARKER NAME         
joel                CTTC                                    OBSERVER / AGENCY   
GNSS-SDR            Software Receiver   0.0.16              REC # / TYPE / VERS 
Antenna number      Antenna type                            ANT # / TYPE        
        0.0000        0.0000        0.0000                  APPROX POSITION XYZ 
        0.0000        0.0000        0.0000                  ANTENNA: DELTA H/E/N
     1     1                                                WAVELENGTH FACT L1/2
     4    C1    L1    D1    S1                              # / TYPES OF OBSERV 
  2002    05    18    00    00   42.5000000     GPS         TIME OF FIRST OBS   
    18                                                      LEAP SECONDS        
                                                            END OF HEADER       
 02  5 18 00 00 43.0000000  0  7G01G23G10G16G21G07G08                           
  23763590.557 7 124878512.381 7      3399.697 7        46.684                  
  23001127.174 8 120871735.352 8     -2818.484 8        49.979                  
  21313658.664 9 112004036.667 9      -798.335 9        54.380                  
  23471245.193 8 123342232.695 8     -3662.994 8        49.405                  
  21783585.520 8 114473506.344 8      1786.636 8        53.258                  
  24961618.612 7 131174189.514 7     -1906.858 7        45.633                  
  20445704.806 9 107442916.360 9       868.249 9        55.798                  
 02  5 18 00 00 44.0000000  0  7G01G23G10G16G21G07G08                           
  23762945.610 7 124875115.259 7      3394.653 7        46.771                  
  23001664.817 8 120874554.620 8     -2818.305 8        50.206                  
  21313811.211 8 112004835.024 8      -799.527 8        53.912                  
  23471943.872 8 123345896.470 8     -3663.426 8        50.487                  
  21783249.386 9 114471719.133 9      1786.415 9        54.224                  
  24961982.032 7 131176094.041 7     -1909.812 7        46.108                  
  20445541.823 9 107442048.516 9       867.789 9        56.826                  
 02  5 18 00 00 45.0000000  0  7G01G23G10G16G21G07G08                           
  23762299.002 7 124871718.311 7      3394.043 7        47.506                  
  23002198.975 8 120877374.250 8     -2818.289 8        51.033                  
  21313963.044 9 112005634.022 9      -798.032 9        54.604                  
  23472640.764 8 123349560.442 8     -3662.073 8        50.282                  
  21782906.712 8 114469932.232 8      1786.910 8        53.224                  
  24962342.700 7 131177998.923 7     -1904.897 7        46.789                  
  20445380.198 9 107441181.149 9       867.250 9        57.369                  
 02  5 18 00 00 46.0000000  0  7G01G23G10G16G21G07G08                           
  23761651.178 8 124868321.515 8      3395.471 8        48.416                  
  23002736.529 8 120880194.292 8     -2822.643 8        50.577                  
  21314115.253 9 112006433.619 9      -799.383 9        54.144                  
  23473337.638 8 123353224.599 8     -3665.614 8        49.299                  
  21782563.537 8 114468145.641 8      1786.830 8        53.635                  
  24962709.069 7 131179904.164 7     -1905.457 7        45.006                  
  20445215.677 9 107440314.259 9       866.660 9        56.301                  
 02  5 18 00 00 47.0000000  0  7G01G23G10G16G21G07G08                           
  23761005.713 7 124864924.872 7      3392.840 7        47.627                  
  23003272.582 8 120883014.723 8     -2822.780 8        49.776                  
  21314268.462 8 112007233.812 8      -801.047 8        53.803                  
  23474035.637 8 123356888.951 8     -3665.565 8        50.480                  
  21782227.278 8 114466359.352 8      1785.611 8        52.246                  
  24963068.469 7 131181809.745 7     -1907.411 7        45.937                  
  20445048.388 9 107439447.823 9       865.979 9        55.631                  
 02  5 18 00 00 48.0000000  0  7G01G23G10G16G21G07G08                           
  23760360.070 7 124861528.391 7      3396.518 7        47.348                  
  23003811.941 8 120885835.546 8     -2822.508 8        50.777                  
  21314420.241 9 112008034.612 9      -801.060 9        56.881                  
  23474732.958 8 123360553.505 8     -3664.553 8        50.438                  
  21781887.784 8 114464573.358 8      1785.159 8        52.281                  
  24963433.175 7 131183715.683 7     -1905.890 7        46.245                  
  20444880.991 9 107438581.862 9       864.952 9        57.923                  
 02  5 18 00 00 49.0000000  0  7G01G23G10G16G21G07G08                           
  23759712.085 8 124858132.070 8      3396.604 8        49.109                  
  23004345.849 8 120888656.780 8     -2821.148 8        49.430                  
  21314573.522 9 112008836.055 9      -802.225 9        57.280                  
  23475429.671 8 123364218.251 8     -3667.135 8        50.710                  
  21781545.575 8 114462787.662 8      1785.502 8        53.590                  
  24963795.095 7 131185621.983 7     -1907.314 7        46.818                  
  20444713.254 9 107437716.377 9       865.608 9        57.234                  
 02  5 18 00 00 50.0000000  0  7G01G23G10G16G21G07G08                           
  23759066.281 7 124854735.906 7      3396.990 7        47.099                  
  23004883.850 8 120891478.407 8     -2822.127 8        49.601                  
  21314726.105 9 112009638.095 9      -801.909 9        56.270                  
  23476128.386 8 123367883.173 8     -3665.728 8        48.834                  
  21781204.937 8 114461002.265 8      1787.111 8        53.307                  
  24964157.067 7 131187528.626 7     -1905.313 7        47.782                  
  20444545.267 9 107436851.361 9       864.885 9        58.655                  
 02  5 18 00 00 51.0000000  0  7G01G23G10G16G21G07G08                           
  23758421.549 7 124851339.921 7      3393.904 7        47.527                  
  23005422.261 8 120894300.419 8     -2821.813 8        49.856                  
  21314878.993 9 112010440.732 9      -802.743 9        54.758                  
  23476824.831 8 123371548.307 8     -3665.767 8        50.498                  
  21780869.393 8 114459217.167 8      1783.596 8        53.158                  
  24964522.918 7 131189435.629 7     -1906.596 7        47.332                  
  20444381.391 9 107435986.807 9       863.709 9        54.629                  
 02  5 18 00 00 52.0000000  0  7G01G23G10G16G21G07G08                           
  23757774.333 8 124847944.075 8      3397.190 8        48.306                  
  23005957.206 8 120897122.815 8     -2822.246 8        51.387                  
  21315031.952 9 112011243.989 9      -804.183 9        54.027                  
  23477522.170 8 123375213.640 8     -3666.343 8        49.675                  
  21780530.221 8 114457432.364 8      1784.978 8        51.520                  
  24964882.460 7 131191342.991 7     -1911.301 7        46.038                  
  20444219.229 9 107435122.730 9       864.520 9        56.363                  
 02  5 18 00 00 53.0000000  0  7G01G23G10G16G21G07G08                           
  23757127.170 7 124844548.402 7      3393.063 7        47.985                  
  23006496.958 8 120899945.603 8     -2823.607 8        49.657                  
  21315184.857 9 112012047.876 9      -805.068 9        55.024                  
  23478220.813 8 123378879.143 8     -3662.367 8        49.494                  
  21780186.153 8 114455647.858 8      1784.930 8        51.848                  
  24965249.383 7 131193250.699 7     -1908.637 7        46.796                  
  20444056.979 9 107434259.131 9       863.371 9        57.122                  
 02  5 18 00 00 54.0000000  0  7G01G23G10G16G21G07G08                           
  23756482.528 7 124841152.887 7      3394.703 7        46.978                  
  23007032.225 8 120902768.776 8     -2824.016 8        50.438                  
  21315338.173 9 112012852.360 9      -805.104 9        54.013                  
  23478916.865 8 123382544.856 8     -3666.088 8        50.115                  
  21779846.981 8 114453863.667 8      1783.999 8        53.864                  
  24965609.104 7 131195158.759 7     -1906.379 7        46.830                  
  20443895.210 9 107433396.008 9       863.128 9        54.942                  
 02  5 18 00 00 55.0000000  0  7G01G23G10G16G21G07G08                           
  23755836.723 8 124837757.521 8      3394.966 8        48.817                  
  23007570.725 8 120905592.340 8     -2822.359 8        49.873                  
  21315491.203 9 112013657.441 9      -805.396 9        54.167                  
  23479614.686 8 123386210.755 8     -3667.159 8        49.607                  
  21779511.615 8 114452079.796 8      1782.432 8        53.359                  
  24965973.632 7 131197067.174 7     -1908.913 7        47.056                  
  20443734.175 9 107432533.338 9       862.160 9        56.864                  
 02  5 18 00 00 56.0000000  0  7G01G23G10G16G21G07G08                           
  23755189.239 7 124834362.326 7      3392.404 7        46.773                  
  23008107.922 8 120908416.322 8     -2824.768 8        51.900                  
  21315644.805 9 112014463.138 9      -806.163 9        54.591                  
  23480314.079 7 123389876.845 7     -3668.048 7        47.431                  
  21779171.568 9 114450296.209 9      1782.481 9        54.235                  
  24966337.589 7 131198975.942 7     -1904.840 7        46.367                  
  20443571.674 9 107431671.145 9       861.569 9        56.021                  
 02  5 18 00 00 57.0000000  0  7G01G23G10G16G21G07G08                           
  23754544.650 8 124830967.292 8      3395.845 8        48.707                  
  23008644.386 8 120911240.685 8     -2824.403 8        50.931                  
  21315798.336 9 112015269.470 9      -806.509 9        55.379                  
  23481009.506 7 123393543.124 7     -3663.732 7        47.421                  
  21778828.089 8 114448512.933 8      1784.772 8        51.744                  
  24966698.364 7 131200885.067 7     -1912.633 7        45.963                  
  20443405.295 9 107430809.429 9       861.553 9        58.264                  
 02  5 18 00 00 58.0000000  0  7G01G23G10G16G21G07G08                           
  23753898.202 8 124827572.410 8      3397.125 8        48.501                  
  23009182.940 8 120914065.446 8     -2825.137 8        50.080                  
  21315952.081 9 112016076.397 9      -806.607 9        55.503                  
  23481707.810 7 123397209.601 7     -3665.604 7        47.741                  
  21778490.329 8 114446729.946 8      1783.061 8        51.994                  
  24967065.037 7 131202794.535 7     -1911.458 7        45.919                  
  20443239.113 9 107429948.189 9       861.865 9        56.998                  
 02  5 18 00 00 59.0000000  0  7G01G23G10G16G21G07G08                           
  23753251.093 8 124824177.701 8      3395.361 8        49.095                  
  23009718.814 8 120916890.586 8     -2824.322 8        49.960                  
  21316105.969 9 112016883.921 9      -807.616 9        56.593                  
  23482406.274 8 123400876.275 8     -3666.557 8        48.521                  
  21778154.999 8 114444947.266 8      1782.948 8        50.760                  
  24967425.347 7 131204704.368 7     -1910.931 7        44.695                  
  20443072.681 9 107429087.403 9       860.775 9        55.324                  
 02  5 18 00 01  0.0000000  0  7G01G23G10G16G21G07G08                           
  23752605.825 8 124820783.142 8      3397.673 8        49.842                  
  23010258.709 8 120919716.103 8     -2826.592 8        51.591                  
  21316259.643 9 112017692.078 9      -807.977 9        57.439                  
  23483102.755 8 123404543.131 8     -3670.428 8        48.695                  
  21777813.522 8 114443164.873 8      1780.439 8        52.409                  
  24967791.162 7 131206614.536 7     -1908.935 7        46.980                  
  20442905.695 9 107428227.093 9       859.875 9        57.006                  
 02  5 18 00 01  1.0000000  0  7G01G23G10G16G21G07G08                           
  23751959.931 8 124817388.741 8      3396.174 8        50.108                  
  23010795.155 8 120922542.020 8     -2823.873 8        49.272                  
  21316414.138 9 112018500.852 9      -808.688 9        55.333                  
  23483801.166 8 123408210.186 8     -3665.098 8        49.378                  
  21777470.294 8 114441382.790 8      1782.212 8        53.967                  
  24968153.278 7 131208525.075 7     -1912.307 7        47.399                  
  20442740.425 9 107427367.259 9       859.801 9        56.642                  
 02  5 18 00 01  2.0000000  0  7G01G23G10G16G21G07G08                           
  23751313.162 8 124813994.510 8      3395.810 8        49.066                  
  23011333.263 8 120925368.329 8     -2824.886 8        50.200                  
  21316567.401 9 112019310.225 9      -810.839 9        54.343                  
  23484499.755 8 123411877.434 8     -3666.528 8        49.125                  
  21777134.696 8 114439600.991 8      1782.071 8        50.746                  
  24968517.806 7 131210435.945 7     -1912.136 7        45.639                  
  20442578.621 9 107426507.904 9       858.931 9        57.193                  
 02  5 18 00 01  3.0000000  0  7G01G23G10G16G21G07G08                           
  23750667.930 8 124810600.432 8      3396.393 8        48.961                  
  23011872.067 8 120928195.043 8     -2826.686 8        50.884                  
  21316721.039 9 112020120.192 9      -810.330 9        55.033                  
  23485196.004 8 123415544.857 8     -3666.905 8        51.016                  
  21776798.651 8 114437819.515 8      1781.650 8        51.973                  
  24968882.030 7 131212347.184 7     -1910.559 7        44.745                  
  20442416.942 9 107425649.000 9       858.104 9        55.570                  
 02  5 18 00 01  4.0000000  0  7G01G23G10G16G21G07G08                           
  23750023.180 8 124807206.508 8      3390.088 8        49.268                  
  23012407.602 8 120931022.149 8     -2826.598 8        53.064                  
  21316875.088 9 112020930.780 9      -810.881 9        54.674                  
  23485895.344 8 123419212.501 8     -3668.041 8        52.164                  
  21776456.387 9 114436038.350 9      1780.687 9        54.058                  
  24969242.842 7 131214258.774 7     -1910.282 7        45.142                  
  20442255.888 9 107424790.575 9       858.148 9        56.760                  
 02  5 18 00 01  5.0000000  0  7G01G23G10G16G21G07G08                           
  23749375.874 8 124803812.766 8      3389.047 8        48.138                  
  23012947.782 8 120933849.640 8     -2827.707 8        51.187                  
  21317028.833 9 112021741.999 9      -812.003 9        56.108                  
  23486593.469 8 123422880.316 8     -3666.010 8        49.209                  
  21776115.429 8 114434257.482 8      1779.827 8        53.745                  
  24969609.996 7 131216170.713 7     -1912.792 7        45.786                  
  20442094.638 9 107423932.625 9       858.151 9        56.298                  
 02  5 18 00 01  6.0000000  0  7G01G23G10G16G21G07G08                           
  23748729.552 8 124800419.169 8      3392.092 8        48.428                  
  23013485.032 8 120936677.498 8     -2827.004 8        48.881                  
  21317182.703 9 112022553.814 9      -812.129 9        56.325                  
  23487290.468 8 123426548.329 8     -3664.422 8        48.789                  
  21775779.938 8 114432476.913 8      1779.896 8        52.029                  
  24969970.879 7 131218082.992 7     -1910.493 7        46.428                  
  20441934.710 9 107423075.154 9       857.033 9        57.028                  
 02  5 18 00 01  7.0000000  0  7G01G23G10G16G21G07G08                           
  23748085.463 8 124797025.723 8      3392.592 8        49.178                  
  23014023.265 8 120939505.762 8     -2827.344 8        48.925                  
  21317336.662 9 112023366.226 9      -813.274 9        54.950                  
  23487989.665 8 123430216.541 8     -3668.268 8        50.151                  
  21775443.053 8 114430696.640 8      1779.829 8        52.922                  
  24970337.480 7 131219995.640 7     -1914.431 7        46.145                  
  20441772.817 9 107422218.146 9       856.574 9        57.068                  
 02  5 18 00 01  8.0000000  0  7G01G23G10G16G21G07G08                           
  23747438.568 8 124793632.467 8      3393.929 8        48.890                  
  23014562.427 8 120942334.417 8     -2828.539 8        49.934                  
  21317491.408 9 112024179.271 9      -813.296 9        57.848                  
  23488687.432 8 123433884.933 8     -3666.725 8        50.798                  
  21775100.897 8 114428916.669 8      1778.966 8        52.582                  
  24970700.025 8 131221908.639 8     -1914.163 8        48.190                  
  20441607.314 9 107421361.601 9       857.239 9        58.692                  
 02  5 18 00 01  9.0000000  0  7G01G23G10G16G21G07G08                           
  23746792.514 8 124790239.353 8      3391.219 8        48.026                  
  23015099.338 8 120945163.476 8     -2829.958 8        50.449                  
  21317645.475 9 112024992.930 9      -813.811 9        55.603                  
  23489384.413 8 123437553.528 8     -3667.219 8        48.443                  
  21774760.474 8 114427136.990 8      1780.313 8        53.915                  
  24971064.428 8 131223821.982 8     -1912.742 8        48.039                  
  20441442.580 9 107420505.537 9       855.923 9        57.488                  
 02  5 18 00 01 10.0000000  0  7G01G23G10G16G21G07G08                           
  23746148.782 8 124786846.394 8      3397.265 8        49.663                  
  23015639.429 8 120947992.930 8     -2828.597 8        50.120                  
  21317800.560 9 112025807.190 9      -814.380 9        54.981                  
  23490083.825 8 123441222.312 8     -3669.610 8        49.564                  
  21774425.126 8 114425357.613 8      1779.872 8        53.375                  
  24971429.742 8 131225735.682 8     -1914.151 8        48.427                  
  20441277.524 9 107419649.949 9       855.830 9        56.888                  
 02  5 18 00 01 11.0000000  0  7G01G23G10G16G21G07G08                           
  23745502.299 7 124783453.614 7      3393.349 7        47.541                  
  23016176.500 8 120950822.753 8     -2827.748 8        50.590                  
  21317955.342 9 112026622.045 9      -815.053 9        56.145                  
  23490781.896 8 123444891.279 8     -3669.680 8        50.921                  
  21774088.474 8 114423578.533 8      1779.056 8        51.791                  
  24971791.840 8 131227649.729 8     -1913.670 8        48.148                  
  20441111.842 9 107418794.837 9       854.969 9        57.310                  
 02  5 18 00 01 12.0000000  0  7G01G23G10G16G21G07G08                           
  23744855.905 8 124780060.977 8      3389.545 8        49.998                  
  23016715.734 8 120953652.963 8     -2829.950 8        50.663                  
  21318109.748 9 112027437.519 9      -816.640 9        57.108                  
  23491479.467 8 123448560.446 8     -3669.312 8        51.402                  
  21773745.228 8 114421799.764 8      1779.356 8        53.134                  
  24972158.744 7 131229564.130 7     -1918.454 7        47.876                  
  20440946.553 9 107417940.178 9       854.478 9        57.355                  
 02  5 18 00 01 13.0000000  0  7G01G23G10G16G21G07G08                           
  23744211.298 8 124776668.505 8      3391.713 8        48.968                  
  23017255.253 8 120956483.562 8     -2828.607 8        50.187                  
  21318266.030 9 112028253.629 9      -816.409 9        56.971                  
  23492178.503 8 123452229.792 8     -3669.395 8        50.376                  
  21773406.360 8 114420021.306 8      1778.243 8        52.767                  
  24972519.055 7 131231478.871 7     -1913.302 7        46.489                  
  20440784.410 9 107417085.995 9       854.124 9        56.040                  
 02  5 18 00 01 14.0000000  0  7G01G23G10G16G21G07G08                           
  23743565.815 8 124773276.202 8      3392.187 8        48.570                  
  23017792.396 8 120959314.566 8     -2830.583 8        50.850                  
  21318421.151 9 112029070.330 9      -816.833 9        54.918                  
  23492876.288 8 123455899.338 8     -3670.833 8        49.975                  
  21773072.709 8 114418243.155 8      1778.607 8        51.987                  
  24972887.372 7 131233393.973 7     -1915.975 7        46.570                  
  20440624.053 9 107416232.288 9       854.178 9        54.650                  
 02  5 18 00 01 15.0000000  0  7G01G23G10G16G21G07G08                           
  23742918.849 8 124769884.055 8      3390.615 8        48.704                  
  23018333.863 8 120962145.968 8     -2830.897 8        50.295                  
  21318576.290 9 112029887.629 9      -817.226 9        55.310                  
  23493573.984 8 123459569.079 8     -3669.918 8        49.044                  
  21772733.484 8 114416465.292 8      1778.187 8        52.841                  
  24973249.630 7 131235309.428 7     -1916.106 7        46.906                  
  20440463.822 9 107415379.060 9       853.195 9        55.708                  
 02  5 18 00 01 16.0000000  0  7G01G23G10G16G21G07G08                           
  23742273.813 8 124766492.061 8      3395.026 8        48.236                  
  23018869.988 8 120964977.752 8     -2831.743 8        50.733                  
  21318731.358 9 112030705.537 9      -818.504 9        55.978                  
  23494273.950 8 123463238.995 8     -3672.082 8        49.586                  
  21772392.310 8 114414687.739 8      1778.254 8        52.835                  
  24973615.820 7 131237225.229 7     -1915.940 7        46.185                  
  20440303.823 9 107414526.308 9       853.054 9        56.602                  
 02  5 18 00 01 17.0000000  0  7G01G23G10G16G21G07G08                           
  23741629.724 7 124763100.249 7      3388.895 7        46.925                  
  23019409.257 8 120967809.905 8     -2834.098 8        50.227                  
  21318887.979 9 112031524.086 9      -819.215 9        56.123                  
  23494971.199 8 123466909.115 8     -3670.897 8        50.234                  
  21772053.782 9 114412910.472 9      1777.477 9        54.417                  
  24973980.742 8 131239141.390 8     -1916.847 8        48.112                  
  20440143.252 9 107413674.011 9       852.010 9        57.662                  
 02  5 18 00 01 18.0000000  0  7G01G23G10G16G21G07G08                           
  23740983.956 7 124759708.579 7      3392.968 7        47.716                  
  23019949.169 8 120970642.452 8     -2830.600 8        49.602                  
  21319043.762 9 112032343.234 9      -820.193 9        55.372                  
  23495669.449 8 123470579.416 8     -3672.516 8        49.396                  
  21771719.292 8 114411133.520 8      1775.583 8        53.192                  
  24974342.553 7 131241057.889 7     -1914.785 7        47.695                  
  20439983.771 9 107412822.189 9       850.983 9        57.426                  
 02  5 18 00 01 19.0000000  0  7G01G23G10G16G21G07G08                           
  23740337.043 7 124756317.076 7      3392.729 7        47.748                  
  23020485.776 8 120973475.406 8     -2832.118 8        50.264                  
  21319200.973 9 112033162.975 9      -819.751 9        54.666                  
  23496368.503 8 123474249.912 8     -3669.739 8        50.748                  
  21771381.442 8 114409356.842 8      1774.968 8        52.676                  
  24974711.102 8 131242974.739 8     -1916.068 8        48.140                  
  20439822.217 9 107411970.844 9       850.792 9        56.586                  
 02  5 18 00 01 20.0000000  0  7G01G23G10G16G21G07G08                           
  23739693.776 7 124752925.979 7      3390.295 7        47.308                  
  23021027.333 8 120976308.645 8     -2831.651 8        50.788                  
  21319357.971 8 112033983.166 8      -819.472 8        53.410                  
  23497066.664 8 123477920.477 8     -3671.997 8        50.062                  
  21771039.554 8 114407580.690 8      1774.649 8        50.992                  
  24975072.378 7 131244892.276 7     -1918.155 7        47.209                  
  20439658.572 9 107411120.073 9       849.545 9        56.526                  
 02  5 18 00 01 21.0000000  0  7G01G23G10G16G21G07G08                           
  23739050.116 7 124749546.053 7      3371.634 7        47.415                  
  23021565.512 8 120979137.224 8     -2825.606 8        51.006                  
  21319513.503 9 112034797.411 9      -808.255 9        55.098                  
  23497763.573 8 123481585.839 8     -3661.065 8        50.621                  
  21770703.795 8 114405813.870 8      1759.527 8        51.509                  
  24975443.786 7 131246824.702 7     -1946.254 7        46.891                  
  20439496.036 9 107410274.107 9       841.534 9        56.364                  
 02  5 18 00 01 22.0000000  0  7G01G23G10G16G21G07G08                           
  23738407.671 7 124746184.991 7      3352.537 7        47.304                  
  23022101.743 8 120981957.677 8     -2818.281 8        51.649                  
  21319666.479 8 112035601.110 8      -798.653 8        53.741                  
  23498461.931 8 123485242.203 8     -3654.522 8        50.277                  
  21770374.254 8 114404062.683 8      1742.653 8        53.869                  
  24975813.120 7 131248782.129 7     -1971.018 7        46.119                  
  20439334.267 9 107409435.933 9       834.888 9        56.132                  
 02  5 18 00 01 23.0000000  0  7G01G23G10G16G21G07G08                           
  23737774.214 8 124742842.792 8      3334.716 8        48.319                  
  23022636.778 8 120984769.994 8     -2806.680 8        49.567                  
  21319817.455 9 112036394.222 9      -787.901 9        54.804                  
  23499154.266 8 123488889.556 8     -3640.514 8        49.425                  
  21770045.268 8 114402327.147 8      1728.519 8        52.279                  
  24976193.212 7 131250764.588 7     -1994.709 7        46.188                  
  20439173.946 9 107408605.557 9       826.454 9        56.710                  
 02  5 18 00 01 24.0000000  0  7G01G23G10G16G21G07G08                           
  23737141.079 8 124739514.608 8      3326.351 8        49.294                  
  23023171.097 8 120987576.399 8     -2807.254 8        50.764                  
  21319967.340 9 112037179.673 9      -784.892 9        56.697                  
  23499846.530 8 123492530.222 8     -3639.651 8        50.560                  
  21769713.619 8 114400603.280 8      1721.432 8        53.328                  
  24976571.035 7 131252765.698 7     -2003.983 7        45.353                  
  20439016.163 9 107407781.078 9       823.629 9        54.767                  
 02  5 18 00 01 25.0000000  0  7G01G23G10G16G21G07G08                           
  23736508.659 8 124736187.514 8      3326.641 8        48.082                  
  23023704.577 8 120990382.874 8     -2805.840 8        49.432                  
  21320116.814 9 112037965.191 9      -785.665 9        56.144                  
  23500541.402 8 123496170.440 8     -3640.704 8        49.542                  
  21769382.953 8 114398880.491 8      1723.356 8        53.947                  
  24976955.058 7 131254768.453 7     -2002.334 7        47.274                  
  20438857.790 9 107406957.449 9       823.094 9        56.127                  
 02  5 18 00 01 26.0000000  0  7G01G23G10G16G21G07G08                           
  23735874.291 8 124732859.735 8      3331.646 8        49.328                  
  23024239.129 8 120993190.633 8     -2808.673 8        51.427                  
  21320266.039 9 112038751.822 9      -788.459 9        57.603                  
  23501231.772 8 123499810.190 8     -3640.992 8        48.997                  
  21769056.235 9 114397157.422 9      1724.985 9        54.334                  
  24977333.381 7 131256770.985 7     -2001.371 7        46.571                  
  20438699.685 9 107406134.202 9       823.915 9        57.197                  
 02  5 18 00 01 27.0000000  0  7G01G23G10G16G21G07G08                           
  23735238.493 7 124729518.970 7      3351.494 7        47.769                  
  23024776.343 8 120996006.657 8     -2820.038 8        50.958                  
  21320417.443 9 112039546.857 9      -802.591 9        55.876                  
  23501925.805 7 123503452.628 7     -3644.302 7        47.651                  
  21768730.018 8 114395424.340 8      1742.601 8        52.436                  
  24977714.170 8 131258758.458 8     -1972.644 8        49.112                  
  20438542.169 9 107405307.145 9       831.513 9        56.725                  
 02  5 18 00 01 28.0000000  0  7G01G23G10G16G21G07G08                           
  23734599.890 7 124726154.964 7      3377.600 7        45.667                  
  23025312.217 8 120998836.972 8     -2837.976 8        51.965                  
  21320571.956 9 112040356.407 9      -816.548 9        54.920                  
  23502619.695 8 123507099.936 8     -3651.275 8        48.019                  
  21768397.815 9 114393673.180 9      1760.529 9        55.201                  
  24978082.880 8 131260718.843 8     -1949.965 8        50.169                  
  20438384.386 9 107404472.969 9       836.897 9        56.772                  
 02  5 18 00 01 29.0000000  0  7G01G23G10G16G21G07G08                           
  23733954.568 7 124722771.957 7      3387.733 7        46.957                  
  23025855.024 8 121001678.544 8     -2848.468 8        50.909                  
  21320728.328 9 112041177.944 9      -825.166 9        54.631                  
  23503313.763 8 123510752.417 8     -3650.318 8        49.745                  
  21768058.054 8 114391907.116 8      1769.854 8        53.835                  
  24978456.378 8 131262656.420 8     -1933.583 8        48.054                  
  20438226.638 9 107403632.788 9       839.984 9        57.495                  
 02  5 18 00 01 30.0000000  0  7G01G23G10G16G21G07G08                           
  23733308.513 8 124719377.936 8      3399.278 8        48.794                  
  23026398.993 8 121004535.573 8     -2868.973 8        50.039                  
  21320886.094 9 112042006.499 9      -832.964 9        55.542                  
  23504007.600 8 123514389.454 8     -3627.089 8        49.612                  
  21767718.989 8 114390134.675 8      1775.467 8        52.517                  
  24978821.174 7 131264590.098 7     -1933.531 7        46.215                  
  20438068.086 9 107402793.552 9       838.219 9        58.197                  
 02  5 18 00 01 31.0000000  0  7G01G23G10G16G21G07G08                           
  23732661.994 8 124715973.333 8      3406.125 8        49.499                  
  23026944.034 8 121007409.534 8     -2877.574 8        49.630                  
  21321045.021 8 112042841.732 8      -834.456 8        52.862                  
  23504694.878 8 123518007.418 8     -3615.923 8        51.225                  
  21767384.410 8 114388356.686 8      1778.054 8        52.171                  
  24979191.188 7 131266522.157 7     -1929.366 7        45.590                  
  20437910.410 9 107401956.238 9       835.720 9        55.919                  
 02  5 18 00 01 32.0000000  0  7G01G23G10G16G21G07G08                           
  23732014.010 8 124712573.502 8      3395.212 8        48.905                  
  23027492.720 8 121010281.450 8     -2870.626 8        50.791                  
  21321204.091 8 112043674.875 8      -832.882 8        52.237                  
  23505383.443 8 123521624.060 8     -3618.997 8        50.203                  
  21767048.597 9 114386582.684 9      1770.178 9        54.266                  
  24979557.807 7 131268460.208 7     -1943.535 7        44.923                  
  20437752.984 9 107401120.998 9       834.523 9        55.335                  
 02  5 18 00 01 33.0000000  0  7G01G23G10G16G21G07G08                           
  23731369.027 8 124709182.108 8      3383.934 8        50.173                  
  23028036.796 8 121013145.128 8     -2859.087 8        48.657                  
  21321361.999 8 112044503.842 8      -826.425 8        52.906                  
  23506071.561 8 123525247.102 8     -3625.279 8        49.795                  
  21766708.281 8 114384814.538 8      1766.101 8        52.401                  
  24979931.180 7 131270404.397 7     -1949.827 7        46.958                  
  20437595.647 9 107400287.083 9       833.055 9        56.575                  
 02  5 18 00 01 34.0000000  0  7G01G23G10G16G21G07G08                           
  23730725.671 8 124705799.373 8      3378.189 8        49.131                  
  23028579.139 8 121016000.979 8     -2850.078 8        51.122                  
  21321518.389 8 112045328.470 8      -821.741 8        52.357                  
  23506762.199 8 123528875.311 8     -3627.393 8        49.305                  
  21766371.200 8 114383052.564 8      1759.328 8        52.744                  
  24980299.246 7 131272355.600 7     -1951.128 7        46.946                  
  20437439.382 9 107399454.833 9       831.646 9        56.223                  
 02  5 18 00 01 35.0000000  0  7G01G23G10G16G21G07G08                           
  23730080.975 8 124702423.679 8      3370.790 8        48.024                  
  23029123.019 8 121018847.779 8     -2844.016 8        52.260                  
  21321673.760 9 112046149.811 9      -817.381 9        54.909                  
  23507456.536 8 123532513.645 8     -3641.466 8        48.699                  
  21766039.837 8 114381294.945 8      1753.810 8        52.672                  
  24980672.941 8 131274309.637 8     -1959.788 8        48.103                  
  20437282.600 9 107398622.672 9       830.424 9        57.644                  
 02  5 18 00 01 36.0000000  0  7G01G23G10G16G21G07G08                           
  23729440.781 8 124699057.490 8      3362.983 8        48.320                  
  23029662.127 8 121021686.985 8     -2834.950 8        51.753                  
  21321828.041 9 112046966.277 9      -815.976 9        54.130                  
  23508150.032 8 123536155.399 8     -3646.778 8        49.716                  
  21765709.492 8 114379544.365 8      1747.288 8        50.629                  
  24981044.527 7 131276272.454 7     -1966.565 7        47.118                  
  20437124.548 9 107397792.830 9       829.199 9        54.219                  
 02  5 18 00 01 37.0000000  0  7G01G23G10G16G21G07G08                           
  23728805.627 7 124695699.054 7      3355.645 7        47.438                  
  23030201.343 8 121024518.684 8     -2826.050 8        50.909                  
  21321983.055 9 112047778.963 9      -810.106 9        55.303                  
  23508840.956 8 123539803.016 8     -3649.670 8        49.128                  
  21765375.574 8 114377799.186 8      1742.750 8        52.273                  
  24981420.706 7 131278240.905 7     -1970.694 7        46.353                  
  20436965.460 9 107396964.242 9       828.612 9        54.476                  
 02  5 18 00 01 38.0000000  0  7G01G23G10G16G21G07G08                           
  23728165.433 8 124692347.074 8      3348.135 8        48.507                  
  23030738.628 8 121027343.559 8     -2822.304 8        50.469                  
  21322136.443 9 112048588.620 9      -808.571 9        56.126                  
  23509537.240 8 123543456.892 8     -3657.027 8        49.400                  
  21765040.369 8 114376058.353 8      1738.709 8        53.586                  
  24981794.812 7 131280213.447 7     -1973.498 7        47.342                  
  20436806.640 9 107396136.452 9       827.463 9        55.845                  
 02  5 18 00 01 39.0000000  0  7G01G23G10G16G21G07G08                           
  23727529.546 8 124689000.352 8      3343.328 8        48.549                  
  23031273.466 8 121030161.947 8     -2815.419 8        49.931                  
  21322289.902 9 112049395.979 9      -806.789 9        55.986                  
  23510232.846 8 123547118.066 8     -3662.609 8        49.814                  
  21764711.347 8 114374320.866 8      1735.272 8        53.533                  
  24982172.134 7 131282188.315 7     -1973.774 7        47.871                  
  20436647.999 9 107395308.935 9       827.810 9        55.729                  
 02  5 18 00 01 40.0000000  0  7G01G23G10G16G21G07G08                           
  23726891.694 7 124685656.888 7      3342.923 7        47.339                  
  23031811.091 8 121032975.727 8     -2812.784 8        51.335                  
  21322443.897 9 112050202.196 9      -806.222 9        56.356                  
  23510933.419 8 123550785.418 8     -3672.057 8        51.896                  
  21764383.557 8 114372585.304 8      1735.871 8        53.351                  
  24982546.615 8 131284163.889 8     -1971.346 8        48.927                  
  20436489.429 9 107394481.338 9       828.479 9        56.569                  
 02  5 18 00 01 41.0000000  0  7G01G23G10G16G21G07G08                           
  23726255.181 8 124682313.476 8      3338.084 8        48.596                  
  23032344.321 8 121035786.151 8     -2803.236 8        49.511                  
  21322595.248 9 112051009.186 9      -804.589 9        58.016                  
  23511632.455 8 123554461.000 8     -3677.816 8        50.606                  
  21764053.999 8 114370848.994 8      1730.455 8        52.707                  
  24982922.633 7 131286135.723 7     -1976.736 7        47.745                  
  20436329.895 9 107393652.335 9       827.519 9        55.621                  
 02  5 18 00 01 42.0000000  0  7G01G23G10G16G21G07G08                           
  23725622.171 7 124678977.440 7      3330.225 7        47.180                  
  23032879.802 8 121038588.131 8     -2799.673 8        51.536                  
  21322749.136 9 112051812.614 9      -802.583 9        56.855                  
  23512334.547 8 123558144.939 8     -3687.530 8        51.041                  
  21763722.904 8 114369117.520 8      1731.623 8        53.489                  
  24983296.024 7 131288111.650 7     -1972.601 7        45.436                  
  20436170.485 9 107392823.923 9       829.073 9        56.159                  
 02  5 18 00 01 43.0000000  0  7G01G23G10G16G21G07G08                           
  23724987.320 8 124675643.312 8      3329.046 8        48.072                  
  23033410.208 8 121041385.638 8     -2793.871 8        50.646                  
  21322901.594 8 112052615.688 8      -800.838 8        52.478                  
  23513035.673 8 123561836.697 8     -3697.285 8        51.492                  
  21763389.021 8 114367386.758 8      1727.804 8        53.061                  
  24983675.544 7 131290086.048 7     -1974.696 7        45.854                  
  20436011.379 9 107391994.741 9       829.081 9        54.859                  
 02  5 18 00 01 44.0000000  0  7G01G23G10G16G21G07G08                           
  23724352.970 8 124672314.263 8      3331.382 8        49.060                  
  23033941.919 8 121044175.953 8     -2787.526 8        48.571                  
  21323054.249 8 112053416.551 8      -802.009 8        53.696                  
  23513740.624 8 123565537.474 8     -3704.681 8        49.978                  
  21763061.285 8 114365658.970 8      1729.041 8        52.828                  
  24984052.259 7 131292061.755 7     -1974.347 7        47.528                  
  20435851.184 9 107391165.352 9       829.487 9        56.919                  
 02  5 18 00 01 45.0000000  0  7G01G23G10G16G21G07G08                           
  23723719.602 8 124668984.122 8      3332.399 8        48.905                  
  23034472.807 8 121046965.187 8     -2791.038 8        48.819                  
  21323206.619 8 112054218.808 8      -803.011 8        53.037                  
  23514444.324 8 123569243.291 8     -3705.859 8        51.230                  
  21762736.712 8 114363929.972 8      1729.588 8        53.644                  
  24984426.365 7 131294034.070 7     -1974.026 7        46.221                  
  20435693.096 9 107390334.989 9       829.973 9        55.651                  
 02  5 18 00 01 46.0000000  0  7G01G23G10G16G21G07G08                           
  23723084.805 8 124665647.876 8      3341.480 8        48.514                  
  23035004.625 8 121049759.924 8     -2804.328 8        51.092                  
  21323359.792 9 112055025.347 9      -812.231 9        54.603                  
  23515149.079 8 123572947.645 8     -3696.051 8        49.769                  
  21762408.744 8 114362196.683 8      1738.944 8        51.759                  
  24984798.469 7 131296000.792 7     -1961.186 7        47.745                  
  20435536.242 9 107389503.741 9       831.947 9        54.526                  
 02  5 18 00 01 47.0000000  0  7G01G23G10G16G21G07G08                           
  23722446.917 7 124662292.030 7      3361.088 7        47.275                  
  23035541.661 8 121052576.833 8     -2826.306 8        51.578                  
  21323516.450 9 112055843.973 9      -822.436 9        55.060                  
  23515852.064 8 123576635.005 8     -3682.800 8        49.766                  
  21762073.289 8 114360450.693 8      1750.694 8        51.638                  
  24985172.933 7 131297955.111 7     -1953.401 7        46.093                  
  20435379.281 9 107388671.424 9       831.658 9        55.232                  
 02  5 18 00 01 48.0000000  0  7G01G23G10G16G21G07G08                           
  23721809.082 8 124658936.300 8      3347.205 8        48.984                  
  23036076.159 8 121055399.402 8     -2819.021 8        49.443                  
  21323671.731 9 112056663.138 9      -813.862 9        54.876                  
  23516550.635 8 123580311.522 8     -3668.791 8        48.528                  
  21761739.317 8 114358706.265 8      1736.566 8        53.659                  
  24985544.054 7 131299915.155 7     -1974.500 7        44.887                  
  20435222.105 8 107387842.075 8       826.152 8        53.879                  
 02  5 18 00 01 49.0000000  0  7G01G23G10G16G21G07G08                           
  23721171.748 7 124655598.084 7      3328.281 7        47.489                  
  23036614.803 8 121058216.467 8     -2814.870 8        50.567                  
  21323825.566 9 112057472.535 9      -803.891 9        56.374                  
  23517248.188 8 123583975.510 8     -3655.889 8        49.267                  
  21761410.188 8 114356976.847 8      1721.277 8        52.337                  
  24985923.878 7 131301900.477 7     -1994.216 7        46.272                  
  20435066.966 9 107387020.867 9       817.883 9        55.284                  
 02  5 18 00 01 50.0000000  0  7G01G23G10G16G21G07G08                           
  23720540.042 7 124652275.158 7      3322.832 7        47.084                  
  23037146.978 8 121061029.236 8     -2811.152 8        51.631                  
  21323977.989 9 112058273.461 9      -799.604 9        56.482                  
  23517944.062 8 123587627.569 8     -3648.251 8        49.029                  
  21761087.509 8 114355260.679 8      1712.596 8        52.816                  
  24986303.059 7 131303908.354 7     -2012.136 7        44.743                  
  20434912.899 9 107386207.009 9       812.854 9        56.886                  
 02  5 18 00 01 51.0000000  0  7G01G23G10G16G21G07G08                           
  23719908.980 7 124648955.128 7      3315.999 7        47.900                  
  23037685.854 8 121063842.267 8     -2813.169 8        50.336                  
  21324129.875 9 112059073.366 9      -799.488 9        54.362                  
  23518637.076 8 123591276.284 8     -3647.256 8        49.706                  
  21760762.596 8 114353547.268 8      1715.560 8        50.512                  
  24986687.815 7 131305921.240 7     -2014.096 7        45.080                  
  20434759.780 9 107385395.180 9       811.438 9        54.241                  
 02  5 18 00 01 52.0000000  0  7G01G23G10G16G21G07G08                           
  23719277.238 7 124645634.624 7      3322.629 7        47.503                  
  23038219.406 8 121066656.486 8     -2815.003 8        50.810                  
  21324282.209 8 112059874.266 8      -802.846 8        53.450                  
  23519332.074 8 123594924.339 8     -3647.877 8        49.100                  
  21760434.896 8 114351833.779 8      1714.356 8        52.732                  
  24987069.050 7 131307934.206 7     -2012.005 7        45.626                  
  20434605.963 9 107384583.821 9       811.004 9        54.367                  
 02  5 18 00 01 53.0000000  0  7G01G23G10G16G21G07G08                           
  23718641.709 7 124642304.694 7      3340.837 7        47.881                  
  23038756.977 8 121069477.025 8     -2826.410 8        51.462                  
  21324436.079 9 112060681.436 9      -813.142 9        54.651                  
  23520027.518 8 123598574.001 8     -3653.444 8        49.940                  
  21760103.891 9 114350113.116 9      1729.736 9        55.253                  
  24987453.610 7 131309936.498 7     -1985.273 7        46.910                  
  20434451.789 9 107383769.951 9       816.525 9        56.551                  
 02  5 18 00 01 54.0000000  0  7G01G23G10G16G21G07G08                           
  23718002.963 7 124638952.036 7      3363.305 7        47.816                  
  23039297.104 8 121072311.867 8     -2841.792 8        50.903                  
  21324593.398 9 112061502.813 9      -829.135 9        55.916                  
  23520721.176 8 123602227.781 8     -3655.695 8        52.671                  
  21759772.563 8 114348374.900 8      1747.169 8        53.811                  
  24987825.964 7 131311912.595 7     -1961.034 7        45.707                  
  20434296.096 9 107382949.326 9       824.539 9        56.912                  
 02  5 18 00 01 55.0000000  0  7G01G23G10G16G21G07G08                           
  23717363.162 8 124635575.819 8      3382.864 8        48.054                  
  23039836.552 8 121075160.923 8     -2854.416 8        50.548                  
  21324753.754 9 112062338.845 9      -842.237 9        56.359                  
  23521418.050 8 123605886.957 8     -3662.188 8        51.046                  
  21759441.790 8 114346618.321 8      1762.031 8        52.949                  
  24988200.213 7 131313860.944 7     -1935.702 7        46.640                  
  20434140.654 9 107382121.444 9       830.182 9        56.613                  
 02  5 18 00 01 56.0000000  0  7G01G23G10G16G21G07G08                           
  23716717.679 8 124632185.108 8      3398.873 8        48.234                  
  23040383.541 8 121078021.882 8     -2872.799 8        50.263                  
  21324915.487 9 112063184.127 9      -851.594 9        56.503                  
  23522114.567 8 123609543.381 8     -3646.603 8        49.206                  
  21759107.639 8 114344851.276 8      1772.744 8        51.183                  
  24988565.081 7 131315795.305 7     -1927.794 7        46.952                  
  20433984.353 9 107381290.663 9       830.007 9        55.879                  
 02  5 18 00 01 57.0000000  0  7G01G23G10G16G21G07G08                           
  23716066.800 8 124628772.778 8      3424.710 8        48.998                  
  23040931.905 8 121080907.592 8     -2897.720 8        51.583                  
  21325079.328 9 112064042.708 9      -865.242 9        55.735                  
  23522805.472 8 123613180.329 8     -3628.966 8        49.440                  
  21758764.929 8 114343070.337 8      1790.404 8        52.291                  
  24988934.005 7 131317716.247 7     -1913.813 7        47.657                  
  20433825.927 9 107380458.820 9       832.928 9        56.292                  
 02  5 18 00 01 58.0000000  0  7G01G23G10G16G21G07G08                           
  23715414.259 7 124625337.171 7      3443.785 7        47.869                  
  23041484.362 8 121083818.263 8     -2921.416 8        49.647                  
  21325245.724 9 112064915.652 9      -879.782 9        54.575                  
  23523494.252 8 123616799.821 8     -3612.337 8        48.816                  
  21758421.290 8 114341273.975 8      1804.525 8        53.057                  
  24989293.047 7 131319620.929 7     -1898.846 7        47.052                  
  20433665.713 9 107379624.974 9       835.270 9        57.360                  
 02  5 18 00 01 59.0000000  0  7G01G23G10G16G21G07G08                           
  23714757.233 8 124621885.699 8      3448.946 8        48.055                  
  23042042.340 8 121086743.245 8     -2925.716 8        49.522                  
  21325414.461 9 112065798.640 9      -884.674 9        56.789                  
  23524181.727 8 123620413.516 8     -3614.837 8        49.268                  
  21758082.118 8 114339466.448 8      1808.279 8        53.471                  
  24989649.748 7 131321511.627 7     -1882.596 7        45.178                  
  20433505.106 9 107378788.545 9       836.293 9        57.548                  
 02  5 18 00 02  0.0000000  0  7G01G23G10G16G21G07G08                           
  23714099.725 7 124618433.929 7      3444.698 7        47.748                  
  23042598.978 8 121089665.484 8     -2913.643 8        50.934                  
  21325579.607 9 112066682.559 9      -879.579 9        54.136                  
  23524871.453 8 123624034.613 8     -3631.292 8        49.579                  
  21757737.353 9 114337658.050 9      1804.565 9        54.540                  
  24990014.294 8 131323398.621 8     -1888.844 8        48.763                  
  20433343.999 9 107377950.826 9       837.404 9        57.131                  
 02  5 18 00 02  1.0000000  0  7G01G23G10G16G21G07G08                           
  23713445.933 8 124614993.096 8      3442.492 8        48.216                  
  23043149.612 8 121092573.177 8     -2908.117 8        49.067                  
  21325746.361 8 112067560.895 8      -880.552 8        51.363                  
  23525562.895 8 123627671.655 8     -3640.422 8        50.592                  
  21757389.961 8 114335856.259 8      1804.616 8        53.337                  
  24990371.317 7 131325289.808 7     -1884.925 7        47.405                  
  20433182.534 9 107377112.996 9       839.461 9        54.191                  
 02  5 18 00 02  2.0000000  0  7G01G23G10G16G21G07G08                           
  23712787.316 8 124611537.269 8      3465.732 8        48.867                  
  23043706.518 8 121095492.862 8     -2928.763 8        48.097                  
  21325914.615 9 112068448.785 9      -893.607 9        54.797                  
  23526254.408 8 123631306.538 8     -3632.838 8        49.804                  
  21757048.109 9 114334043.555 9      1817.697 9        55.042                  
  24990732.450 7 131327166.145 7     -1865.265 7        46.986                  
  20433020.856 9 107376271.986 9       843.103 9        56.970                  
 02  5 18 00 02  3.0000000  0  7G01G23G10G16G21G07G08                           
  23712128.896 8 124608071.412 8      3466.795 8        49.509                  
  23044264.317 8 121098418.898 8     -2927.887 8        49.283                  
  21326084.603 9 112069343.355 9      -896.711 9        55.508                  
  23526948.173 8 123634943.829 8     -3640.249 8        50.354                  
  21756704.166 8 114332223.146 8      1822.170 8        53.005                  
  24991084.398 7 131329030.785 7     -1860.916 7        47.198                  
  20432857.461 9 107375428.176 9       845.126 9        57.767                  
 02  5 18 00 02  4.0000000  0  7G01G23G10G16G21G07G08                           
  23711467.778 7 124604603.748 7      3468.614 7        47.559                  
  23044819.990 8 121101342.598 8     -2924.518 8        48.861                  
  21326257.450 8 112070239.749 8      -897.887 8        53.724                  
  23527640.526 8 123638589.788 8     -3649.876 8        50.644                  
  21756352.521 8 114330400.557 8      1821.014 8        51.524                  
  24991436.829 7 131330889.461 7     -1858.143 7        46.075                  
  20432695.872 9 107374582.399 9       847.780 9        57.089                  
 02  5 18 00 02  5.0000000  0  7G01G23G10G16G21G07G08                           
  23710807.804 7 124601135.582 7      3465.935 7        47.625                  
  23045374.627 8 121104262.333 8     -2919.710 8        49.516                  
  21326429.547 9 112071137.263 9      -897.754 9        55.134                  
  23528336.632 8 123642246.043 8     -3662.014 8        50.267                  
  21756006.130 8 114328576.596 8      1823.855 8        52.383                  
  24991792.548 7 131332742.816 7     -1853.107 7        44.708                  
  20432536.033 9 107373734.665 9       848.618 9        57.072                  
 02  5 18 00 02  6.0000000  0  7G01G23G10G16G21G07G08                           
  23710150.367 8 124597667.851 8      3466.888 8        48.395                  
  23045930.872 8 121107179.411 8     -2916.228 8        50.444                  
  21326601.197 9 112072035.254 9      -898.158 9        55.235                  
  23529034.614 8 123645908.472 8     -3664.094 8        50.796                  
  21755663.957 8 114326752.433 8      1823.000 8        53.683                  
  24992141.423 7 131334593.886 7     -1846.831 7        44.445                  
  20432376.141 9 107372886.133 9       847.992 9        55.865                  
 02  5 18 00 02  7.0000000  0  7G01G23G10G16G21G07G08                           
  23709487.623 8 124594200.820 8      3465.300 8        49.001                  
  23046484.383 8 121110094.544 8     -2915.623 8        48.898                  
  21326770.524 9 112072933.594 9      -898.886 9        55.832                  
  23529731.434 8 123649575.245 8     -3669.034 8        50.171                  
  21755312.473 9 114324928.494 9      1823.055 9        55.376                  
  24992499.053 7 131336443.835 7     -1851.946 7        44.455                  
  20432216.660 9 107372037.316 9       849.638 9        57.420                  
 02  5 18 00 02  8.0000000  0  7G01G23G10G16G21G07G08                           
  23708829.542 8 124590735.342 8      3467.081 8        48.005                  
  23047040.395 8 121113005.890 8     -2908.577 8        50.417                  
  21326939.583 9 112073831.751 9      -897.196 9        54.736                  
  23530430.274 8 123653248.930 8     -3676.916 8        50.220                  
  21754964.992 9 114323105.105 9      1823.849 9        54.349                  
  24992849.072 7 131338292.320 7     -1848.850 7        44.616                  
  20432056.447 9 107371187.843 9       849.537 9        55.022                  
 02  5 18 00 02  9.0000000  0  7G01G23G10G16G21G07G08                           
  23708170.640 7 124587272.255 7      3460.239 7        47.616                  
  23047592.459 8 121115912.444 8     -2904.366 8        49.733                  
  21327109.660 9 112074729.263 9      -896.201 9        54.730                  
  23531131.847 8 123656930.469 8     -3686.851 8        49.001                  
  21754622.228 8 114321282.812 8      1822.027 8        53.761                  
  24993197.625 7 131340139.842 7     -1851.483 7        44.887                  
  20431897.716 9 107370337.774 9       850.699 9        57.225                  
 02  5 18 00 02 10.0000000  0  7G01G23G10G16G21G07G08                           
  23707512.702 8 124583812.266 8      3458.971 8        48.763                  
  23048145.916 8 121118813.725 8     -2900.274 8        48.647                  
  21327280.291 9 112075625.697 9      -895.276 9        55.985                  
  23531832.778 8 123660619.734 8     -3691.793 8        48.877                  
  21754273.657 9 114319462.178 9      1819.655 9        54.165                  
  24993551.181 7 131341987.181 7     -1844.305 7        46.017                  
  20431737.735 9 107369487.311 9       850.161 9        57.420                  
 02  5 18 00 02 11.0000000  0  7G01G23G10G16G21G07G08                           
  23706854.676 8 124580354.955 8      3455.744 8        49.117                  
  23048690.921 8 121121711.105 8     -2893.339 8        49.381                  
  21327454.496 9 112076521.266 9      -895.464 9        54.563                  
  23532535.799 8 123664314.510 8     -3699.753 8        48.059                  
  21753923.728 9 114317643.136 9      1819.242 9        54.023                  
  24993904.130 7 131343835.000 7     -1846.341 7        46.254                  
  20431576.217 9 107368636.860 9       851.199 9        55.682                  
 02  5 18 00 02 12.0000000  0  7G01G23G10G16G21G07G08                           
  23706195.863 8 124576900.990 8      3447.598 8        48.069                  
  23049247.166 8 121124603.915 8     -2891.135 8        50.778                  
  21327623.609 9 112077415.598 9      -892.901 9        54.751                  
  23533242.036 8 123668015.208 8     -3705.019 8        48.776                  
  21753582.287 8 114315826.153 8      1814.997 8        53.234                  
  24994251.951 7 131345683.770 7     -1848.123 7        45.400                  
  20431412.912 9 107367786.467 9       849.423 9        55.501                  
 02  5 18 00 02 13.0000000  0  7G01G23G10G16G21G07G08                           
  23705541.302 7 124573454.033 7      3442.734 7        47.454                  
  23049797.639 8 121127488.651 8     -2881.315 8        49.779                  
