$GPRMC,000030.00,A,4852.4649812,N,00217.5812779,E,1.26,0.00,180502,0.0,E,A*31
$GPGGA,000030.00,4852.4649812,N,00217.5812779,E,1,05,1.0,-8.932,M,0.000,M,0.0,*54
$GPGSA,A,3,01,08,10,21,23,,,,,,,,4.0,3.5,1.9,1*2F
$GPGSV,2,1,05,01,15,255,47,08,73,299,56,10,56,076,54,21,45,263,53,1*6A
$GPGSV,2,2,05,23,28,048,50,,,,,,,,,,,,,1*53
$GPRMC,000031.00,A,4852.4633570,N,00217.5833851,E,2.29,348.26,180502,0.0,E,A*35
$GPGGA,000031.00,4852.4633570,N,00217.5833851,E,1,05,1.0,-10.684,M,0.000,M,0.0,*6C
$GPGSA,A,3,01,08,10,21,23,,,,,,,,4.0,3.5,1.9,1*2F
$GPGSV,2,1,05,01,15,255,47,08,73,299,57,10,56,076,54,21,45,263,54,1*6C
$GPGSV,2,2,05,23,28,048,50,,,,,,,,,,,,,1*53
$GPRMC,000032.00,A,4852.4630783,N,00217.5841716,E,1.26,348.26,180502,0.0,E,A*3E
$GPGGA,000032.00,4852.4630783,N,00217.5841716,E,1,05,1.0,-16.464,M,0.000,M,0.0,*61
$GPGSA,A,3,01,08,10,21,23,,,,,,,,4.0,3.5,1.9,1*2F
$GPGSV,2,1,05,01,15,255,48,08,73,299,57,10,56,076,54,21,45,263,53,1*64
$GPGSV,2,2,05,23,28,048,51,,,,,,,,,,,,,1*52
$GPRMC,000033.00,A,4852.4618952,N,00217.5833718,E,1.92,348.26,180502,0.0,E,A*33
$GPGGA,000033.00,4852.4618952,N,00217.5833718,E,1,05,1.0,-16.935,M,0.000,M,0.0,*6A
$GPGSA,A,3,01,08,10,21,23,,,,,,,,4.0,3.5,1.9,1*2F
$GPGSV,2,1,05,01,15,255,48,08,73,299,56,10,56,076,54,21,45,263,54,1*62
$GPGSV,2,2,05,23,28,048,50,,,,,,,,,,,,,1*53
$GPRMC,000034.00,A,4852.4651734,N,00217.5823464,E,1.91,348.26,180502,0.0,E,A*3D
$GPGGA,000034.00,4852.4651734,N,00217.5823464,E,1,05,1.0,-14.470,M,0.000,M,0.0,*69
$GPGSA,A,3,01,08,10,21,23,,,,,,,,4.0,3.5,1.9,1*2F
$GPGSV,2,1,05,01,15,255,48,08,73,299,56,10,56,076,54,21,45,263,52,1*64
$GPGSV,2,2,05,23,28,048,50,,,,,,,,,,,,,1*53
$GPRMC,000035.00,A,4852.4661320,N,00217.5808781,E,0.37,348.26,180502,0.0,E,A*32
$GPGGA,000035.00,4852.4661320,N,00217.5808781,E,1,06,1.0,-7.684,M,0.000,M,0.0,*53
$GPGSA,A,3,01,08,10,16,21,23,,,,,,,2.2,1.3,1.8,1*29
$GPGSV,2,1,06,01,15,255,47,08,73,299,58,10,56,076,57,16,27,182,50,1*6B
$GPGSV,2,2,06,21,45,263,52,23,27,048,51,,,,,,,,,1*6C
$GPRMC,000036.00,A,4852.4672768,N,00217.5796304,E,0.93,348.26,180502,0.0,E,A*34
$GPGGA,000036.00,4852.4672768,N,00217.5796304,E,1,06,1.0,-8.329,M,0.000,M,0.0,*56
$GPGSA,A,3,01,08,10,16,21,23,,,,,,,2.2,1.3,1.8,1*29
$GPGSV,2,1,06,01,15,255,49,08,73,299,57,10,56,076,57,16,27,182,51,1*6B
$GPGSV,2,2,06,21,45,263,54,23,27,048,50,,,,,,,,,1*6B
$GPRMC,000037.00,A,4852.4677428,N,00217.5783698,E,0.60,348.26,180502,0.0,E,A*3F
$GPGGA,000037.00,4852.4677428,N,00217.5783698,E,1,06,1.0,-2.606,M,0.000,M,0.0,*53
$GPGSA,A,3,01,08,10,16,21,23,,,,,,,2.2,1.3,1.8,1*29
$GPGSV,2,1,06,01,15,255,47,08,73,299,59,10,56,076,56,16,27,182,49,1*63
$GPGSV,2,2,06,21,45,263,53,23,27,048,50,,,,,,,,,1*6C
$GPRMC,000038.00,A,4852.4663928,N,00217.5801782,E,0.53,348.26,180502,0.0,E,A*37
$GPGGA,000038.00,4852.4663928,N,00217.5801782,E,1,06,1.0,-2.127,M,0.000,M,0.0,*5F
$GPGSA,A,3,01,08,10,16,21,23,,,,,,,2.2,1.3,1.8,1*29
$GPGSV,2,1,06,01,15,255,48,08,73,299,55,10,56,076,55,16,27,182,50,1*6B
$GPGSV,2,2,06,21,45,263,53,23,27,048,50,,,,,,,,,1*6C
$GPRMC,000039.00,A,4852.4669146,N,00217.5808734,E,0.80,348.26,180502,0.0,E,A*36
$GPGGA,000039.00,4852.4669146,N,00217.5808734,E,1,06,1.0,-7.774,M,0.000,M,0.0,*55
$GPGSA,A,3,01,08,10,16,21,23,,,,,,,2.2,1.3,1.8,1*29
$GPGSV,2,1,06,01,15,255,48,08,73,299,56,10,56,076,54,16,27,182,50,1*69
$GPGSV,2,2,06,21,45,263,52,23,27,048,52,,,,,,,,,1*6F
$GPRMC,000040.00,A,4852.4669723,N,00217.5787090,E,1.61,348.26,180502,0.0,E,A*32
$GPGGA,000040.00,4852.4669723,N,00217.5787090,E,1,06,1.0,-7.054,M,0.000,M,0.0,*5A
$GPGSA,A,3,01,08,10,16,21,23,,,,,,,2.2,1.3,1.8,1*29
$GPGSV,2,1,06,01,15,255,48,08,73,299,57,10,56,076,55,16,27,182,50,1*69
$GPGSV,2,2,06,21,45,263,52,23,27,048,50,,,,,,,,,1*6D
$GPRMC,000041.00,A,4852.4665695,N,00217.5803625,E,0.52,348.26,180502,0.0,E,A*39
$GPGGA,000041.00,4852.4665695,N,00217.5803625,E,1,06,1.0,-10.909,M,0.000,M,0.0,*67
$GPGSA,A,3,01,08,10,16,21,23,,,,,,,2.2,1.3,1.8,1*29
$GPGSV,2,1,06,01,15,255,47,08,73,299,55,10,56,076,54,16,27,182,50,1*65
$GPGSV,2,2,06,21,45,263,54,23,27,048,50,,,,,,,,,1*6B
$GPRMC,000042.00,A,4852.4658040,N,00217.5820818,E,0.85,348.26,180502,0.0,E,A*31
$GPGGA,000042.00,4852.4658040,N,00217.5820818,E,1,06,1.0,-14.036,M,0.000,M,0.0,*64
$GPGSA,A,3,01,08,10,16,21,23,,,,,,,2.2,1.3,1.8,1*29
$GPGSV,2,1,06,01,15,255,49,08,73,299,57,10,56,076,54,16,27,182,50,1*69
$GPGSV,2,2,06,21,45,263,53,23,27,048,50,,,,,,,,,1*6C
$GPRMC,000043.00,A,4852.4667886,N,00217.5812419,E,0.96,348.26,180502,0.0,E,A*30
$GPGGA,000043.00,4852.4667886,N,00217.5812419,E,1,06,1.0,-16.884,M,0.000,M,0.0,*64
$GPGSA,A,3,01,08,10,16,21,23,,,,,,,2.2,1.3,1.8,1*29
$GPGSV,2,1,06,01,15,255,47,08,73,299,56,10,56,076,54,16,27,182,48,1*6F
$GPGSV,2,2,06,21,45,263,54,23,27,048,52,,,,,,,,,1*69
$GPRMC,000044.00,A,4852.4663451,N,00217.5806325,E,0.68,348.26,180502,0.0,E,A*39
$GPGGA,000044.00,4852.4663451,N,00217.5806325,E,1,06,1.0,-13.105,M,0.000,M,0.0,*69
$GPGSA,A,3,01,08,10,16,21,23,,,,,,,2.2,1.3,1.8,1*29
$GPGSV,2,1,06,01,15,255,49,08,73,299,58,10,56,076,56,16,27,182,48,1*6D
$GPGSV,2,2,06,21,45,263,52,23,27,048,51,,,,,,,,,1*6C
$GPRMC,000045.00,A,4852.4663965,N,00217.5802138,E,0.41,348.26,180502,0.0,E,A*33
$GPGGA,000045.00,4852.4663965,N,00217.5802138,E,1,06,1.0,-10.360,M,0.000,M,0.0,*6A
$GPGSA,A,3,01,08,10,16,21,23,,,,,,,2.2,1.3,1.8,1*29
$GPGSV,2,1,06,01,15,255,48,08,73,299,57,10,56,076,56,16,27,182,48,1*63
$GPGSV,2,2,06,21,45,263,52,23,27,048,50,,,,,,,,,1*6D
$GPRMC,000046.00,A,4852.4672188,N,00217.5808335,E,0.46,348.26,180502,0.0,E,A*39
$GPGGA,000046.00,4852.4672188,N,00217.5808335,E,1,06,1.0,-11.115,M,0.000,M,0.0,*66
$GPGSA,A,3,01,08,10,16,21,23,,,,,,,2.2,1.3,1.8,1*29
$GPGSV,2,1,06,01,15,255,49,08,73,299,55,10,56,076,56,16,27,182,48,1*60
$GPGSV,2,2,06,21,45,263,51,23,27,048,50,,,,,,,,,1*6E
$GPRMC,000047.00,A,4852.4662421,N,00217.5796551,E,1.54,348.26,180502,0.0,E,A*31
$GPGGA,000047.00,4852.4662421,N,00217.5796551,E,1,06,1.0,-4.191,M,0.000,M,0.0,*54
$GPGSA,A,3,01,08,10,16,21,23,,,,,,,2.2,1.3,1.8,1*29
$GPGSV,2,1,06,01,15,255,50,08,73,299,57,10,56,076,58,16,27,182,49,1*65
$GPGSV,2,2,06,21,45,263,52,23,27,048,52,,,,,,,,,1*6F
$GPRMC,000048.00,A,4852.4673182,N,00217.5779564,E,1.32,348.26,180502,0.0,E,A*35
$GPGGA,000048.00,4852.4673182,N,00217.5779564,E,1,06,1.0,-2.646,M,0.000,M,0.0,*5B
$GPGSA,A,3,01,08,10,16,21,23,,,,,,,2.2,1.3,1.8,1*29
$GPGSV,2,1,06,01,15,255,50,08,73,299,57,10,56,076,55,16,27,182,50,1*60
$GPGSV,2,2,06,21,45,263,54,23,27,048,49,,,,,,,,,1*63
$GPRMC,000049.00,A,4852.4672517,N,00217.5791449,E,1.43,348.26,180502,0.0,E,A*33
$GPGGA,000049.00,4852.4672517,N,00217.5791449,E,1,06,1.0,-5.468,M,0.000,M,0.0,*52
$GPGSA,A,3,01,08,10,16,21,23,,,,,,,2.2,1.3,1.8,1*29
$GPGSV,2,1,06,01,15,255,49,08,73,299,57,10,56,076,54,16,27,182,49,1*61
$GPGSV,2,2,06,21,45,263,51,23,27,048,50,,,,,,,,,1*6E
$GPRMC,000050.00,A,4852.4658220,N,00217.5809996,E,1.13,348.26,180502,0.0,E,A*34
$GPGGA,000050.00,4852.4658220,N,00217.5809996,E,1,06,1.0,-6.832,M,0.000,M,0.0,*50
$GPGSA,A,3,01,08,10,16,21,23,,,,,,,2.2,1.3,1.8,1*29
$GPGSV,2,1,06,01,15,255,49,08,73,299,56,10,56,076,55,16,27,182,51,1*68
$GPGSV,2,2,06,21,45,263,52,23,27,048,51,,,,,,,,,1*6C
$GPRMC,000051.00,A,4852.4671726,N,00217.5807607,E,1.18,348.26,180502,0.0,E,A*3F
$GPGGA,000051.00,4852.4671726,N,00217.5807607,E,1,06,1.0,-9.595,M,0.000,M,0.0,*5F
$GPGSA,A,3,01,08,10,16,21,23,,,,,,,2.2,1.3,1.8,1*29
$GPGSV,2,1,06,01,15,255,49,08,73,299,57,10,56,076,55,16,27,182,52,1*6A
$GPGSV,2,2,06,21,45,263,54,23,27,048,53,,,,,,,,,1*68
$GPRMC,000052.00,A,4852.4667904,N,00217.5797181,E,1.97,136.98,180502,0.0,E,A*33
$GPGGA,000052.00,4852.4667904,N,00217.5797181,E,1,06,1.0,-10.231,M,0.000,M,0.0,*6B
$GPGSA,A,3,01,08,10,16,21,23,,,,,,,2.2,1.3,1.8,1*29
$GPGSV,2,1,06,01,15,255,48,08,73,299,56,10,56,076,56,16,27,182,49,1*63
$GPGSV,2,2,06,21,45,263,54,23,27,048,51,,,,,,,,,1*6A
$GPRMC,000053.00,A,4852.4661884,N,00217.5818704,E,1.41,136.98,180502,0.0,E,A*35
$GPGGA,000053.00,4852.4661884,N,00217.5818704,E,1,06,1.0,-15.901,M,0.000,M,0.0,*6B
$GPGSA,A,3,01,08,10,16,21,23,,,,,,,2.2,1.3,1.8,1*29
$GPGSV,2,1,06,01,15,255,48,08,73,299,57,10,56,076,56,16,27,182,49,1*62
$GPGSV,2,2,06,21,45,263,52,23,27,048,49,,,,,,,,,1*65
$GPRMC,000054.00,A,4852.4662704,N,00217.5830270,E,0.43,136.98,180502,0.0,E,A*39
$GPGGA,000054.00,4852.4662704,N,00217.5830270,E,1,06,1.0,-15.773,M,0.000,M,0.0,*6F
$GPGSA,A,3,01,08,10,16,21,23,,,,,,,2.2,1.3,1.8,1*29
$GPGSV,2,1,06,01,15,255,49,08,73,299,57,10,56,076,55,16,27,182,50,1*68
$GPGSV,2,2,06,21,45,263,53,23,27,048,49,,,,,,,,,1*64
$GPRMC,000055.00,A,4852.4663742,N,00217.5810542,E,0.52,136.98,180502,0.0,E,A*3F
$GPGGA,000055.00,4852.4663742,N,00217.5810542,E,1,06,1.0,-12.197,M,0.000,M,0.0,*62
$GPGSA,A,3,01,08,10,16,21,23,,,,,,,2.2,1.3,1.8,1*29
$GPGSV,2,1,06,01,15,255,49,08,73,299,59,10,56,076,58,16,27,182,51,1*6A
$GPGSV,2,2,06,21,45,263,52,23,27,048,50,,,,,,,,,1*6D
$GPRMC,000056.00,A,4852.4665025,N,00217.5808808,E,1.23,136.98,180502,0.0,E,A*31
$GPGGA,000056.00,4852.4665025,N,00217.5808808,E,1,06,1.0,-11.068,M,0.000,M,0.0,*69
$GPGSA,A,3,01,08,10,16,21,23,,,,,,,2.2,1.3,1.8,1*29
$GPGSV,2,1,06,01,15,255,48,08,73,299,58,10,56,076,56,16,27,182,48,1*6C
$GPGSV,2,2,06,21,45,263,54,23,27,048,50,,,,,,,,,1*6B
$GPRMC,000057.00,A,4852.4662513,N,00217.5814082,E,1.86,136.98,180502,0.0,E,A*3F
$GPGGA,000057.00,4852.4662513,N,00217.5814082,E,1,06,1.0,-6.101,M,0.000,M,0.0,*50
$GPGSA,A,3,01,08,10,16,21,23,,,,,,,2.2,1.3,1.8,1*29
$GPGSV,2,1,06,01,16,255,50,08,73,299,57,10,56,076,55,16,27,182,50,1*63
$GPGSV,2,2,06,21,45,263,53,23,27,048,50,,,,,,,,,1*6C
$GPRMC,000058.00,A,4852.4667102,N,00217.5816984,E,1.12,136.98,180502,0.0,E,A*31
$GPGGA,000058.00,4852.4667102,N,00217.5816984,E,1,06,1.0,-5.218,M,0.000,M,0.0,*5B
$GPGSA,A,3,01,08,10,16,21,23,,,,,,,2.2,1.3,1.8,1*29
$GPGSV,2,1,06,01,16,255,48,08,73,299,57,10,56,076,56,16,27,182,51,1*68
$GPGSV,2,2,06,21,45,263,52,23,27,048,50,,,,,,,,,1*6D
$GPRMC,000059.00,A,4852.4667338,N,00217.5797530,E,0.89,136.98,180502,0.0,E,A*3D
$GPGGA,000059.00,4852.4667338,N,00217.5797530,E,1,06,1.0,-0.653,M,0.000,M,0.0,*5A
$GPGSA,A,3,01,08,10,16,21,23,,,,,,,2.2,1.3,1.8,1*29
$GPGSV,2,1,06,01,16,255,50,08,73,299,57,10,56,076,57,16,26,182,52,1*62
$GPGSV,2,2,06,21,45,263,53,23,27,048,51,,,,,,,,,1*6D
$GPRMC,000100.00,A,4852.4668237,N,00217.5792622,E,0.66,136.98,180502,0.0,E,A*35
$GPGGA,000100.00,4852.4668237,N,00217.5792622,E,1,06,1.0,0.243,M,0.000,M,0.0,*7B
$GPGSA,A,3,01,08,10,16,21,23,,,,,,,2.2,1.3,1.8,1*29
$GPGSV,2,1,06,01,16,255,49,08,73,299,56,10,56,076,57,16,26,182,50,1*69
$GPGSV,2,2,06,21,45,263,53,23,27,048,50,,,,,,,,,1*6C
$GPRMC,000101.00,A,4852.4665771,N,00217.5817007,E,0.63,136.98,180502,0.0,E,A*38
$GPGGA,000101.00,4852.4665771,N,00217.5817007,E,1,06,1.0,-4.790,M,0.000,M,0.0,*51
$GPGSA,A,3,01,08,10,16,21,23,,,,,,,2.2,1.3,1.8,1*29
$GPGSV,2,1,06,01,16,255,48,08,73,299,55,10,56,076,55,16,26,182,50,1*69
$GPGSV,2,2,06,21,45,263,52,23,27,048,51,,,,,,,,,1*6C
$GPRMC,000102.00,A,4852.4655880,N,00217.5811260,E,0.55,136.98,180502,0.0,E,A*39
$GPGGA,000102.00,4852.4655880,N,00217.5811260,E,1,06,1.0,-5.544,M,0.000,M,0.0,*5F
$GPGSA,A,3,01,08,10,16,21,23,,,,,,,2.2,1.3,1.8,1*29
$GPGSV,2,1,06,01,16,255,49,08,73,299,56,10,56,076,55,16,26,182,49,1*63
$GPGSV,2,2,06,21,45,263,53,23,27,048,50,,,,,,,,,1*6C
$GPRMC,000103.00,A,4852.4671196,N,00217.5809623,E,1.54,136.98,180502,0.0,E,A*3A
$GPGGA,000103.00,4852.4671196,N,00217.5809623,E,1,06,1.0,-8.944,M,0.000,M,0.0,*5D
$GPGSA,A,3,01,08,10,16,21,23,,,,,,,2.2,1.3,1.8,1*29
$GPGSV,2,1,06,01,16,255,48,08,73,299,56,10,56,076,56,16,26,182,50,1*69
$GPGSV,2,2,06,21,45,263,53,23,27,048,51,,,,,,,,,1*6D
$GPRMC,000104.00,A,4852.4663696,N,00217.5814615,E,1.60,136.98,180502,0.0,E,A*37
$GPGGA,000104.00,4852.4663696,N,00217.5814615,E,1,06,1.0,-9.880,M,0.000,M,0.0,*5F
$GPGSA,A,3,01,08,10,16,21,23,,,,,,,2.2,1.3,1.8,1*29
$GPGSV,2,1,06,01,16,255,47,08,73,299,58,10,56,076,56,16,26,182,50,1*68
$GPGSV,2,2,06,21,45,263,54,23,27,048,50,,,,,,,,,1*6B
$GPRMC,000105.00,A,4852.4656510,N,00217.5829052,E,2.02,353.12,180502,0.0,E,A*32
$GPGGA,000105.00,4852.4656510,N,00217.5829052,E,1,06,1.0,-13.270,M,0.000,M,0.0,*60
$GPGSA,A,3,01,08,10,16,21,23,,,,,,,2.2,1.3,1.8,1*29
$GPGSV,2,1,06,01,16,255,48,08,73,299,58,10,56,076,55,16,26,182,50,1*64
$GPGSV,2,2,06,21,45,263,53,23,27,048,50,,,,,,,,,1*6C
$GPRMC,000106.00,A,4852.4668573,N,00217.5825882,E,1.16,353.12,180502,0.0,E,A*36
$GPGGA,000106.00,4852.4668573,N,00217.5825882,E,1,06,1.0,-18.066,M,0.000,M,0.0,*6C
$GPGSA,A,3,01,08,10,16,21,23,,,,,,,2.2,1.3,1.8,1*29
$GPGSV,2,1,06,01,16,255,48,08,73,299,56,10,56,076,55,16,26,182,51,1*6B
$GPGSV,2,2,06,21,45,263,53,23,27,048,50,,,,,,,,,1*6C
$GPRMC,000107.00,A,4852.4662310,N,00217.5809503,E,0.88,353.12,180502,0.0,E,A*32
$GPGGA,000107.00,4852.4662310,N,00217.5809503,E,1,06,1.0,-11.595,M,0.000,M,0.0,*6E
$GPGSA,A,3,01,08,10,16,21,23,,,,,,,2.2,1.3,1.8,1*29
$GPGSV,2,1,06,01,16,255,47,08,73,299,56,10,56,076,54,16,26,182,50,1*64
$GPGSV,2,2,06,21,45,263,51,23,27,048,51,,,,,,,,,1*6F
$GPRMC,000108.00,A,4852.4656937,N,00217.5826698,E,9.92,112.55,180502,0.0,E,A*3F
$GPGGA,000108.00,4852.4656937,N,00217.5826698,E,1,06,1.0,-11.782,M,0.000,M,0.0,*61
$GPGSA,A,3,01,08,10,16,21,23,,,,,,,2.2,1.3,1.8,1*29
$GPGSV,2,1,06,01,16,255,46,08,73,299,57,10,56,076,55,16,26,182,51,1*64
$GPGSV,2,2,06,21,45,263,51,23,27,048,52,,,,,,,,,1*6C
$GPRMC,000109.00,A,4852.4645040,N,00217.5890037,E,20.25,116.01,180502,0.0,E,A*09
$GPGGA,000109.00,4852.4645040,N,00217.5890037,E,1,06,1.0,-10.558,M,0.000,M,0.0,*61
$GPGSA,A,3,01,08,10,16,21,23,,,,,,,2.2,1.3,1.8,1*29
$GPGSV,2,1,06,01,16,255,40,08,73,299,59,10,56,076,52,16,26,182,51,1*6B
$GPGSV,2,2,06,21,45,263,47,23,27,048,54,,,,,,,,,1*6D
$GPRMC,000110.00,A,4852.4590391,N,00217.5995280,E,29.43,117.37,180502,0.0,E,A*02
$GPGGA,000110.00,4852.4590391,N,00217.5995280,E,1,06,1.0,-9.394,M,0.000,M,0.0,*59
$GPGSA,A,3,01,08,10,16,21,23,,,,,,,2.2,1.3,1.8,1*29
$GPGSV,2,1,06,01,16,255,50,08,73,299,57,10,56,076,48,16,26,182,44,1*6B
$GPGSV,2,2,06,21,45,263,52,23,27,048,46,,,,,,,,,1*6A
$GPRMC,000111.00,A,4852.4570611,N,00217.6099430,E,31.27,115.33,180502,0.0,E,A*06
$GPGGA,000111.00,4852.4570611,N,00217.6099430,E,1,06,1.0,-8.076,M,0.000,M,0.0,*5E
$GPGSA,A,3,01,08,10,16,21,23,,,,,,,2.2,1.3,1.8,1*29
$GPGSV,2,1,06,01,16,255,53,08,73,299,49,10,56,076,54,16,26,182,43,1*6D
$GPGSV,2,2,06,21,45,263,58,23,27,048,42,,,,,,,,,1*64
$GPRMC,000112.00,A,4852.4549180,N,00217.6202586,E,32.72,115.69,180502,0.0,E,A*00
$GPGGA,000112.00,4852.4549180,N,00217.6202586,E,1,06,1.0,-4.881,M,0.000,M,0.0,*58
$GPGSA,A,3,01,08,10,16,21,23,,,,,,,2.2,1.3,1.8,1*29
$GPGSV,2,1,06,01,16,255,50,08,73,299,48,10,56,076,57,16,26,182,49,1*66
$GPGSV,2,2,06,21,45,263,59,23,27,048,48,,,,,,,,,1*6F
$GPRMC,000113.00,A,4852.4495976,N,00217.6336137,E,31.43,114.96,180502,0.0,E,A*08
$GPGGA,000113.00,4852.4495976,N,00217.6336137,E,1,06,1.0,-3.916,M,0.000,M,0.0,*58
$GPGSA,A,3,01,08,10,16,21,23,,,,,,,2.2,1.3,1.8,1*29
$GPGSV,2,1,06,01,16,255,47,08,73,299,49,10,56,076,56,16,26,182,48,1*61
$GPGSV,2,2,06,21,45,263,53,23,27,048,49,,,,,,,,,1*64
$GPRMC,000114.00,A,4852.4457304,N,00217.6442929,E,22.83,109.66,180502,0.0,E,A*00
$GPGGA,000114.00,4852.4457304,N,00217.6442929,E,1,06,1.0,0.715,M,0.000,M,0.0,*7E
$GPGSA,A,3,01,08,10,16,21,23,,,,,,,2.2,1.3,1.8,1*29
$GPGSV,2,1,06,01,16,255,44,08,73,299,46,10,56,076,52,16,26,182,44,1*65
$GPGSV,2,2,06,21,45,263,48,23,27,048,44,,,,,,,,,1*63
$GPRMC,000115.00,A,4852.4464682,N,00217.6527196,E,13.68,108.81,180502,0.0,E,A*0B
$GPGGA,000115.00,4852.4464682,N,00217.6527196,E,1,06,1.0,-10.529,M,0.000,M,0.0,*6B
$GPGSA,A,3,01,08,10,16,21,23,,,,,,,2.2,1.3,1.8,1*29
$GPGSV,2,1,06,01,16,255,39,08,73,299,46,10,56,076,46,16,26,182,39,1*60
$GPGSV,2,2,06,21,45,263,45,23,27,048,39,,,,,,,,,1*64
$GPRMC,000116.00,A,4852.4459165,N,00217.6563466,E,9.45,61.83,180502,0.0,E,A*0A
$GPGGA,000116.00,4852.4459165,N,00217.6563466,E,1,06,1.0,-7.416,M,0.000,M,0.0,*59
$GPGSA,A,3,01,08,10,16,21,23,,,,,,,2.2,1.3,1.8,1*29
$GPGSV,2,1,06,01,16,255,37,08,73,298,47,10,56,076,42,16,26,182,36,1*65
$GPGSV,2,2,06,21,45,263,41,23,27,048,36,,,,,,,,,1*6F
$GPRMC,000117.00,A,4852.4474366,N,00217.6619930,E,21.17,66.40,180502,0.0,E,A*30
$GPGGA,000117.00,4852.4474366,N,00217.6619930,E,1,06,1.0,-5.154,M,0.000,M,0.0,*57
$GPGSA,A,3,01,08,10,16,21,23,,,,,,,2.2,1.3,1.8,1*29
$GPGSV,2,1,06,01,16,255,35,08,73,298,58,10,56,076,37,16,26,182,35,1*68
$GPGSV,2,2,06,21,45,263,36,23,27,048,35,,,,,,,,,1*6C
$GPRMC,000118.00,A,4852.4526329,N,00217.6704999,E,31.97,56.65,180502,0.0,E,A*31
$GPGGA,000118.00,4852.4526329,N,00217.6704999,E,1,06,1.0,-10.227,M,0.000,M,0.0,*68
$GPGSA,A,3,01,08,10,16,21,23,,,,,,,2.2,1.3,1.8,1*29
$GPGSV,2,1,06,01,16,255,35,08,73,298,54,10,56,076,35,16,26,182,35,1*66
$GPGSV,2,2,06,21,45,263,35,23,27,048,35,,,,,,,,,1*6F
$GPRMC,000119.00,A,4852.4524013,N,00217.6846932,E,27.90,69.25,180502,0.0,E,A*38
$GPGGA,000119.00,4852.4524013,N,00217.6846932,E,1,06,1.0,-7.251,M,0.000,M,0.0,*5E
$GPGSA,A,3,01,08,10,16,21,23,,,,,,,2.2,1.3,1.8,1*29
$GPGSV,2,1,06,01,16,255,35,08,74,298,50,10,56,076,35,16,26,182,35,1*65
$GPGSV,2,2,06,21,45,263,35,23,27,048,36,,,,,,,,,1*6C
$GPRMC,000120.00,A,4852.4549806,N,00217.6922698,E,20.90,78.27,180502,0.0,E,A*3C
$GPGGA,000120.00,4852.4549806,N,00217.6922698,E,1,06,1.0,-11.363,M,0.000,M,0.0,*68
$GPGSA,A,3,01,08,10,16,21,23,,,,,,,2.2,1.3,1.8,1*29
$GPGSV,2,1,06,01,16,255,36,08,74,298,54,10,56,076,36,16,26,182,36,1*62
$GPGSV,2,2,06,21,45,263,36,23,27,048,36,,,,,,,,,1*6F
$GPRMC,000121.00,A,4852.4491447,N,00217.6996663,E,19.91,60.43,180502,0.0,E,A*3B
$GPGGA,000121.00,4852.4491447,N,00217.6996663,E,1,05,1.0,-14.164,M,0.000,M,0.0,*6C
$GPGSA,A,3,01,08,10,21,23,,,,,,,,4.1,3.6,1.9,1*2D
$GPGSV,2,1,05,01,16,255,36,08,74,298,54,10,56,076,38,21,45,263,38,1*6C
$GPGSV,2,2,05,23,27,048,36,,,,,,,,,,,,,1*5C
$GPRMC,000122.00,A,4852.4449091,N,00217.7101547,E,18.30,90.58,180502,0.0,E,A*3F
$GPGGA,000122.00,4852.4449091,N,00217.7101547,E,1,04,1.0,-32.671,M,0.000,M,0.0,*61
$GPGSA,A,3,08,10,21,23,,,,,,,,,5.8,4.4,3.8,1*22
$GPGSV,1,1,04,08,74,298,52,10,56,076,38,21,45,263,38,23,27,048,36,1*64
$GPRMC,000123.00,A,4852.4423989,N,00217.7197319,E,24.14,122.10,180502,0.0,E,A*0D
$GPGGA,000123.00,4852.4423989,N,00217.7197319,E,1,04,1.0,-34.601,M,0.000,M,0.0,*6F
$GPGSA,A,3,08,10,21,23,,,,,,,,,5.8,4.4,3.8,1*22
$GPGSV,1,1,04,08,74,298,51,10,56,076,42,21,45,263,40,23,27,048,39,1*6A
$GPRMC,000124.00,A,4852.4627621,N,00217.7095521,E,18.68,107.16,180502,0.0,E,A*0A
$GPGGA,000124.00,4852.4627621,N,00217.7095521,E,1,04,1.0,-38.571,M,0.000,M,0.0,*65
$GPGSA,A,3,08,10,21,23,,,,,,,,,5.8,4.4,3.8,1*22
$GPGSV,1,1,04,08,74,298,48,10,56,076,48,21,45,263,46,23,27,048,44,1*64
$GPRMC,000125.00,A,4852.4551593,N,00217.7270177,E,22.47,131.70,180502,0.0,E,A*0C
$GPGGA,000125.00,4852.4551593,N,00217.7270177,E,1,04,1.0,-3.257,M,0.000,M,0.0,*59
$GPGSA,A,3,08,10,21,23,,,,,,,,,5.8,4.4,3.8,1*22
$GPGSV,1,1,04,08,74,298,53,10,56,076,49,21,45,263,52,23,27,048,47,1*69
$GPRMC,000126.00,A,4852.4494493,N,00217.7363833,E,15.37,139.80,180502,0.0,E,A*08
$GPGGA,000126.00,4852.4494493,N,00217.7363833,E,1,04,1.0,-6.578,M,0.000,M,0.0,*56
$GPGSA,A,3,08,10,21,23,,,,,,,,,5.8,4.5,3.8,1*23
$GPGSV,1,1,04,08,74,298,52,10,56,076,46,21,45,263,45,23,27,048,42,1*64
$GPRMC,000127.00,A,4852.4412452,N,00217.7388692,E,14.07,135.91,180502,0.0,E,A*04
$GPGGA,000127.00,4852.4412452,N,00217.7388692,E,1,04,1.0,-13.351,M,0.000,M,0.0,*6D
$GPGSA,A,3,08,10,21,23,,,,,,,,,5.8,4.5,3.8,1*23
$GPGSV,1,1,04,08,74,298,50,10,56,076,40,21,45,263,40,23,27,048,38,1*68
$GPRMC,000128.00,A,4852.4406382,N,00217.7423183,E,25.62,158.01,180502,0.0,E,A*06
$GPGGA,000128.00,4852.4406382,N,00217.7423183,E,1,04,1.0,5.551,M,0.000,M,0.0,*70
$GPGSA,A,3,08,10,21,23,,,,,,,,,5.8,4.5,3.8,1*23
$GPGSV,1,1,04,08,74,298,52,10,56,076,39,21,45,263,38,23,27,048,36,1*65
$GPRMC,000129.00,A,4852.4316470,N,00217.7486973,E,10.65,165.76,180502,0.0,E,A*0C
$GPGGA,000129.00,4852.4316470,N,00217.7486973,E,1,04,1.0,-0.777,M,0.000,M,0.0,*5B
$GPGSA,A,3,08,10,21,23,,,,,,,,,5.8,4.5,3.8,1*23
$GPGSV,1,1,04,08,74,298,46,10,56,076,36,21,45,263,36,23,27,048,36,1*61
$GPRMC,000130.00,A,4852.4274157,N,00217.7491237,E,19.51,161.10,180502,0.0,E,A*06
$GPGGA,000130.00,4852.4274157,N,00217.7491237,E,1,04,1.0,5.114,M,0.000,M,0.0,*70
$GPGSA,A,3,08,10,21,23,,,,,,,,,5.8,4.5,3.8,1*23
$GPGSV,1,1,04,08,74,298,44,10,56,076,36,21,45,263,36,23,27,048,36,1*63
$GPRMC,000131.00,A,4852.4252667,N,00217.7478712,E,19.79,174.46,180502,0.0,E,A*0F
$GPGGA,000131.00,4852.4252667,N,00217.7478712,E,1,04,1.0,6.071,M,0.000,M,0.0,*75
$GPGSA,A,3,08,10,21,23,,,,,,,,,5.9,4.5,3.8,1*22
$GPGSV,1,1,04,08,74,298,57,10,56,076,35,21,45,263,35,23,27,048,35,1*62
$GPRMC,000132.00,A,4852.4257509,N,00217.7503464,E,18.93,162.11,180502,0.0,E,A*0D
$GPGGA,000132.00,4852.4257509,N,00217.7503464,E,1,04,1.0,7.026,M,0.000,M,0.0,*74
$GPGSA,A,3,08,10,21,23,,,,,,,,,5.9,4.5,3.8,1*22
$GPGSV,1,1,04,08,74,298,52,10,56,076,36,21,45,263,35,23,27,048,35,1*64
$GPRMC,000133.00,A,4852.4176354,N,00217.7598527,E,21.40,137.07,180502,0.0,E,A*05
$GPGGA,000133.00,4852.4176354,N,00217.7598527,E,1,04,1.0,18.996,M,0.000,M,0.0,*43
$GPGSA,A,3,08,10,21,23,,,,,,,,,5.9,4.5,3.8,1*22
$GPGSV,1,1,04,08,74,298,50,10,56,076,40,21,45,263,40,23,27,048,35,1*65
$GPRMC,000134.00,A,4852.4325284,N,00217.7615710,E,26.31,111.11,180502,0.0,E,A*08
$GPGGA,000134.00,4852.4325284,N,00217.7615710,E,1,04,1.0,-6.475,M,0.000,M,0.0,*5E
$GPGSA,A,3,08,10,21,23,,,,,,,,,5.9,4.5,3.8,1*22
$GPGSV,1,1,04,08,74,298,42,10,56,076,44,21,45,263,41,23,27,048,42,1*63
$GPRMC,000135.00,A,4852.4116698,N,00217.7754632,E,38.90,122.12,180502,0.0,E,A*00
$GPGGA,000135.00,4852.4116698,N,00217.7754632,E,1,04,1.0,-2.574,M,0.000,M,0.0,*55
$GPGSA,A,3,08,10,21,23,,,,,,,,,5.9,4.5,3.8,1*22
$GPGSV,1,1,04,08,74,298,40,10,56,076,41,21,45,263,38,23,27,048,44,1*6C
$GPRMC,000136.00,A,4852.4135776,N,00217.7841778,E,30.10,113.29,180502,0.0,E,A*0D
$GPGGA,000136.00,4852.4135776,N,00217.7841778,E,1,04,1.0,3.618,M,0.000,M,0.0,*77
$GPGSA,A,3,08,10,21,23,,,,,,,,,5.9,4.5,3.8,1*22
$GPGSV,1,1,04,08,74,298,46,10,56,076,46,21,45,263,42,23,27,048,46,1*62
$GPRMC,000137.00,A,4852.3973075,N,00217.8013562,E,28.15,109.53,180502,0.0,E,A*06
$GPGGA,000137.00,4852.3973075,N,00217.8013562,E,1,04,1.0,-2.099,M,0.000,M,0.0,*55
$GPGSA,A,3,08,10,21,23,,,,,,,,,5.9,4.5,3.8,1*22
$GPGSV,1,1,04,08,74,298,54,10,56,076,51,21,45,263,48,23,27,048,44,1*6F
$GPRMC,000138.00,A,4852.3895020,N,00217.8147460,E,19.88,90.23,180502,0.0,E,A*33
$GPGGA,000138.00,4852.3895020,N,00217.8147460,E,1,04,1.0,-6.772,M,0.000,M,0.0,*56
$GPGSA,A,3,08,10,21,23,,,,,,,,,5.9,4.5,3.8,1*22
$GPGSV,1,1,04,08,74,298,51,10,56,076,46,21,45,263,44,23,27,048,42,1*66
$GPRMC,000139.00,A,4852.3911615,N,00217.8223121,E,22.46,136.93,180502,0.0,E,A*02
$GPGGA,000139.00,4852.3911615,N,00217.8223121,E,1,04,1.0,1.293,M,0.000,M,0.0,*7B
$GPGSA,A,3,08,10,21,23,,,,,,,,,5.9,4.5,3.8,1*22
$GPGSV,1,1,04,08,74,298,44,10,56,076,39,21,45,263,38,23,27,048,38,1*6C
$GPRMC,000140.00,A,4852.3843147,N,00217.8246741,E,11.90,153.66,180502,0.0,E,A*0B
$GPGGA,000140.00,4852.3843147,N,00217.8246741,E,1,04,1.0,-9.122,M,0.000,M,0.0,*5C
$GPGSA,A,3,08,10,21,23,,,,,,,,,5.9,4.5,3.8,1*22
$GPGSV,1,1,04,08,74,298,42,10,56,076,36,21,45,263,36,23,27,048,36,1*65
$GPRMC,000141.00,A,4852.3769689,N,00217.8261733,E,16.68,176.30,180502,0.0,E,A*0C
$GPGGA,000141.00,4852.3769689,N,00217.8261733,E,1,04,1.0,-20.199,M,0.000,M,0.0,*64
$GPGSA,A,3,08,10,21,23,,,,,,,,,5.9,4.5,3.8,1*22
$GPGSV,1,1,04,08,74,298,43,10,56,076,37,21,45,263,36,23,27,048,36,1*65
$GPRMC,000142.00,A,4852.3836274,N,00217.8213902,E,23.73,199.37,180502,0.0,E,A*0F
$GPGGA,000142.00,4852.3836274,N,00217.8213902,E,1,05,1.0,-20.701,M,0.000,M,0.0,*6B
$GPGSA,A,3,08,10,16,21,23,,,,,,,,3.0,1.6,2.6,1*23
$GPGSV,2,1,05,08,74,298,50,10,56,076,38,16,26,182,39,21,45,263,37,1*64
$GPGSV,2,2,05,23,27,048,35,,,,,,,,,,,,,1*5F
$GPRMC,000143.00,A,4852.3754557,N,00217.8180968,E,27.78,212.52,180502,0.0,E,A*0A
$GPGGA,000143.00,4852.3754557,N,00217.8180968,E,1,05,1.0,-13.640,M,0.000,M,0.0,*66
$GPGSA,A,3,08,10,16,21,23,,,,,,,,3.0,1.6,2.6,1*23
$GPGSV,2,1,05,08,74,298,49,10,56,076,37,16,26,182,36,21,45,263,36,1*6D
$GPGSV,2,2,05,23,27,048,35,,,,,,,,,,,,,1*5F
$GPRMC,000144.00,A,4852.3703473,N,00217.8037013,E,35.16,223.36,180502,0.0,E,A*0B
$GPGGA,000144.00,4852.3703473,N,00217.8037013,E,1,05,1.0,-19.543,M,0.000,M,0.0,*66
$GPGSA,A,3,08,10,16,21,23,,,,,,,,3.0,1.6,2.6,1*23
$GPGSV,2,1,05,08,74,298,48,10,56,076,38,16,26,182,38,21,45,263,36,1*6D
$GPGSV,2,2,05,23,27,048,35,,,,,,,,,,,,,1*5F
$GPRMC,000145.00,A,4852.3690981,N,00217.8023817,E,30.59,217.54,180502,0.0,E,A*05
$GPGGA,000145.00,4852.3690981,N,00217.8023817,E,1,04,1.0,-31.789,M,0.000,M,0.0,*6A
$GPGSA,A,3,08,10,16,21,,,,,,,,,8.9,3.8,8.1,1*21
$GPGSV,1,1,04,08,74,298,50,10,56,076,45,16,26,182,43,21,45,263,42,1*63
$GPRMC,000146.00,A,4852.3566717,N,00217.7941053,E,25.05,228.18,180502,0.0,E,A*0E
$GPGGA,000146.00,4852.3566717,N,00217.7941053,E,1,04,1.0,-10.606,M,0.000,M,0.0,*6D
$GPGSA,A,3,08,10,16,21,,,,,,,,,8.9,3.8,8.1,1*21
$GPGSV,1,1,04,08,74,298,54,10,56,076,46,16,26,182,38,21,45,263,45,1*6F
$GPRMC,000147.00,A,4852.3500787,N,00217.7871365,E,40.04,223.54,180502,0.0,E,A*03
$GPGGA,000147.00,4852.3500787,N,00217.7871365,E,1,04,1.0,2.158,M,0.000,M,0.0,*73
$GPGSA,A,3,08,10,16,21,,,,,,,,,8.9,3.8,8.1,1*21
$GPGSV,1,1,04,08,74,298,50,10,56,076,46,16,26,182,40,21,45,263,45,1*64
$GPRMC,000148.00,A,4852.3532912,N,00217.7675933,E,35.78,253.46,180502,0.0,E,A*01
$GPGGA,000148.00,4852.3532912,N,00217.7675933,E,1,04,1.0,-9.603,M,0.000,M,0.0,*53
$GPGSA,A,3,08,10,16,21,,,,,,,,,8.9,3.8,8.1,1*21
$GPGSV,1,1,04,08,74,298,46,10,55,076,41,16,26,182,48,21,45,263,39,1*64
$GPRMC,000149.00,A,4852.3362065,N,00217.7524535,E,32.56,244.27,180502,0.0,E,A*0D
$GPGGA,000149.00,4852.3362065,N,00217.7524535,E,1,04,1.0,27.369,M,0.000,M,0.0,*4D
$GPGSA,A,3,08,10,16,21,,,,,,,,,8.9,3.8,8.1,1*21
$GPGSV,1,1,04,08,74,298,49,10,55,076,46,16,26,182,42,21,45,263,44,1*6C
$GPRMC,000150.00,A,4852.3453676,N,00217.7423871,E,38.69,241.84,180502,0.0,E,A*05
$GPGGA,000150.00,4852.3453676,N,00217.7423871,E,1,04,1.0,0.133,M,0.000,M,0.0,*77
$GPGSA,A,3,08,10,16,21,,,,,,,,,8.9,3.8,8.1,1*21
$GPGSV,1,1,04,08,74,298,49,10,55,076,53,16,26,182,40,21,45,263,47,1*69
$GPRMC,000151.00,A,4852.3416277,N,00217.7337825,E,32.94,274.61,180502,0.0,E,A*06
$GPGGA,000151.00,4852.3416277,N,00217.7337825,E,1,04,1.0,-3.745,M,0.000,M,0.0,*58
$GPGSA,A,3,08,10,16,21,,,,,,,,,8.9,3.8,8.1,1*21
$GPGSV,1,1,04,08,74,298,51,10,55,075,52,16,26,182,40,21,45,263,48,1*6D
$GPRMC,000152.00,A,4852.3123814,N,00217.6874678,E,32.53,266.55,180502,0.0,E,A*0D
$GPGGA,000152.00,4852.3123814,N,00217.6874678,E,1,04,1.0,76.326,M,0.000,M,0.0,*42
$GPGSA,A,3,08,10,16,21,,,,,,,,,8.9,3.8,8.1,1*21
$GPGSV,1,1,04,08,74,298,54,10,55,075,50,16,26,182,42,21,45,263,50,1*61
$GPRMC,000153.00,A,4852.3322767,N,00217.7053489,E,32.61,262.07,180502,0.0,E,A*06
$GPGGA,000153.00,4852.3322767,N,00217.7053489,E,1,04,1.0,31.871,M,0.000,M,0.0,*41
$GPGSA,A,3,08,10,16,21,,,,,,,,,8.9,3.8,8.1,1*21
$GPGSV,1,1,04,08,74,298,51,10,55,075,55,16,26,182,42,21,45,263,46,1*66
$GPRMC,000154.00,A,4852.3405139,N,00217.6909028,E,34.17,282.23,180502,0.0,E,A*09
$GPGGA,000154.00,4852.3405139,N,00217.6909028,E,1,04,1.0,-1.288,M,0.000,M,0.0,*53
$GPGSA,A,3,08,10,16,21,,,,,,,,,8.9,3.8,8.1,1*21
$GPGSV,1,1,04,08,74,298,52,10,55,075,53,16,26,182,40,21,45,263,54,1*62
$GPRMC,000155.00,A,4852.3230727,N,00217.6786339,E,33.60,279.39,180502,0.0,E,A*03
$GPGGA,000155.00,4852.3230727,N,00217.6786339,E,1,04,1.0,57.929,M,0.000,M,0.0,*4F
$GPGSA,A,3,08,10,16,21,,,,,,,,,8.9,3.8,8.1,1*21
$GPGSV,1,1,04,08,74,298,52,10,55,075,50,16,26,182,40,21,45,263,52,1*67
$GPRMC,000156.00,A,4852.3615488,N,00217.6567692,E,31.10,275.31,180502,0.0,E,A*0D
$GPGGA,000156.00,4852.3615488,N,00217.6567692,E,1,04,1.0,-89.201,M,0.000,M,0.0,*6F
$GPGSA,A,3,08,10,16,21,,,,,,,,,8.9,3.8,8.1,1*21
$GPGSV,1,1,04,08,74,298,52,10,55,075,51,16,26,182,41,21,45,263,50,1*65
$GPRMC,000157.00,A,4852.3362285,N,00217.6568481,E,32.55,282.10,180502,0.0,E,A*04
$GPGGA,000157.00,4852.3362285,N,00217.6568481,E,1,04,1.0,39.910,M,0.000,M,0.0,*42
$GPGSA,A,3,08,10,16,21,,,,,,,,,8.9,3.8,8.1,1*21
$GPGSV,1,1,04,08,74,298,53,10,55,075,51,16,26,182,41,21,45,263,50,1*64
$GPRMC,000158.00,A,4852.3577663,N,00217.6370961,E,32.65,294.27,180502,0.0,E,A*09
$GPGGA,000158.00,4852.3577663,N,00217.6370961,E,1,04,1.0,-60.081,M,0.000,M,0.0,*6F
$GPGSA,A,3,08,10,16,21,,,,,,,,,8.9,3.8,8.1,1*21
$GPGSV,1,1,04,08,74,298,56,10,55,075,47,16,26,182,40,21,45,263,47,1*61
$GPRMC,000159.00,A,4852.3463047,N,00217.6300295,E,38.66,315.13,180502,0.0,E,A*0D
$GPGGA,000159.00,4852.3463047,N,00217.6300295,E,1,04,1.0,9.762,M,0.000,M,0.0,*75
$GPGSA,A,3,08,10,16,21,,,,,,,,,8.9,3.8,8.0,1*20
$GPGSV,1,1,04,08,74,298,50,10,55,075,42,16,26,182,44,21,45,263,40,1*61
$GPRMC,000200.00,A,4852.3500710,N,00217.6179343,E,37.77,315.84,180502,0.0,E,A*04
$GPGGA,000200.00,4852.3500710,N,00217.6179343,E,1,04,1.0,12.092,M,0.000,M,0.0,*4F
$GPGSA,A,3,08,10,16,21,,,,,,,,,8.9,3.8,8.0,1*20
$GPGSV,1,1,04,08,74,298,47,10,55,075,41,16,26,182,46,21,45,263,39,1*68
$GPRMC,000201.00,A,4852.3603631,N,00217.6124157,E,34.99,322.19,180502,0.0,E,A*0B
$GPGGA,000201.00,4852.3603631,N,00217.6124157,E,1,04,1.0,-20.109,M,0.000,M,0.0,*6C
$GPGSA,A,3,08,10,16,21,,,,,,,,,8.9,3.8,8.0,1*20
$GPGSV,1,1,04,08,74,298,55,10,55,075,47,16,26,182,44,21,45,263,45,1*64
$GPRMC,000202.00,A,4852.3625132,N,00217.6054672,E,22.85,310.76,180502,0.0,E,A*0C
$GPGGA,000202.00,4852.3625132,N,00217.6054672,E,1,04,1.0,2.293,M,0.000,M,0.0,*74
$GPGSA,A,3,08,10,16,21,,,,,,,,,8.9,3.8,8.0,1*20
$GPGSV,1,1,04,08,74,298,56,10,55,075,49,16,26,182,45,21,45,263,46,1*6B
$GPRMC,000203.00,A,4852.3425705,N,00217.5986023,E,25.73,315.38,180502,0.0,E,A*0B
$GPGGA,000203.00,4852.3425705,N,00217.5986023,E,1,04,1.0,127.669,M,0.000,M,0.0,*75
$GPGSA,A,3,08,10,16,21,,,,,,,,,8.9,3.8,8.0,1*20
$GPGSV,1,1,04,08,74,298,51,10,55,075,47,16,26,182,44,21,45,263,46,1*63
$GPRMC,000204.00,A,4852.3672111,N,00217.5941467,E,33.37,327.99,180502,0.0,E,A*0D
$GPGGA,000204.00,4852.3672111,N,00217.5941467,E,1,04,1.0,37.082,M,0.000,M,0.0,*4D
$GPGSA,A,3,08,10,16,21,,,,,,,,,8.9,3.8,8.0,1*20
$GPGSV,1,1,04,08,74,298,49,10,55,075,52,16,26,182,38,21,45,263,49,1*6A
$GPRMC,000205.00,A,4852.3959851,N,00217.5829975,E,32.26,331.43,180502,0.0,E,A*07
$GPGGA,000205.00,4852.3959851,N,00217.5829975,E,1,05,1.0,-59.615,M,0.000,M,0.0,*6A
$GPGSA,A,3,08,10,16,21,27,,,,,,,,5.3,2.5,4.7,1*25
$GPGSV,2,1,05,08,74,298,53,10,55,075,49,16,26,182,38,21,45,263,48,1*68
$GPGSV,2,2,05,27,70,121,48,,,,,,,,,,,,,1*5D
$GPRMC,000206.00,A,4852.3893727,N,00217.5774862,E,35.86,341.86,180502,0.0,E,A*0E
$GPGGA,000206.00,4852.3893727,N,00217.5774862,E,1,05,1.0,8.255,M,0.000,M,0.0,*79
$GPGSA,A,3,08,10,16,21,27,,,,,,,,5.3,2.5,4.7,1*25
$GPGSV,2,1,05,08,74,298,53,10,55,075,46,16,26,182,44,21,45,263,44,1*60
$GPGSV,2,2,05,27,69,121,53,,,,,,,,,,,,,1*5F
$GPRMC,000207.00,A,4852.3941681,N,00217.5760968,E,28.67,341.00,180502,0.0,E,A*0F
$GPGGA,000207.00,4852.3941681,N,00217.5760968,E,1,05,1.0,7.948,M,0.000,M,0.0,*7D
$GPGSA,A,3,08,10,16,21,27,,,,,,,,5.3,2.5,4.7,1*25
$GPGSV,2,1,05,08,74,298,54,10,55,075,46,16,26,182,46,21,45,263,46,1*67
$GPGSV,2,2,05,27,69,121,53,,,,,,,,,,,,,1*5F
$GPRMC,000208.00,A,4852.4069032,N,00217.5689184,E,35.05,352.00,180502,0.0,E,A*0C
$GPGGA,000208.00,4852.4069032,N,00217.5689184,E,1,05,1.0,16.106,M,0.000,M,0.0,*46
$GPGSA,A,3,08,10,16,21,27,,,,,,,,5.3,2.5,4.7,1*25
$GPGSV,2,1,05,08,74,298,50,10,55,075,45,16,26,182,46,21,45,263,44,1*62
$GPGSV,2,2,05,27,69,121,51,,,,,,,,,,,,,1*5D
$GPRMC,000209.00,A,4852.4123119,N,00217.5685356,E,34.81,350.26,180502,0.0,E,A*00
$GPGGA,000209.00,4852.4123119,N,00217.5685356,E,1,05,1.0,-1.436,M,0.000,M,0.0,*5C
$GPGSA,A,3,08,10,16,21,27,,,,,,,,5.3,2.5,4.7,1*25
$GPGSV,2,1,05,08,74,298,53,10,55,075,46,16,26,182,46,21,45,263,44,1*62
$GPGSV,2,2,05,27,69,121,52,,,,,,,,,,,,,1*5E
$GPRMC,000210.00,A,4852.4234202,N,00217.5669774,E,29.17,355.00,180502,0.0,E,A*00
$GPGGA,000210.00,4852.4234202,N,00217.5669774,E,1,05,1.0,-7.870,M,0.000,M,0.0,*56
$GPGSA,A,3,08,10,16,21,27,,,,,,,,5.3,2.5,4.7,1*25
$GPGSV,2,1,05,08,74,298,53,10,55,075,46,16,26,182,47,21,45,263,45,1*62
$GPGSV,2,2,05,27,69,121,51,,,,,,,,,,,,,1*5D
$GPRMC,000211.00,A,4852.4371483,N,00217.5669050,E,30.70,1.88,180502,0.0,E,A*04
$GPGGA,000211.00,4852.4371483,N,00217.5669050,E,1,05,1.0,-9.635,M,0.000,M,0.0,*58
$GPGSA,A,3,08,10,16,21,27,,,,,,,,5.3,2.5,4.7,1*25
$GPGSV,2,1,05,08,74,298,49,10,55,075,44,16,26,182,46,21,45,263,43,1*6C
$GPGSV,2,2,05,27,69,121,50,,,,,,,,,,,,,1*5C
$GPRMC,000212.00,A,4852.4389375,N,00217.5672889,E,32.01,7.52,180502,0.0,E,A*0D
$GPGGA,000212.00,4852.4389375,N,00217.5672889,E,1,06,1.0,-21.704,M,0.000,M,0.0,*6E
$GPGSA,A,3,08,10,16,21,23,27,,,,,,,2.5,1.4,2.0,1*26
$GPGSV,2,1,06,08,74,298,49,10,55,075,44,16,26,182,46,21,45,263,42,1*6E
$GPGSV,2,2,06,23,27,047,41,27,69,121,48,,,,,,,,,1*64
$GPRMC,000213.00,A,4852.4544928,N,00217.5698454,E,26.33,14.88,180502,0.0,E,A*30
$GPGGA,000213.00,4852.4544928,N,00217.5698454,E,1,06,1.0,-17.098,M,0.000,M,0.0,*65
$GPGSA,A,3,08,10,16,21,23,27,,,,,,,2.5,1.4,2.0,1*26
$GPGSV,2,1,06,08,74,298,47,10,55,075,45,16,26,182,43,21,45,263,43,1*65
$GPGSV,2,2,06,23,27,047,44,27,69,121,46,,,,,,,,,1*6F
$GPRMC,000214.00,A,4852.4552354,N,00217.5740464,E,19.85,12.52,180502,0.0,E,A*36
$GPGGA,000214.00,4852.4552354,N,00217.5740464,E,1,06,1.0,-3.408,M,0.000,M,0.0,*5B
$GPGSA,A,3,08,10,16,21,23,27,,,,,,,2.5,1.4,2.0,1*26
$GPGSV,2,1,06,08,74,298,47,10,55,075,48,16,26,182,36,21,45,263,48,1*61
$GPGSV,2,2,06,23,27,047,40,27,69,121,44,,,,,,,,,1*69
$GPRMC,000215.00,A,4852.4598518,N,00217.5768041,E,9.47,5.21,180502,0.0,E,A*3B
$GPGGA,000215.00,4852.4598518,N,00217.5768041,E,1,06,1.0,-3.741,M,0.000,M,0.0,*55
$GPGSA,A,3,08,10,16,21,23,27,,,,,,,2.5,1.4,2.0,1*26
$GPGSV,2,1,06,08,74,298,50,10,55,075,43,16,26,182,35,21,45,263,44,1*63
$GPGSV,2,2,06,23,27,047,36,27,69,121,47,,,,,,,,,1*6B
$GPRMC,000216.00,A,4852.4629356,N,00217.5732491,E,2.45,36.33,180502,0.0,E,A*01
$GPGGA,000216.00,4852.4629356,N,00217.5732491,E,1,06,1.0,-7.009,M,0.000,M,0.0,*5A
$GPGSA,A,3,08,10,16,21,23,27,,,,,,,2.5,1.4,2.0,1*26
$GPGSV,2,1,06,08,74,298,50,10,55,075,41,16,26,182,35,21,45,263,41,1*64
$GPGSV,2,2,06,23,27,047,35,27,69,121,50,,,,,,,,,1*6E
$GPRMC,000217.00,A,4852.4601083,N,00217.5706561,E,1.88,36.33,180502,0.0,E,A*0A
$GPGGA,000217.00,4852.4601083,N,00217.5706561,E,1,06,1.0,-2.172,M,0.000,M,0.0,*5B
$GPGSA,A,3,08,10,16,21,23,27,,,,,,,2.5,1.4,2.0,1*26
$GPGSV,2,1,06,08,74,298,54,10,55,075,46,16,26,182,38,21,45,263,46,1*6D
$GPGSV,2,2,06,23,27,047,38,27,69,121,54,,,,,,,,,1*67
$GPRMC,000218.00,A,4852.4622342,N,00217.5717423,E,0.88,36.33,180502,0.0,E,A*0C
$GPGGA,000218.00,4852.4622342,N,00217.5717423,E,1,06,1.0,-6.983,M,0.000,M,0.0,*5E
$GPGSA,A,3,08,10,16,21,23,27,,,,,,,2.5,1.4,2.0,1*26
$GPGSV,2,1,06,08,74,298,56,10,55,075,54,16,26,182,49,21,45,263,51,1*6C
$GPGSV,2,2,06,23,27,047,48,27,69,121,54,,,,,,,,,1*60
$GPRMC,000219.00,A,4852.4604694,N,00217.5745835,E,0.90,36.33,180502,0.0,E,A*02
$GPGGA,000219.00,4852.4604694,N,00217.5745835,E,1,06,1.0,1.286,M,0.000,M,0.0,*7D
$GPGSA,A,3,08,10,16,21,23,27,,,,,,,2.5,1.4,2.0,1*26
$GPGSV,2,1,06,08,74,298,56,10,55,075,53,16,26,182,52,21,45,263,52,1*62
$GPGSV,2,2,06,23,27,047,51,27,69,121,52,,,,,,,,,1*6E
$GPRMC,000220.00,A,4852.4600076,N,00217.5741824,E,0.94,36.33,180502,0.0,E,A*06
$GPGGA,000220.00,4852.4600076,N,00217.5741824,E,1,06,1.0,1.776,M,0.000,M,0.0,*77
$GPGSA,A,3,08,10,16,21,23,27,,,,,,,2.5,1.4,2.0,1*26
$GPGSV,2,1,06,08,74,298,56,10,55,075,53,16,26,182,52,21,45,263,54,1*64
$GPGSV,2,2,06,23,27,047,50,27,69,121,50,,,,,,,,,1*6D
$GPRMC,000221.00,A,4852.4635987,N,00217.5707314,E,2.05,321.90,180502,0.0,E,A*3A
$GPGGA,000221.00,4852.4635987,N,00217.5707314,E,1,06,1.0,-8.022,M,0.000,M,0.0,*5F
$GPGSA,A,3,08,10,16,21,23,27,,,,,,,2.5,1.4,2.0,1*26
$GPGSV,2,1,06,08,74,298,57,10,55,075,54,16,26,182,51,21,45,263,55,1*60
$GPGSV,2,2,06,23,27,047,51,27,69,121,52,,,,,,,,,1*6E
$GPRMC,000222.00,A,4852.4634033,N,00217.5678484,E,0.81,321.90,180502,0.0,E,A*37
$GPGGA,000222.00,4852.4634033,N,00217.5678484,E,1,06,1.0,-6.572,M,0.000,M,0.0,*52
$GPGSA,A,3,08,10,16,21,23,27,,,,,,,2.5,1.4,2.0,1*26
$GPGSV,2,1,06,08,74,298,55,10,55,075,54,16,26,182,51,21,45,263,54,1*63
$GPGSV,2,2,06,23,27,047,50,27,69,121,53,,,,,,,,,1*6E
