     2.11           OBSERVATION DATA    G                   RINEX VERSION / TYPE
BLANK OR G = GPS,  R = GLONASS,  E = GALILEO,  M = MIXED    COMMENT             
GNSS-SDR            joel                 6-MAY-25 12:55     PGM / RUN BY / DATE 
GPS OBSERVATION DATA FILE GENERATED BY GNSS-SDR             COMMENT             
GNSS-SDR VERSION 0.0.16                                     COMMENT             
See https://gnss-sdr.org                                    COMMENT             
DEFAULT MARKER NAME                                         MARKER NAME         
joel                CTTC                                    OBSERVER / AGENCY   
GNSS-SDR            Software Receiver   0.0.16              REC # / TYPE / VERS 
Antenna number      Antenna type                            ANT # / TYPE        
        0.0000        0.0000        0.0000                  APPROX POSITION XYZ 
        0.0000        0.0000        0.0000                  ANTENNA: DELTA H/E/N
     1     1                                                WAVELENGTH FACT L1/2
     4    C1    L1    D1    S1                              # / TYPES OF OBSERV 
  2002    05    18    00    00   42.1400000     GPS         TIME OF FIRST OBS   
    18                                                      LEAP SECONDS        
                                                            END OF HEADER       
 02  5 18 00 00 43.0000000  0  6G01G21G10G16G07G08                              
  23763610.517 7 124878615.129 7      3398.650 7        46.767                  
  21783603.639 8 114473612.642 8      1786.582 8        53.412                  
  21313644.904 9 112003972.881 9      -796.912 9        54.661                  
  23471206.221 8 123342019.968 8     -3664.462 8        49.436                  
  24961662.713 7 131174428.740 7     -1907.851 7        46.019                  
  20445717.404 9 107442977.727 9       867.810 9        56.106                  
 02  5 18 00 00 44.0000000  0  6G01G21G10G16G07G08                              
  23762963.622 7 124875218.031 7      3399.226 7        46.471                  
  21783268.363 9 114471825.452 9      1787.028 9        54.192                  
  21313797.166 8 112004771.285 8      -798.018 8        53.901                  
  23471903.774 8 123345683.723 8     -3662.383 8        50.780                  
  24962022.595 7 131176333.254 7     -1906.793 7        45.618                  
  20445554.921 9 107442109.847 9       867.796 9        56.741                  
 02  5 18 00 00 45.0000000  0  6G01G21G10G16G07G08                              
  23762318.890 7 124871821.092 7      3398.201 7        47.324                  
  21782928.780 8 114470038.567 8      1785.729 8        53.305                  
  21313949.839 9 112005570.286 9      -798.644 9        54.787                  
  23472599.504 8 123349347.679 8     -3664.482 8        50.669                  
  24962386.748 7 131178238.105 7     -1904.828 7        46.913                  
  20445392.098 9 107441242.432 9       867.088 9        58.102                  
 02  5 18 00 00 46.0000000  0  6G01G21G10G16G07G08                              
  23761671.227 8 124868424.308 8      3399.859 8        48.367                  
  21782584.319 8 114468251.974 8      1785.666 8        53.364                  
  21314102.762 9 112006369.884 9      -799.447 9        54.217                  
  23473298.129 8 123353011.828 8     -3665.188 8        49.314                  
  24962749.239 7 131180143.321 7     -1906.192 7        44.881                  
  20445229.705 9 107440375.495 9       866.424 9        56.863                  
 02  5 18 00 00 47.0000000  0  6G01G21G10G16G07G08                              
  23761024.529 7 124865027.690 7      3399.024 7        47.805                  
  21782245.075 8 114466465.686 8      1785.691 8        52.047                  
  21314254.560 8 112007170.135 8      -800.978 8        53.817                  
  23473995.253 8 123356676.152 8     -3664.132 8        50.224                  
  24963110.086 7 131182048.896 7     -1907.639 7        45.342                  
  20445066.114 9 107439509.035 9       866.123 9        56.078                  
 02  5 18 00 00 48.0000000  0  6G01G21G10G16G07G08                              
  23760379.190 7 124861631.226 7      3397.900 7        47.222                  
  21781907.601 8 114464679.690 8      1787.299 8        52.471                  
  21314407.661 9 112007970.982 9      -800.653 9        56.988                  
  23474691.305 8 123360340.693 8     -3665.739 8        50.283                  
  24963475.990 7 131183954.815 7     -1906.181 7        46.095                  
  20444898.860 9 107438643.039 9       865.135 9        57.892                  
 02  5 18 00 00 49.0000000  0  6G01G21G10G16G07G08                              
  23759732.671 8 124858234.918 8      3395.701 8        48.668                  
  21781568.072 8 114462893.998 8      1785.604 8        53.413                  
  21314560.352 9 112008772.427 9      -801.338 9        57.440                  
  23475390.395 8 123364005.427 8     -3665.064 8        50.438                  
  24963835.014 7 131185861.091 7     -1906.673 7        47.052                  
  20444730.891 9 107437777.507 9       865.709 9        56.989                  
 02  5 18 00 00 50.0000000  0  6G01G21G10G16G07G08                              
  23759085.508 7 124854838.792 7      3397.149 7        47.183                  
  21781224.843 8 114461108.602 8      1782.092 8        53.945                  
  21314713.222 9 112009574.491 9      -802.902 9        56.392                  
  23476087.055 8 123367670.340 8     -3664.933 8        48.701                  
  24964200.936 7 131187767.724 7     -1909.259 7        47.906                  
  20444563.851 9 107436912.453 9       864.688 9        58.807                  
 02  5 18 00 00 51.0000000  0  6G01G21G10G16G07G08                              
  23758440.276 7 124851442.814 7      3398.397 7        47.352                  
  21780886.958 8 114459323.500 8      1784.639 8        53.306                  
  21314866.002 9 112010377.185 9      -802.619 9        55.106                  
  23476784.304 8 123371335.452 8     -3667.389 8        50.174                  
  24964561.318 7 131189674.702 7     -1908.738 7        46.808                  
  20444395.757 9 107436047.875 9       864.359 9        54.287                  
 02  5 18 00 00 52.0000000  0  6G01G21G10G16G07G08                              
  23757794.650 7 124848046.981 7      3396.862 7        47.995                  
  21780550.556 8 114457538.711 8      1782.856 8        51.690                  
  21315019.300 9 112011180.477 9      -803.425 9        54.061                  
  23477482.911 8 123375000.757 8     -3667.768 8        49.517                  
  24964925.775 7 131191582.040 7     -1906.370 7        45.613                  
  20444231.970 9 107435183.764 9       863.635 9        56.043                  
 02  5 18 00 00 53.0000000  0  6G01G21G10G16G07G08                              
  23757147.237 8 124844651.333 8      3396.063 8        48.443                  
  21780208.382 8 114455754.243 8      1783.239 8        51.521                  
  21315172.366 9 112011984.366 9      -804.671 9        54.713                  
  23478179.357 8 123378666.260 8     -3665.545 8        49.892                  
  24965289.374 7 131193489.733 7     -1904.287 7        46.895                  
  20444070.166 9 107434320.115 9       863.751 9        57.514                  
 02  5 18 00 00 54.0000000  0  6G01G21G10G16G07G08                              
  23756501.415 7 124841255.830 7      3396.237 7        47.156                  
  21779866.190 8 114453970.060 8      1784.921 8        53.936                  
  21315325.575 9 112012788.873 9      -803.455 9        54.375                  
  23478876.749 8 123382331.952 8     -3664.834 8        50.315                  
  24965649.667 7 131195397.771 7     -1907.703 7        46.858                  
  20443907.915 9 107433456.946 9       862.346 9        55.142                  
 02  5 18 00 00 55.0000000  0  6G01G21G10G16G07G08                              
  23755855.593 8 124837860.477 8      3393.449 8        48.753                  
  21779530.163 8 114452186.187 8      1784.359 8        53.446                  
  21315479.106 9 112013594.013 9      -805.247 9        54.035                  
  23479575.124 8 123385997.825 8     -3667.169 8        49.839                  
  24966016.268 7 131197306.170 7     -1909.654 7        47.617                  
  20443745.682 9 107432594.251 9       862.923 9        56.794                  
 02  5 18 00 00 56.0000000  0  6G01G21G10G16G07G08                              
  23755208.734 7 124834465.312 7      3394.548 7        46.673                  
  21779192.885 8 114450402.603 8      1782.869 8        53.995                  
  21315632.261 9 112014399.749 9      -806.183 9        54.724                  
  23480272.588 7 123389663.913 7     -3661.444 7        47.497                  
  24966376.150 7 131199214.917 7     -1910.073 7        46.598                  
  20443584.861 9 107431732.022 9       862.323 9        56.144                  
 02  5 18 00 00 57.0000000  0  6G01G21G10G16G07G08                              
  23754563.091 8 124831070.292 8      3393.081 8        48.608                  
  21778849.425 8 114448619.327 8      1783.570 8        52.042                  
  21315785.846 9 112015206.081 9      -806.173 9        55.416                  
  23480969.801 7 123393330.175 7     -3665.060 7        47.214                  
  24966742.018 7 131201124.015 7     -1912.657 7        45.774                  
  20443422.557 9 107430870.258 9       861.599 9        58.031                  
 02  5 18 00 00 58.0000000  0  6G01G21G10G16G07G08                              
  23753918.037 8 124827675.425 8      3394.410 8        48.340                  
  21778508.537 8 114446836.338 8      1783.291 8        51.965                  
  21315939.448 9 112016013.032 9      -806.548 9        55.844                  
  23481668.659 8 123396996.632 8     -3664.167 8        48.296                  
  24967103.562 7 131203033.474 7     -1909.070 7        45.900                  
  20443256.589 9 107430008.971 9       861.169 9        57.036                  
 02  5 18 00 00 59.0000000  0  6G01G21G10G16G07G08                              
  23753270.982 8 124824280.739 8      3395.338 8        49.281                  
  21778173.458 8 114445053.659 8      1781.683 8        50.870                  
  21316093.354 9 112016820.615 9      -807.876 9        56.441                  
  23482364.907 8 123400663.298 8     -3666.674 8        48.737                  
  24967467.590 7 131204943.277 7     -1904.334 7        44.996                  
  20443090.604 9 107429148.161 9       859.455 9        55.214                  
 02  5 18 00 01  0.0000000  0  6G01G21G10G16G07G08                              
  23752625.195 8 124820886.197 8      3393.682 8        49.525                  
  21777835.036 8 114443271.266 8      1782.130 8        52.537                  
  21316246.938 9 112017628.795 9      -808.972 9        57.283                  
  23483062.639 8 123404330.127 8     -3664.419 8        48.603                  
  24967832.136 7 131206853.442 7     -1908.845 7        47.147                  
  20442924.100 9 107428287.816 9       859.942 9        56.757                  
 02  5 18 00 01  1.0000000  0  6G01G21G10G16G07G08                              
  23751980.302 8 124817491.819 8      3390.789 8        50.020                  
  21777492.398 9 114441489.194 9      1782.202 9        54.308                  
  21316401.022 9 112018437.570 9      -809.395 9        55.356                  
  23483761.890 8 123407997.172 8     -3669.929 8        49.538                  
  24968193.090 7 131208763.949 7     -1910.824 7        46.930                  
  20442756.989 9 107427427.935 9       858.891 9        56.528                  
 02  5 18 00 01  2.0000000  0  6G01G21G10G16G07G08                              
  23751333.533 8 124814097.607 8      3394.172 8        49.311                  
  21777152.708 8 114439707.433 8      1781.608 8        50.999                  
  21316555.268 9 112019246.968 9      -809.798 9        54.448                  
  23484458.442 8 123411664.410 8     -3668.565 8        49.174                  
  24968560.156 7 131210674.817 7     -1916.559 7        45.270                  
  20442591.486 9 107426568.531 9       859.130 9        57.172                  
 02  5 18 00 01  3.0000000  0  6G01G21G10G16G07G08                              
  23750687.032 8 124810703.554 8      3391.546 8        48.945                  
  21776817.931 8 114437925.968 8      1780.387 8        51.798                  
  21316709.531 9 112020056.993 9      -811.026 9        55.417                  
  23485156.585 8 123415331.821 8     -3665.757 8        51.244                  
  24968920.341 7 131212586.025 7     -1911.025 7        44.475                  
  20442429.772 9 107425709.603 9       859.161 9        55.684                  
 02  5 18 00 01  4.0000000  0  6G01G21G10G16G07G08                              
  23750042.621 8 124807309.650 8      3394.321 8        48.980                  
  21776478.420 9 114436144.802 9      1781.070 9        54.135                  
  21316863.616 9 112020867.618 9      -811.154 9        54.754                  
  23485854.942 8 123418999.437 8     -3667.562 8        52.059                  
  24969286.871 7 131214497.593 7     -1912.936 7        46.212                  
  20442268.397 9 107424851.144 9       857.735 9        56.495                  
 02  5 18 00 01  5.0000000  0  6G01G21G10G16G07G08                              
  23749396.102 8 124803915.918 8      3396.748 8        48.191                  
  21776135.067 8 114434363.934 8      1780.514 8        53.828                  
  21317017.772 9 112021678.834 9      -811.458 9        55.896                  
  23486552.012 8 123422667.246 8     -3667.779 8        49.303                  
  24969649.791 7 131216409.508 7     -1909.746 7        46.537                  
  20442107.450 9 107423993.145 9       857.933 9        56.536                  
 02  5 18 00 01  6.0000000  0  7G01G23G21G10G16G07G08                           
  23748750.119 8 124800522.340 8      3393.288 8        48.328                  
  23013490.911 8 120936706.683 8     -2829.849 8        48.914                  
  21775797.521 8 114432583.365 8      1779.856 8        51.951                  
  21317171.624 9 112022490.673 9      -812.962 9        56.005                  
  23487250.995 8 123426335.245 8     -3668.431 8        49.069                  
  24970012.568 7 131218321.779 7     -1909.618 7        45.746                  
  20441946.379 9 107423135.627 9       856.944 9        57.542                  
 02  5 18 00 01  7.0000000  0  7G01G23G21G10G16G07G08                           
  23748104.815 8 124797128.928 8      3391.403 8        49.546                  
  23014028.751 8 120939534.984 8     -2827.131 8        49.286                  
  21775462.369 8 114430803.093 8      1781.404 8        52.902                  
  21317325.780 9 112023303.143 9      -812.083 9        54.893                  
  23487949.102 8 123430003.433 8     -3667.895 8        50.082                  
  24970379.454 7 131220234.395 7     -1911.840 7        46.183                  
  20441785.790 9 107422278.583 9       856.718 9        57.377                  
 02  5 18 00 01  8.0000000  0  7G01G23G21G10G16G07G08                           
  23747458.903 8 124793735.681 8      3393.284 8        48.590                  
  23014567.931 8 120942363.642 8     -2828.145 8        50.016                  
  21775123.269 8 114429023.121 8      1779.381 8        52.525                  
  21317480.133 9 112024116.211 9      -813.594 9        57.637                  
  23488646.673 8 123433671.814 8     -3668.020 8        50.621                  
  24970739.533 8 131222147.370 8     -1912.232 8        48.118                  
  20441624.558 9 107421422.015 9       856.276 9        59.414                  
 02  5 18 00 01  9.0000000  0  7G01G23G21G10G16G07G08                           
  23746812.563 8 124790342.577 8      3394.747 8        48.086                  
  23015105.038 8 120945192.689 8     -2831.173 8        50.544                  
  21774779.791 8 114427243.442 8      1779.878 8        53.733                  
  21317634.092 9 112024929.875 9      -813.333 9        55.932                  
  23489344.708 8 123437340.381 8     -3663.516 8        48.599                  
  24971108.082 7 131224060.696 7     -1914.325 7        47.622                  
  20441460.038 9 107420565.915 9       856.062 9        57.644                  
 02  5 18 00 01 10.0000000  0  7G01G23G21G10G16G07G08                           
  23746168.617 8 124786949.644 8      3393.820 8        49.915                  
  23015645.665 8 120948022.145 8     -2827.936 8        50.357                  
  21774442.727 8 114425464.080 8      1779.628 8        53.853                  
  21317788.356 9 112025744.146 9      -814.534 9        54.975                  
  23490043.673 8 123441009.147 8     -3668.170 8        49.213                  
  24971468.893 8 131225974.373 8     -1911.223 8        48.165                  
  20441295.267 9 107419710.280 9       855.337 9        57.123                  
 02  5 18 00 01 11.0000000  0  7G01G23G21G10G16G07G08                           
  23745521.705 7 124783556.874 7      3393.555 7        47.301                  
  23016181.450 8 120950851.997 8     -2827.782 8        50.651                  
  21774108.398 8 114423685.024 8      1778.114 8        51.645                  
  21317943.798 9 112026559.061 9      -815.277 9        55.937                  
  23490740.333 8 123444678.099 8     -3669.418 8        50.728                  
  24971834.779 8 131227888.396 8     -1911.729 8        48.346                  
  20441129.550 9 107418855.119 9       855.012 9        56.847                  
 02  5 18 00 01 12.0000000  0  7G01G23G21G10G16G07G08                           
  23744875.686 8 124780164.264 8      3391.739 8        49.598                  
  23016721.130 8 120953682.235 8     -2830.705 8        51.036                  
  21773768.118 8 114421906.279 8      1777.945 8        53.210                  
  21318098.276 9 112027374.573 9      -816.072 9        57.120                  
  23491439.780 8 123448347.240 8     -3667.422 8        51.447                  
  24972197.681 7 131229802.772 7     -1910.296 7        47.588                  
  20440964.565 9 107418000.437 9       855.026 9        57.340                  
 02  5 18 00 01 13.0000000  0  7G01G23G21G10G16G07G08                           
  23744230.435 8 124776771.821 8      3392.405 8        49.003                  
  23017260.328 8 120956512.863 8     -2832.053 8        50.506                  
  21773425.622 8 114420127.820 8      1778.420 8        52.610                  
  21318253.433 9 112028190.678 9      -816.638 9        57.565                  
  23492138.244 8 123452016.574 8     -3669.562 8        50.635                  
  24972563.871 7 131231717.505 7     -1914.234 7        46.656                  
  20440798.759 9 107417146.230 9       854.444 9        55.990                  
 02  5 18 00 01 14.0000000  0  7G01G23G21G10G16G07G08                           
  23743586.186 8 124773379.527 8      3390.529 8        48.457                  
  23017797.507 8 120959343.867 8     -2830.196 8        50.617                  
  21773090.274 8 114418349.666 8      1777.616 8        52.112                  
  21318409.054 9 112029007.392 9      -818.156 9        54.547                  
  23492834.904 8 123455686.110 8     -3668.623 8        50.232                  
  24972928.149 7 131233632.593 7     -1915.652 7        46.457                  
  20440636.437 9 107416292.477 9       852.998 9        54.588                  
 02  5 18 00 01 15.0000000  0  7G01G23G21G10G16G07G08                           
  23742939.774 8 124769987.394 8      3393.184 8        48.403                  
  23018338.384 8 120962175.268 8     -2830.886 8        50.227                  
  21772755.034 8 114416571.803 8      1777.587 8        52.799                  
  21318564.371 9 112029824.752 9      -817.842 9        55.265                  
  23493534.744 8 123459355.823 8     -3671.282 8        49.086                  
  24973289.425 7 131235548.025 7     -1916.869 7        46.969                  
  20440476.455 9 107415439.200 9       853.888 9        55.974                  
 02  5 18 00 01 16.0000000  0  7G01G23G21G10G16G07G08                           
  23742293.219 7 124766595.436 7      3391.443 7        47.473                  
  23018874.759 8 120965007.066 8     -2832.919 8        50.723                  
  21772413.414 8 114414794.252 8      1777.282 8        52.671                  
  21318720.118 9 112030642.705 9      -818.159 9        55.525                  
  23494232.583 8 123463025.741 8     -3667.587 8        49.646                  
  24973656.651 7 131237463.800 7     -1915.740 7        46.610                  
  20440316.045 9 107414586.400 9       853.211 9        56.873                  
 02  5 18 00 01 17.0000000  0  7G01G23G21G10G16G07G08                           
  23741649.559 7 124763203.628 7      3393.339 7        46.760                  
  23019415.404 8 120967839.258 8     -2832.011 8        50.329                  
  21772072.705 8 114413016.985 8      1777.723 8        54.000                  
  21318875.739 9 112031461.256 9      -818.447 9        55.759                  
  23494930.601 8 123466695.840 8     -3667.110 8        50.531                  
  24974018.820 8 131239379.935 8     -1917.845 8        49.364                  
  20440155.921 9 107413734.078 9       851.648 9        57.655                  
 02  5 18 00 01 18.0000000  0  7G01G23G21G10G16G07G08                           
  23741004.219 8 124759811.974 8      3389.540 8        48.198                  
  23019953.762 8 120970671.836 8     -2829.963 8        49.883                  
  21771737.161 8 114411240.020 8      1778.791 8        53.315                  
  21319031.807 9 112032280.404 9      -819.768 9        55.336                  
  23495629.959 8 123470366.125 8     -3668.615 8        49.760                  
  24974387.816 7 131241296.416 7     -1917.034 7        47.984                  
  20439995.314 9 107412882.220 9       851.385 9        57.615                  
 02  5 18 00 01 19.0000000  0  7G01G23G21G10G16G07G08                           
  23740357.736 7 124756420.505 7      3394.578 7        47.614                  
  23020492.888 8 120973504.789 8     -2833.229 8        50.415                  
  21771402.241 8 114409463.368 8      1776.606 8        52.887                  
  21319187.107 9 112033100.206 9      -821.555 9        54.963                  
  23496328.208 8 123474036.616 8     -3670.311 8        50.876                  
  24974749.824 8 131243213.253 8     -1918.717 8        48.254                  
  20439836.226 9 107412030.828 9       851.413 9        56.800                  
 02  5 18 00 01 20.0000000  0  7G01G23G21G10G16G07G08                           
  23739713.254 7 124753029.119 7      3388.725 7        46.936                  
  23021032.961 8 120976338.321 8     -2833.944 8        50.908                  
  21771060.747 8 114407687.005 8      1777.008 8        50.934                  
  21319344.569 8 112033920.642 8      -821.278 8        53.314                  
  23497025.583 8 123477706.980 8     -3667.799 8        50.341                  
  24975115.174 7 131245130.524 7     -1921.285 7        47.059                  
  20439675.726 9 107411179.972 9       850.113 9        56.962                  
 02  5 18 00 01 21.0000000  0  7G01G23G21G10G16G07G08                           
  23739067.842 7 124749635.286 7      3393.561 7        46.771                  
  23021572.695 8 120979180.414 8     -2848.800 8        50.994                  
  21770720.753 8 114405910.579 8      1776.850 8        51.612                  
  21319501.173 9 112034742.996 9      -824.514 9        54.533                  
  23497722.850 8 123481364.024 8     -3645.031 8        50.200                  
  24975482.454 7 131247052.086 7     -1926.612 7        46.529                  
  20439512.654 9 107410331.991 9       846.163 9        56.180                  
 02  5 18 00 01 22.0000000  0  7G01G23G21G10G16G07G08                           
  23738418.929 7 124746237.227 7      3401.601 7        47.494                  
  23022116.610 8 120982036.778 8     -2862.581 8        50.767                  
  21770385.512 8 114404133.823 8      1776.035 8        53.969                  
  21319659.475 8 112035568.211 8      -826.656 8        53.658                  
  23498414.381 8 123484998.416 8     -3626.527 8        49.849                  
  24975847.322 7 131248980.669 7     -1930.201 7        46.051                  
  20439350.367 9 107409488.544 9       841.488 9        56.208                  
 02  5 18 00 01 23.0000000  0  7G01G23G21G10G16G07G08                           
  23737772.034 7 124742834.931 7      3403.692 7        47.940                  
  23022663.313 8 120984907.371 8     -2876.683 8        49.265                  
  21770049.842 8 114402356.736 8      1777.694 8        52.779                  
  21319817.508 9 112036396.298 9      -830.318 9        54.939                  
  23499100.980 8 123488610.081 8     -3603.109 8        49.058                  
  24976219.641 7 131250916.270 7     -1940.201 7        45.970                  
  20439188.813 9 107408649.632 9       836.352 9        56.840                  
 02  5 18 00 01 24.0000000  0  7G01G23G21G10G16G07G08                           
  23737127.070 8 124739429.560 8      3403.770 8        49.016                  
  23023209.355 8 120987788.641 8     -2881.181 8        50.601                  
  21769707.936 8 114400579.496 8      1777.836 8        53.910                  
  21319975.971 9 112037226.678 9      -830.402 9        56.704                  
  23499786.829 8 123492204.940 8     -3594.814 8        50.155                  
  24976584.365 7 131252857.151 7     -1942.981 7        45.559                  
  20439028.082 9 107407814.198 9       835.808 9        54.885                  
 02  5 18 00 01 25.0000000  0  7G01G23G21G10G16G07G08                           
  23736473.671 8 124736024.104 8      3404.771 8        48.837                  
  23023759.935 8 120990671.056 8     -2881.537 8        49.865                  
  21769367.764 8 114398802.543 8      1776.050 8        53.482                  
  21320134.308 9 112038057.825 9      -830.679 9        55.868                  
  23500471.856 8 123495798.758 8     -3592.862 8        49.451                  
  24976956.881 7 131254798.730 7     -1944.527 7        47.213                  
  20438867.975 9 107406979.443 9       835.811 9        56.580                  
 02  5 18 00 01 26.0000000  0  7G01G23G21G10G16G07G08                           
  23735826.830 8 124732618.842 8      3404.180 8        50.196                  
  23024308.854 8 120993553.880 8     -2882.440 8        51.666                  
  21769033.595 9 114397025.923 9      1776.866 9        54.093                  
  21320292.735 9 112038889.601 9      -831.049 9        57.037                  
  23501154.775 8 123499392.741 8     -3595.115 8        48.634                  
  24977323.518 7 131256740.637 7     -1943.157 7        47.922                  
  20438706.600 9 107406145.149 9       834.003 9        57.320                  
 02  5 18 00 01 27.0000000  0  7G01G23G21G10G16G07G08                           
  23735178.953 7 124729213.775 7      3403.243 7        47.698                  
  23024855.753 8 120996437.091 8     -2881.891 8        50.905                  
  21768697.354 8 114395249.628 8      1776.479 8        52.153                  
  21320451.483 9 112039721.981 9      -833.112 9        55.879                  
  23501836.424 7 123502986.925 7     -3594.593 7        47.537                  
  24977695.068 8 131258682.889 8     -1941.454 8        49.773                  
  20438546.511 9 107405311.305 9       833.526 9        56.019                  
 02  5 18 00 01 28.0000000  0  7G01G23G21G10G16G07G08                           
  23734533.238 7 124725809.019 7      3404.616 7        45.187                  
  23025405.851 8 120999320.604 8     -2885.056 8        52.052                  
  21768355.645 9 114393473.737 9      1774.942 9        54.209                  
  21320610.250 9 112040554.934 9      -831.746 9        55.117                  
  23502520.683 7 123506581.287 7     -3596.083 7        46.813                  
  24978061.723 8 131260625.643 8     -1944.789 8        49.520                  
  20438388.424 9 107404477.955 9       832.958 9        56.351                  
 02  5 18 00 01 29.0000000  0  7G01G23G21G10G16G07G08                           
  23733886.094 7 124722405.198 7      3402.282 7        47.322                  
  23025955.627 8 121002203.928 8     -2883.993 8        49.468                  
  21768016.383 8 114391698.713 8      1776.027 8        52.901                  
  21320767.962 8 112041388.071 8      -831.305 8        53.846                  
  23503203.458 8 123510175.982 8     -3594.813 8        48.650                  
  24978435.149 8 131262569.434 8     -1943.630 8        48.467                  
  20438231.481 9 107403645.244 9       831.892 9        57.088                  
 02  5 18 00 01 30.0000000  0  7G01G23G21G10G16G07G08                           
  23733239.950 8 124719006.425 8      3392.181 8        49.552                  
  23026500.507 8 121005079.236 8     -2866.698 8        48.456                  
  21767682.804 9 114389926.463 9      1771.250 9        54.029                  
  21320925.316 9 112042219.095 9      -827.849 9        54.687                  
  23503886.787 7 123513781.244 7     -3618.617 7        42.294                  
  24978801.429 7 131264513.527 7     -1943.472 7        46.944                  
  20438074.144 9 107402811.881 9       834.522 9        59.579                  
 02  5 18 00 01 31.0000000  0  7G01G23G21G10G16G07G08                           
  23732594.628 7 124715617.414 7      3387.043 7        45.054                  
  23027046.334 7 121007937.206 7     -2849.182 7        46.323                  
  21767347.832 8 114388159.049 8      1765.097 8        53.083                  
  21321081.563 8 112043045.360 8      -823.924 8        50.709                  
  23504582.893 8 123517410.993 8     -3642.423 8        50.578                  
  24979174.159 7 131266456.448 7     -1943.132 7        47.058                  
  20437915.967 9 107401976.133 9       837.406 9        57.646                  
 02  5 18 00 01 32.0000000  0  7G01G23G21G10G16G07G08                           
  23731948.734 7 124712236.787 7      3374.626 7        44.179                  
  23027587.087 8 121010780.505 8     -2838.622 8        51.691                  
  21767008.928 8 114386396.029 8      1758.471 8        52.891                  
  21321237.506 7 112043867.606 7      -819.669 7        46.115                  
  23505275.675 8 123521059.552 8     -3648.910 8        49.498                  
  24979541.778 7 131268399.253 7     -1948.100 7        46.556                  
  20437759.452 9 107401138.828 9       835.300 9        56.958                  
 02  5 18 00 01 33.0000000  0  7G01G23G21G10G16G07G08                           
  23731312.150 8 124708873.221 8      3352.100 8        52.372                  
  23028125.659 8 121013614.979 8     -2833.653 8        50.849                  
  21766673.901 8 114384646.443 8      1738.779 8        53.348                  
  21321391.984 7 112044680.806 7      -807.572 7        46.605                  
  23505969.297 8 123524704.312 8     -3643.710 8        49.149                  
  24979917.349 8 131270362.502 8     -1975.306 8        48.660                  
  20437600.347 8 107400307.789 8       825.742 8        52.255                  
 02  5 18 00 01 34.0000000  0  7G01G23G21G10G16G07G08                           
  23730675.352 8 124705531.303 8      3330.681 8        48.293                  
  23028665.107 7 121016438.346 7     -2817.446 7        47.321                  
  21766346.630 8 114382914.210 8      1725.112 8        49.358                  
  21321544.103 8 112045481.416 8      -795.807 8        51.625                  
  23506662.883 7 123528342.202 7     -3636.611 7        46.450                  
  24980294.135 8 131272352.486 8     -2000.607 8        48.500                  
  20437446.691 9 107399484.442 9       819.946 9        56.626                  
 02  5 18 00 01 35.0000000  0  7G01G23G21G10G16G07G08                           
  23730041.752 7 124702199.983 7      3329.482 7        45.514                  
  23029198.301 8 121019255.881 8     -2817.230 8        48.644                  
  21766021.200 8 114381190.822 8      1724.256 8        49.237                  
  21321695.596 8 112046276.704 8      -794.485 8        50.815                  
  23507353.199 7 123531977.453 7     -3638.669 7        45.838                  
  24980677.319 7 131274355.875 7     -2002.924 7        47.958                  
  20437291.963 9 107398665.293 9       818.691 9        60.553                  
 02  5 18 00 01 36.0000000  0  7G01G23G21G10G16G07G08                           
  23729405.829 7 124698869.505 7      3327.802 7        44.417                  
  23029736.820 7 121022073.450 7     -2818.835 7        47.493                  
  21765694.590 8 114379468.374 8      1721.586 8        49.321                  
  21321847.572 8 112047072.010 8      -796.601 8        50.576                  
  23508047.017 7 123535613.125 7     -3638.440 7        45.867                  
  24981054.980 7 131276359.715 7     -2003.290 7        43.219                  
  20437136.967 9 107397846.654 9       818.196 9        58.051                  
 02  5 18 00 01 37.0000000  0  7G01G23G21G10G16G07G08                           
  23728768.852 7 124695539.544 7      3351.150 7        45.484                  
  23030270.085 7 121024890.894 7     -2816.013 7        46.628                  
  21765363.727 8 114377746.049 8      1721.975 8        50.120                  
  21321997.458 8 112047867.902 8      -794.821 8        52.673                  
  23508736.887 7 123539249.476 7     -3637.763 7        46.746                  
  24981441.523 7 131278364.251 7     -2005.479 7        44.045                  
  20436983.079 9 107397028.463 9       817.628 9        59.156                  
 02  5 18 00 01 38.0000000  0  7G01G23G21G10G16G07G08                           
  23728141.346 7 124692209.758 7      3332.503 7        47.973                  
  23030809.658 7 121027709.091 7     -2820.016 7        46.463                  
  21765032.203 8 114376023.984 8      1722.229 8        49.389                  
  21322150.613 8 112048664.576 8      -796.307 8        51.154                  
  23509430.187 7 123542886.083 7     -3637.203 7        47.212                  
  24981821.061 7 131280369.166 7     -2007.985 7        45.859                  
  20436827.529 9 107396210.722 9       817.396 9        60.267                  
 02  5 18 00 01 39.0000000  0  7G01G23G21G10G16G07G08                           
  23727505.602 7 124688879.981 7      3328.112 7        45.811                  
  23031345.353 8 121030527.231 8     -2817.375 8        48.470                  
  21764709.024 8 114374302.595 8      1722.110 8        51.131                  
  21322300.302 9 112049461.477 9      -796.886 9        54.214                  
  23510122.665 7 123546522.788 7     -3634.529 7        47.393                  
  24982203.619 7 131282374.087 7     -2004.407 7        43.955                  
  20436670.800 9 107395393.437 9       817.029 9        59.103                  
 02  5 18 00 01 40.0000000  0  7G01G23G21G10G16G07G08                           
  23726868.124 7 124685550.496 7      3336.484 7        44.078                  
  23031877.207 8 121033345.616 8     -2817.482 8        48.778                  
  21764383.629 8 114372581.334 8      1719.186 8        50.376                  
  21322452.492 8 112050259.276 8      -796.813 8        51.610                  
  23510811.731 8 123550159.797 8     -3628.082 8        48.514                  
  24982583.443 7 131284379.773 7     -2005.704 7        47.420                  
  20436514.410 9 107394576.594 9       816.299 9        60.301                  
 02  5 18 00 01 41.0000000  0  7G01G23G21G10G16G07G08                           
  23726239.188 7 124682220.875 7      3330.910 7        45.014                  
  23032417.244 7 121036163.969 7     -2817.864 7        47.546                  
  21764056.929 8 114370859.889 8      1723.161 8        49.740                  
  21322605.380 8 112051057.826 8      -806.696 8        52.368                  
  23511509.337 8 123553799.187 8     -3646.595 8        48.729                  
  24982965.679 7 131286384.055 7     -2001.661 7        43.762                  
  20436358.396 9 107393759.417 9       817.237 9        54.560                  
 02  5 18 00 01 42.0000000  0  7G01G23G21G10G16G07G08                           
  23725606.035 6 124678880.218 6      3369.482 6        39.613                  
  23032952.511 7 121038984.525 7     -2818.479 7        46.511                  
  21763726.192 7 114369128.461 7      1740.022 7        42.000                  
  21322758.499 7 112051863.671 7      -814.952 7        45.471                  
  23512201.583 7 123557450.949 7     -3655.428 7        42.303                  
  24983343.305 6 131288370.693 6     -1980.699 6        37.127                  
  20436201.363 7 107392937.126 7       824.540 7        47.264                  
 02  5 18 00 01 43.0000000  0  7G01G23G21G10G16G07G08                           
  23724964.502 6 124675529.113 6      3342.030 6        36.648                  
  23033494.925 7 121041806.439 7     -2819.717 7        43.975                  
  21763389.521 6 114367387.916 6      1743.213 6        38.024                  
  21322912.620 6 112052676.626 6      -815.618 6        40.663                  
  23512898.207 6 123561116.406 6     -3683.366 6        37.772                  
  24983719.127 5 131290339.597 5     -1974.027 5        35.142                  
  20436041.167 7 107392108.984 7       827.336 7        42.142                  
 02  5 18 00 01 44.0000000  0  7G01G23G21G10G16G07G08                           
  23724335.744 7 124672193.857 7      3321.595 7        43.405                  
  23034026.296 7 121044614.251 7     -2792.380 7        43.380                  
  21763064.019 7 114365658.821 7      1718.654 7        44.017                  
  21323066.400 7 112053481.158 7      -796.088 7        46.076                  
  23513596.493 5 123564789.168 5     -3669.941 5        35.949                  
  24984092.929 6 131292322.225 6     -1988.203 6        36.816                  
  20435882.061 7 107391284.199 7       827.725 7        44.336                  
 02  5 18 00 01 45.0000000  0  7G01G23G21G10G16G07G08                           
  23723697.570 6 124668882.653 6      3308.961 6        40.677                  
  23034554.862 6 121047403.564 6     -2788.358 6        37.443                  
  21762737.802 7 114363947.426 7      1708.189 7        45.243                  
  21323217.537 7 112054271.961 7      -791.667 7        44.523                  
  23514298.156 5 123568467.746 5     -3671.443 5        35.456                  
  24984481.669 7 131294327.990 7     -2007.590 7        44.400                  
  20435727.030 8 107390465.184 8       815.850 8        49.582                  
 02  5 18 00 01 46.0000000  0  7G01G23G21G10G16G07G08                           
  23723071.493 6 124665577.620 6      3304.365 6        38.728                  
  23035089.182 6 121050187.970 6     -2776.740 6        36.061                  
  21762418.394 7 114362240.496 7      1710.376 7        43.918                  
  21323366.225 7 112055060.083 7      -791.194 7        43.505                  
  23514997.889 5 123572148.792 5     -3692.100 5        35.418                  
  24984854.292 7 131296339.758 7     -2009.162 7        44.384                  
  20435571.944 8 107389647.849 8       817.364 8        49.974                  
 02  5 18 00 01 47.0000000  0  7G01G23G21G10G16G07G08                           
  23722443.826 6 124662272.851 6      3306.656 6        38.083                  
  23035616.461 5 121052972.529 5     -2776.674 5        35.866                  
  21762089.621 7 114360534.045 7      1697.383 7        43.864                  
  21323517.361 7 112055848.627 7      -785.487 7        43.723                  
  23515699.730 5 123575830.443 5     -3672.618 5        35.606                  
  24985251.985 7 131298351.488 7     -2011.696 7        44.718                  
  20435410.015 8 107388830.533 8       815.870 8        49.481                  
 02  5 18 00 01 48.0000000  0  6G01G23G21G10G07G08                              
  23721815.086 6 124658968.235 6      3308.700 6        38.276                  
  23036139.701 6 121055757.401 6     -2775.365 6        36.085                  
  21761762.154 7 114358827.937 7      1708.910 7        43.721                  
  21323667.318 7 112056637.678 7      -789.958 7        43.144                  
  24985633.364 7 131300363.582 7     -2015.391 7        44.663                  
  20435256.824 8 107388014.064 8       815.286 8        49.733                  
 02  5 18 00 01 49.0000000  0  6G01G23G21G10G07G08                              
  23721183.935 6 124655663.778 6      3311.629 6        37.903                  
  23036676.094 6 121058542.636 6     -2774.224 6        36.142                  
  21761436.491 7 114357121.908 7      1708.635 7        43.696                  
  21323816.810 7 112057427.547 7      -794.774 7        43.383                  
  24986002.538 7 131302376.316 7     -2016.861 7        42.365                  
  20435100.667 8 107387197.953 8       818.795 8        50.254                  
 02  5 18 00 01 50.0000000  0  6G01G23G21G10G07G08                              
  23720554.462 6 124652359.423 6      3314.305 6        38.232                  
  23037204.248 6 121061328.215 6     -2784.129 6        36.204                  
  21761113.026 7 114355416.462 7      1702.889 7        43.355                  
  21323968.161 7 112058217.897 7      -783.356 7        43.596                  
  24986403.787 7 131304389.052 7     -2012.910 7        44.697                  
  20434943.080 8 107386382.050 8       813.489 8        50.652                  
 02  5 18 00 01 51.0000000  0  6G01G23G21G10G07G08                              
  23719927.564 6 124649055.317 6      3293.258 6        37.530                  
  23037734.869 6 121064114.209 6     -2779.976 6        36.065                  
  21760789.757 6 114353711.095 6      1693.401 6        41.820                  
  21324117.278 7 112059008.929 7      -793.401 7        42.279                  
  24986772.049 7 131306402.274 7     -2025.134 7        42.853                  
  20434786.762 8 107385566.787 8       812.558 8        49.431                  
 02  5 18 00 01 52.0000000  0  6G01G23G21G10G07G08                              
  23719297.841 5 124645751.419 5      3312.257 5        35.417                  
  23038267.741 5 121066900.591 5     -2796.262 5        35.680                  
  21760468.168 6 114352006.018 6      1711.288 6        37.356                  
  21324269.003 6 112059800.488 6      -795.848 6        38.233                  
  24987160.075 6 131308415.833 6     -2012.773 6        37.306                  
  20434633.642 8 107384752.201 8       814.499 8        48.970                  
 02  5 18 00 01 53.0000000  0  6G01G23G21G10G07G08                              
  23718669.513 5 124642447.730 5      3303.639 5        35.065                  
  23038794.252 5 121069687.186 5     -2796.321 5        35.752                  
  21760143.238 6 114350301.296 6      1696.961 6        36.427                  
  21324418.621 6 112060592.607 6      -786.403 6        37.121                  
  24987539.166 6 131310429.756 6     -2010.516 6        36.103                  
  20434485.776 8 107383937.694 8       813.798 8        52.669                  
 02  5 18 00 01 54.0000000  0  6G01G23G21G10G07G08                              
  23718038.593 5 124639144.416 5      3311.891 5        35.343                  
  23039327.374 5 121072473.427 5     -2792.110 5        35.951                  
  21759817.075 6 114348596.925 6      1708.114 6        37.504                  
  21324570.704 6 112061385.194 6      -793.104 6        37.934                  
  24987926.478 6 131312443.591 6     -2013.055 6        39.294                  
  20434329.511 8 107383123.643 8       812.461 8        52.687                  
 02  5 18 00 01 55.0000000  0  6G01G23G21G10G07G08                              
  23717411.802 5 124635842.185 5      3301.602 5        35.655                  
  23039860.246 6 121075257.179 6     -2792.207 6        36.122                  
  21759489.125 6 114346892.970 6      1709.865 6        37.684                  
  21324720.768 6 112062177.963 6      -791.620 6        37.890                  
  24988307.713 6 131314456.522 6     -2009.174 6        40.977                  
  20434169.798 8 107382309.031 8       816.015 8        50.151                  
 02  5 18 00 01 56.0000000  0  6G01G23G21G10G07G08                              
  23716781.954 5 124632540.475 5      3307.797 5        35.773                  
  23040390.385 6 121078039.429 6     -2790.544 6        36.430                  
  21759165.392 6 114345189.243 6      1709.265 6        37.752                  
  21324871.243 6 112062971.050 6      -794.623 6        37.958                  
  24988689.342 6 131316468.771 6     -2009.226 6        41.641                  
  20434018.930 8 107381494.442 8       812.476 8        49.183                  
 02  5 18 00 01 57.0000000  0  6G01G23G21G10G07G08                              
  23716153.251 5 124629239.172 5      3307.660 5        35.914                  
  23040918.271 6 121080821.629 6     -2789.852 6        36.829                  
  21758844.267 6 114343485.772 6      1703.624 6        37.904                  
  21325022.576 6 112063764.684 6      -793.323 6        38.012                  
  24989074.473 6 131318480.947 6     -2022.679 6        41.847                  
  20433867.704 8 107380680.277 8       811.828 8        49.634                  
 02  5 18 00 01 58.0000000  0  6G01G23G21G10G07G08                              
  23715529.657 6 124625937.991 6      3295.048 6        36.026                  
  23041445.372 6 121083604.146 6     -2783.430 6        37.179                  
  21758522.500 6 114341782.608 6      1702.567 6        38.186                  
  21325174.034 6 112064558.915 6      -794.419 6        38.097                  
  24989457.817 6 131320493.567 6     -2010.053 6        41.715                  
  20433705.936 8 107379866.212 8       817.254 8        49.467                  
 02  5 18 00 01 59.0000000  0  6G01G23G21G10G07G08                              
  23714896.361 6 124622636.873 6      3303.962 6        36.097                  
  23041972.955 6 121086387.074 6     -2778.456 6        37.780                  
  21758198.177 6 114340079.710 6      1703.795 6        38.279                  
  21325324.956 6 112065353.767 6      -796.378 6        38.244                  
  24989839.303 6 131322506.503 6     -2014.885 6        40.296                  
  20433556.676 8 107379052.831 8       811.662 8        49.714                  
 02  5 18 00 02  0.0000000  0  6G01G23G21G10G07G08                              
  23714265.370 6 124619336.053 6      3308.927 6        36.244                  
  23042503.986 6 121089170.389 6     -2774.100 6        38.312                  
  21757872.139 6 114338377.108 6      1702.279 6        38.488                  
  21325476.467 6 112066149.200 6      -794.348 6        38.370                  
  24990220.413 6 131324519.693 6     -2008.298 6        41.312                  
  20433406.898 8 107378240.005 8       813.155 8        49.968                  
 02  5 18 00 02  1.0000000  0  6G01G23G21G10G07G08                              
  23713643.153 6 124616035.362 6      3297.395 6        36.642                  
  23043035.429 6 121091954.089 6     -2784.899 6        38.661                  
  21757545.350 6 114336674.811 6      1701.660 6        38.464                  
  21325627.657 6 112066945.212 6      -792.163 6        38.295                  
  24990609.082 6 131326533.449 6     -2014.044 6        40.574                  
  20433245.416 8 107377427.247 8       813.520 8        48.059                  
 02  5 18 00 02  2.0000000  0  6G01G23G21G10G07G08                              
  23713015.164 6 124612734.734 6      3299.660 6        37.023                  
  23043564.745 6 121094738.151 6     -2791.015 6        39.075                  
  21757220.902 6 114334972.789 6      1701.803 6        38.713                  
  21325780.276 6 112067741.832 6      -798.838 6        38.538                  
  24990987.137 6 131328547.225 6     -2014.706 6        41.157                  
  20433096.549 8 107376615.303 8       809.981 8        48.935                  
 02  5 18 00 02  3.0000000  0  6G01G23G21G10G07G08                              
  23712383.798 6 124609434.384 6      3305.928 6        37.438                  
  23044095.312 6 121097522.573 6     -2787.831 6        39.651                  
  21756901.047 6 114333271.063 6      1701.296 6        38.836                  
  21325932.341 6 112068539.086 6      -798.950 6        38.873                  
  24991372.108 6 131330561.690 6     -2010.246 6        41.276                  
  20432945.520 8 107375803.857 8       810.621 8        49.860                  
 02  5 18 00 02  4.0000000  0  6G01G23G21G10G07G08                              
  23711757.578 6 124606134.126 6      3293.106 6        37.467                  
  23044623.431 6 121100307.381 6     -2787.606 6        40.278                  
  21756577.635 6 114331569.599 6      1699.704 6        38.760                  
  21326084.246 6 112069336.949 6      -797.638 6        38.988                  
  24991755.756 6 131332576.375 6     -2018.920 6        41.664                  
  20432783.358 8 107374992.484 8       811.233 8        49.467                  
 02  5 18 00 02  5.0000000  0  6G01G23G21G10G07G08                              
  23711127.356 6 124602834.026 6      3299.781 6        37.794                  
  23045154.070 6 121103092.594 6     -2787.369 6        41.026                  
  21756253.456 6 114329868.448 6      1699.423 6        38.783                  
  21326236.115 6 112070135.376 6      -795.607 6        39.184                  
  24992137.170 7 131334591.285 7     -2013.131 7        42.628                  
  20432635.993 8 107374181.897 8       808.230 8        49.660                  
 02  5 18 00 02  6.0000000  0  6G01G23G21G10G07G08                              
  23710496.883 6 124599534.134 6      3304.413 6        37.862                  
  23045682.796 6 121105878.192 6     -2789.481 6        41.909                  
  21755927.382 6 114328167.569 6      1699.592 6        39.085                  
  21326389.520 6 112070934.427 6      -802.245 6        39.084                  
  24992522.855 6 131336606.765 6     -2011.974 6        40.956                  
  20432485.768 8 107373371.816 8       808.217 8        49.882                  
 02  5 18 00 02  7.0000000  0  7G01G23G21G10G16G07G08                           
  23709870.484 6 124596234.347 6      3306.783 6        38.355                  
  23046212.362 7 121108664.162 7     -2780.839 7        42.482                  
  21755601.683 6 114326466.960 6      1701.768 6        39.201                  
  21326544.052 6 112071734.098 6      -802.532 6        39.184                  
  23529745.426 7 123649634.510 7     -3696.077 7        45.918                  
  24992905.538 6 131338622.468 6     -2012.516 6        40.811                  
  20432326.894 8 107372562.051 8       814.700 8        49.333                  
 02  5 18 00 02  9.0000000  0  7G01G23G21G10G16G07G08                           
  23708620.439 6 124589635.314 6      3296.758 6        39.022                  
  23047276.052 7 121114237.226 7     -2788.164 7        44.349                  
  21754954.574 6 114323066.659 6      1707.655 6        36.814                  
  21326844.233 6 112073335.175 6      -794.922 6        37.407                  
  23531149.145 7 123657026.699 7     -3696.133 7        46.305                  
  24993671.011 5 131342655.053 5     -2009.797 5        35.098                  
  20432020.494 8 107370943.782 8       810.583 8        49.068                  
 02  5 18 00 02 10.0000000  0  7G01G23G21G10G16G07G08                           
  23707990.752 6 124586336.015 6      3295.978 6        39.344                  
  23047803.992 7 121117024.364 7     -2787.551 7        44.841                  
  21754636.541 6 114321366.920 6      1691.091 6        36.912                  
  21326998.193 6 112074136.610 6      -798.985 6        37.411                  
  23531851.201 7 123660723.053 7     -3697.147 7        45.997                  
  24994056.124 5 131344671.862 5     -2029.245 5        35.106                  
  20431869.519 8 107370135.345 8       808.415 8        50.359                  
 02  5 18 00 02 11.0000000  0  7G01G23G21G10G16G07G08                           
  23707363.675 6 124583036.902 6      3300.056 6        40.511                  
  23048335.667 7 121119811.858 7     -2787.580 7        45.612                  
  21754312.487 6 114319667.508 6      1705.445 6        37.175                  
  21327154.279 6 112074938.698 6      -808.812 6        37.677                  
  23532555.687 7 123664419.626 7     -3696.545 7        46.328                  
  24994436.234 5 131346688.959 5     -2014.094 5        35.496                  
  20431715.934 9 107369327.499 9       808.160 9        57.725                  
 02  5 18 00 02 12.0000000  0  7G01G23G21G10G16G07G08                           
  23706736.383 6 124579737.920 6      3297.788 6        41.394                  
  23048866.985 7 121122599.727 7     -2790.273 7        47.837                  
  21753988.950 6 114317968.371 6      1701.567 6        37.361                  
  21327306.416 6 112075741.362 6      -802.068 6        37.855                  
  23533260.459 7 123668116.381 7     -3694.312 7        46.962                  
  24994819.364 6 131348706.463 6     -2010.315 6        36.090                  
  20431557.043 9 107368519.992 9       807.928 9        55.448                  
 02  5 18 00 02 14.0000000  0  7G01G23G21G10G16G07G08                           
  23705483.014 7 124573140.412 7      3302.470 7        42.746                  
  23049927.690 8 121128176.219 8     -2787.630 8        48.503                  
  21753338.160 6 114314570.745 6      1702.821 6        38.018                  
  21327612.691 6 112077348.462 6      -811.545 6        38.591                  
  23534667.109 8 123675511.370 8     -3697.416 8        49.095                  
  24995589.126 6 131352742.017 6     -2011.798 6        36.217                  
  20431243.674 8 107366906.417 8       808.314 8        49.255                  
 02  5 18 00 02 15.0000000  0  7G01G23G21G10G16G07G08                           
  23704849.646 7 124569829.530 7      3321.719 7        44.395                  
  23050457.488 8 121130973.358 8     -2807.017 8        48.585                  
  21753015.821 6 114312862.925 6      1716.467 6        39.231                  
  21327766.096 6 112078160.262 6      -817.967 6        39.731                  
  23535371.130 8 123679209.558 8     -3699.910 8        49.552                  
  24995975.079 6 131354746.762 6     -1996.180 6        39.988                  
  20431086.051 8 107366096.575 8       814.506 8        48.862                  
 02  5 18 00 02 16.0000000  0  7G01G23G21G10G16G07G08                           
  23704213.634 7 124566499.172 7      3329.503 7        44.544                  
  23050995.346 7 121133784.022 7     -2809.030 7        47.355                  
  21752692.785 7 114311140.417 7      1721.513 7        42.013                  
  21327922.289 6 112078984.226 6      -824.009 6        41.884                  
  23536075.849 8 123682908.720 8     -3701.155 8        49.921                  
  24996362.157 7 131356730.471 7     -1976.950 7        44.048                  
  20430933.879 7 107365281.941 7       820.505 7        45.089                  
 02  5 18 00 02 17.0000000  0  7G01G23G21G10G16G07G08                           
  23703586.217 7 124563180.017 7      3303.119 7        44.235                  
  23051525.234 8 121136581.535 8     -2789.121 8        49.133                  
  21752364.495 6 114309425.178 6      1703.917 6        40.250                  
  21328079.215 6 112079802.332 6      -814.467 6        40.748                  
  23536780.764 8 123686620.366 8     -3719.249 8        48.776                  
  24996725.327 7 131358720.290 7     -2002.542 7        42.007                  
  20430780.545 7 107364467.967 7       809.022 7        45.734                  
 02  5 18 00 02 18.0000000  0  7G01G23G21G10G16G07G08                           
  23702957.799 7 124559877.714 7      3296.288 7        45.567                  
  23052055.658 8 121139362.009 8     -2779.942 8        50.395                  
  21752039.422 6 114307721.334 6      1704.177 6        39.294                  
  21328230.923 6 112080611.253 6      -806.951 6        40.123                  
  23537490.253 7 123690344.638 7     -3726.371 7        47.792                  
  24997102.060 6 131360722.474 6     -2005.476 6        39.919                  
  20430622.136 7 107363656.147 7       810.198 7        46.172                  
 02  5 18 00 02 19.0000000  0  7G01G23G21G10G16G07G08                           
  23702329.631 7 124556576.521 7      3299.819 7        45.759                  
  23052582.973 8 121142141.398 8     -2778.071 8        49.927                  
  21751713.866 6 114306018.367 6      1697.783 6        39.634                  
  21328388.046 6 112081420.210 6      -811.769 6        40.411                  
  23538198.992 8 123694070.761 8     -3727.020 8        48.235                  
  24997492.391 6 131362725.293 6     -2009.534 6        39.746                  
  20430463.227 7 107362844.752 7       814.547 7        46.699                  
 02  5 18 00 02 20.0000000  0  7G01G23G21G10G16G07G08                           
  23701700.892 7 124553275.413 7      3300.596 7        45.845                  
  23053114.183 8 121144921.131 8     -2781.140 8        48.980                  
  21751388.060 6 114304315.562 6      1697.969 6        39.874                  
  21328538.628 6 112082229.773 6      -807.950 6        40.821                  
