$GPRMC,000030.00,A,4852.4427069,N,00217.6080740,E,2.66,20.50,180502,0.0,E,A*05
$GPGGA,000030.00,4852.4427069,N,00217.6080740,E,1,05,1.0,-6.627,M,0.000,M,0.0,*55
$GPGSA,A,3,01,08,10,16,21,,,,,,,,3.7,2.1,3.1,1*26
$GPGSV,2,1,05,01,15,255,47,08,73,299,56,10,56,076,55,16,27,182,50,1*64
$GPGSV,2,2,05,21,45,263,54,,,,,,,,,,,,,1*55
$GPRMC,000031.00,A,4852.4438917,N,00217.6107670,E,1.58,20.50,180502,0.0,E,A*08
$GPGGA,000031.00,4852.4438917,N,00217.6107670,E,1,05,1.0,-16.164,M,0.000,M,0.0,*67
$GPGSA,A,3,01,08,10,16,21,,,,,,,,3.7,2.1,3.1,1*26
$GPGSV,2,1,05,01,15,255,46,08,73,299,57,10,56,076,54,16,27,182,51,1*64
$GPGSV,2,2,05,21,45,263,54,,,,,,,,,,,,,1*55
$GPRMC,000032.00,A,4852.4422342,N,00217.6114855,E,2.09,21.55,180502,0.0,E,A*02
$GPGGA,000032.00,4852.4422342,N,00217.6114855,E,1,05,1.0,-15.704,M,0.000,M,0.0,*6D
$GPGSA,A,3,01,08,10,16,21,,,,,,,,3.7,2.1,3.1,1*26
$GPGSV,2,1,05,01,15,255,47,08,73,299,58,10,56,076,55,16,27,182,51,1*6B
$GPGSV,2,2,05,21,45,263,53,,,,,,,,,,,,,1*52
$GPRMC,000033.00,A,4852.4432742,N,00217.6095402,E,3.62,7.64,180502,0.0,E,A*3A
$GPGGA,000033.00,4852.4432742,N,00217.6095402,E,1,05,1.0,-18.805,M,0.000,M,0.0,*6C
$GPGSA,A,3,01,08,10,16,21,,,,,,,,3.7,2.1,3.1,1*26
$GPGSV,2,1,05,01,15,255,48,08,73,299,57,10,56,076,54,16,27,182,49,1*63
$GPGSV,2,2,05,21,45,263,53,,,,,,,,,,,,,1*52
$GPRMC,000034.00,A,4852.4438143,N,00217.6105830,E,1.89,7.64,180502,0.0,E,A*32
$GPGGA,000034.00,4852.4438143,N,00217.6105830,E,1,05,1.0,-22.896,M,0.000,M,0.0,*60
$GPGSA,A,3,01,08,10,16,21,,,,,,,,3.7,2.1,3.1,1*26
$GPGSV,2,1,05,01,15,255,48,08,73,299,56,10,56,076,54,16,27,182,50,1*6A
$GPGSV,2,2,05,21,45,263,52,,,,,,,,,,,,,1*53
$GPRMC,000035.00,A,4852.4420306,N,00217.6105843,E,1.74,7.64,180502,0.0,E,A*3F
$GPGGA,000035.00,4852.4420306,N,00217.6105843,E,1,05,1.0,-16.928,M,0.000,M,0.0,*6C
$GPGSA,A,3,01,08,10,16,21,,,,,,,,3.7,2.1,3.1,1*26
$GPGSV,2,1,05,01,15,255,47,08,73,299,58,10,56,076,57,16,27,182,50,1*68
$GPGSV,2,2,05,21,45,263,52,,,,,,,,,,,,,1*53
$GPRMC,000036.00,A,4852.4427075,N,00217.6093562,E,0.44,7.64,180502,0.0,E,A*3E
$GPGGA,000036.00,4852.4427075,N,00217.6093562,E,1,05,1.0,-12.401,M,0.000,M,0.0,*6D
$GPGSA,A,3,01,08,10,16,21,,,,,,,,3.7,2.1,3.1,1*26
$GPGSV,2,1,05,01,15,255,49,08,73,299,57,10,56,076,58,16,27,182,50,1*66
$GPGSV,2,2,05,21,45,263,54,,,,,,,,,,,,,1*55
$GPRMC,000037.00,A,4852.4417377,N,00217.6069172,E,1.95,47.58,180502,0.0,E,A*0B
$GPGGA,000037.00,4852.4417377,N,00217.6069172,E,1,05,1.0,-6.049,M,0.000,M,0.0,*53
$GPGSA,A,3,01,08,10,16,21,,,,,,,,3.7,2.1,3.1,1*26
$GPGSV,2,1,05,01,15,255,47,08,73,299,59,10,56,076,56,16,27,182,49,1*60
$GPGSV,2,2,05,21,45,263,54,,,,,,,,,,,,,1*55
$GPRMC,000038.00,A,4852.4407692,N,00217.6066588,E,3.19,0.04,180502,0.0,E,A*39
$GPGGA,000038.00,4852.4407692,N,00217.6066588,E,1,05,1.0,0.981,M,0.000,M,0.0,*7B
$GPGSA,A,3,01,08,10,16,21,,,,,,,,3.7,2.1,3.1,1*26
$GPGSV,2,1,05,01,15,255,47,08,73,299,54,10,56,076,55,16,27,182,50,1*66
$GPGSV,2,2,05,21,45,263,53,,,,,,,,,,,,,1*52
$GPRMC,000039.00,A,4852.4414839,N,00217.6079004,E,2.79,10.16,180502,0.0,E,A*0F
$GPGGA,000039.00,4852.4414839,N,00217.6079004,E,1,05,1.0,-1.870,M,0.000,M,0.0,*5B
$GPGSA,A,3,01,08,10,16,21,,,,,,,,3.7,2.1,3.1,1*26
$GPGSV,2,1,05,01,15,255,48,08,73,299,56,10,56,076,54,16,27,182,50,1*6A
$GPGSV,2,2,05,21,45,263,52,,,,,,,,,,,,,1*53
$GPRMC,000040.00,A,4852.4413935,N,00217.6075309,E,0.35,10.16,180502,0.0,E,A*03
$GPGGA,000040.00,4852.4413935,N,00217.6075309,E,1,05,1.0,-5.939,M,0.000,M,0.0,*55
$GPGSA,A,3,01,08,10,16,21,,,,,,,,3.7,2.1,3.1,1*26
$GPGSV,2,1,05,01,15,255,48,08,73,299,58,10,56,076,55,16,27,182,50,1*65
$GPGSV,2,2,05,21,45,263,52,,,,,,,,,,,,,1*53
$GPRMC,000041.00,A,4852.4411269,N,00217.6069181,E,1.12,10.16,180502,0.0,E,A*09
$GPGGA,000041.00,4852.4411269,N,00217.6069181,E,1,05,1.0,-6.449,M,0.000,M,0.0,*52
$GPGSA,A,3,01,08,10,16,21,,,,,,,,3.7,2.1,3.1,1*26
$GPGSV,2,1,05,01,15,255,47,08,73,299,55,10,56,076,54,16,27,182,50,1*66
$GPGSV,2,2,05,21,45,263,54,,,,,,,,,,,,,1*55
$GPRMC,000042.00,A,4852.4420206,N,00217.6087545,E,1.56,10.16,180502,0.0,E,A*0D
$GPGGA,000042.00,4852.4420206,N,00217.6087545,E,1,05,1.0,-12.316,M,0.000,M,0.0,*6E
$GPGSA,A,3,01,08,10,16,21,,,,,,,,3.7,2.1,3.1,1*26
$GPGSV,2,1,05,01,15,255,49,08,73,299,57,10,56,076,54,16,27,182,50,1*6A
$GPGSV,2,2,05,21,45,263,54,,,,,,,,,,,,,1*55
$GPRMC,000043.00,A,4852.4430649,N,00217.6108123,E,2.75,173.34,180502,0.0,E,A*36
$GPGGA,000043.00,4852.4430649,N,00217.6108123,E,1,05,1.0,-21.632,M,0.000,M,0.0,*60
$GPGSA,A,3,01,08,10,16,21,,,,,,,,3.7,2.1,3.1,1*26
$GPGSV,2,1,05,01,15,255,47,08,73,299,56,10,56,076,55,16,27,182,48,1*6D
$GPGSV,2,2,05,21,45,263,54,,,,,,,,,,,,,1*55
$GPRMC,000044.00,A,4852.4423588,N,00217.6094752,E,1.95,172.13,180502,0.0,E,A*30
$GPGGA,000044.00,4852.4423588,N,00217.6094752,E,1,05,1.0,-19.983,M,0.000,M,0.0,*61
$GPGSA,A,3,01,08,10,16,21,,,,,,,,3.7,2.1,3.1,1*26
$GPGSV,2,1,05,01,15,255,48,08,73,299,58,10,56,076,56,16,27,182,47,1*60
$GPGSV,2,2,05,21,45,263,52,,,,,,,,,,,,,1*53
$GPRMC,000045.00,A,4852.4421946,N,00217.6080061,E,1.25,172.13,180502,0.0,E,A*34
$GPGGA,000045.00,4852.4421946,N,00217.6080061,E,1,05,1.0,-13.599,M,0.000,M,0.0,*63
$GPGSA,A,3,01,08,10,16,21,,,,,,,,3.7,2.1,3.1,1*26
$GPGSV,2,1,05,01,15,255,48,08,73,299,57,10,56,076,56,16,27,182,48,1*60
$GPGSV,2,2,05,21,45,263,52,,,,,,,,,,,,,1*53
$GPRMC,000046.00,A,4852.4416221,N,00217.6091348,E,1.59,172.13,180502,0.0,E,A*3A
$GPGGA,000046.00,4852.4416221,N,00217.6091348,E,1,05,1.0,-14.072,M,0.000,M,0.0,*61
$GPGSA,A,3,01,08,10,16,21,,,,,,,,3.7,2.1,3.1,1*26
$GPGSV,2,1,05,01,15,255,49,08,73,299,55,10,56,076,56,16,27,182,49,1*62
$GPGSV,2,2,05,21,45,263,51,,,,,,,,,,,,,1*50
$GPRMC,000047.00,A,4852.4412486,N,00217.6087628,E,1.92,172.13,180502,0.0,E,A*37
$GPGGA,000047.00,4852.4412486,N,00217.6087628,E,1,05,1.0,-9.558,M,0.000,M,0.0,*5A
$GPGSA,A,3,01,08,10,16,21,,,,,,,,3.7,2.1,3.1,1*26
$GPGSV,2,1,05,01,15,255,50,08,73,299,57,10,56,076,57,16,27,182,48,1*68
$GPGSV,2,2,05,21,45,263,52,,,,,,,,,,,,,1*53
$GPRMC,000048.00,A,4852.4407527,N,00217.6058789,E,1.85,172.13,180502,0.0,E,A*38
$GPGGA,000048.00,4852.4407527,N,00217.6058789,E,1,05,1.0,1.170,M,0.000,M,0.0,*78
$GPGSA,A,3,01,08,10,16,21,,,,,,,,3.7,2.1,3.1,1*26
$GPGSV,2,1,05,01,15,255,50,08,73,299,56,10,56,076,55,16,27,182,50,1*62
$GPGSV,2,2,05,21,45,263,54,,,,,,,,,,,,,1*55
$GPRMC,000049.00,A,4852.4397732,N,00217.6049391,E,0.61,172.13,180502,0.0,E,A*37
$GPGGA,000049.00,4852.4397732,N,00217.6049391,E,1,05,1.0,4.613,M,0.000,M,0.0,*7B
$GPGSA,A,3,01,08,10,16,21,,,,,,,,3.7,2.1,3.1,1*26
$GPGSV,2,1,05,01,15,255,49,08,73,299,57,10,56,076,54,16,27,182,49,1*62
$GPGSV,2,2,05,21,45,263,51,,,,,,,,,,,,,1*50
$GPRMC,000050.00,A,4852.4408661,N,00217.6072109,E,2.96,178.39,180502,0.0,E,A*3A
$GPGGA,000050.00,4852.4408661,N,00217.6072109,E,1,05,1.0,-3.301,M,0.000,M,0.0,*52
$GPGSA,A,3,01,08,10,16,21,,,,,,,,3.7,2.1,3.1,1*26
$GPGSV,2,1,05,01,15,255,49,08,73,299,56,10,56,076,56,16,27,182,51,1*68
$GPGSV,2,2,05,21,45,263,52,,,,,,,,,,,,,1*53
$GPRMC,000051.00,A,4852.4408743,N,00217.6077202,E,0.51,178.39,180502,0.0,E,A*3E
$GPGGA,000051.00,4852.4408743,N,00217.6077202,E,1,05,1.0,-4.143,M,0.000,M,0.0,*5C
$GPGSA,A,3,01,08,10,16,21,,,,,,,,3.7,2.1,3.1,1*26
$GPGSV,2,1,05,01,15,255,49,08,73,299,56,10,56,076,55,16,27,182,52,1*68
$GPGSV,2,2,05,21,45,263,54,,,,,,,,,,,,,1*55
$GPRMC,000052.00,A,4852.4406155,N,00217.6066670,E,2.44,358.21,180502,0.0,E,A*3C
$GPGGA,000052.00,4852.4406155,N,00217.6066670,E,1,05,1.0,-5.742,M,0.000,M,0.0,*57
$GPGSA,A,3,01,08,10,16,21,,,,,,,,3.7,2.1,3.1,1*26
$GPGSV,2,1,05,01,15,255,48,08,73,299,56,10,56,076,56,16,27,182,49,1*60
$GPGSV,2,2,05,21,45,263,54,,,,,,,,,,,,,1*55
$GPRMC,000053.00,A,4852.4416940,N,00217.6079039,E,0.45,358.21,180502,0.0,E,A*36
$GPGGA,000053.00,4852.4416940,N,00217.6079039,E,1,06,1.0,-10.945,M,0.000,M,0.0,*60
$GPGSA,A,3,01,08,10,16,21,23,,,,,,,2.2,1.3,1.8,1*29
$GPGSV,2,1,06,01,15,255,48,08,73,299,58,10,56,076,56,16,27,182,49,1*6D
$GPGSV,2,2,06,21,45,263,52,23,27,048,49,,,,,,,,,1*65
$GPRMC,000054.00,A,4852.4413538,N,00217.6098245,E,0.60,358.21,180502,0.0,E,A*36
$GPGGA,000054.00,4852.4413538,N,00217.6098245,E,1,06,1.0,-14.481,M,0.000,M,0.0,*66
$GPGSA,A,3,01,08,10,16,21,23,,,,,,,2.2,1.3,1.8,1*29
$GPGSV,2,1,06,01,15,255,50,08,73,299,58,10,56,076,55,16,27,182,50,1*6F
$GPGSV,2,2,06,21,45,263,53,23,27,048,49,,,,,,,,,1*64
$GPRMC,000055.00,A,4852.4407942,N,00217.6100093,E,0.46,358.21,180502,0.0,E,A*3E
$GPGGA,000055.00,4852.4407942,N,00217.6100093,E,1,06,1.0,-15.555,M,0.000,M,0.0,*63
$GPGSA,A,3,01,08,10,16,21,23,,,,,,,2.2,1.3,1.8,1*29
$GPGSV,2,1,06,01,15,255,48,08,73,299,60,10,56,076,58,16,27,182,50,1*60
$GPGSV,2,2,06,21,45,263,52,23,27,048,50,,,,,,,,,1*6D
$GPRMC,000056.00,A,4852.4415699,N,00217.6085136,E,1.85,358.21,180502,0.0,E,A*3B
$GPGGA,000056.00,4852.4415699,N,00217.6085136,E,1,06,1.0,-13.659,M,0.000,M,0.0,*61
$GPGSA,A,3,01,08,10,16,21,23,,,,,,,2.2,1.3,1.8,1*29
$GPGSV,2,1,06,01,15,255,48,08,73,299,58,10,56,076,56,16,27,182,48,1*6C
$GPGSV,2,2,06,21,45,263,54,23,27,048,50,,,,,,,,,1*6B
$GPRMC,000057.00,A,4852.4410408,N,00217.6087308,E,0.92,358.21,180502,0.0,E,A*3F
$GPGGA,000057.00,4852.4410408,N,00217.6087308,E,1,06,1.0,-7.828,M,0.000,M,0.0,*5F
$GPGSA,A,3,01,08,10,16,21,23,,,,,,,2.2,1.3,1.8,1*29
$GPGSV,2,1,06,01,16,255,50,08,73,299,57,10,56,076,55,16,27,182,49,1*6B
$GPGSV,2,2,06,21,45,263,54,23,27,048,50,,,,,,,,,1*6B
$GPRMC,000058.00,A,4852.4411682,N,00217.6100770,E,1.29,358.21,180502,0.0,E,A*35
$GPGGA,000058.00,4852.4411682,N,00217.6100770,E,1,06,1.0,-9.760,M,0.000,M,0.0,*59
$GPGSA,A,3,01,08,10,16,21,23,,,,,,,2.2,1.3,1.8,1*29
$GPGSV,2,1,06,01,16,255,47,08,73,299,57,10,56,076,56,16,27,182,51,1*67
$GPGSV,2,2,06,21,45,263,52,23,27,048,51,,,,,,,,,1*6C
$GPRMC,000059.00,A,4852.4416412,N,00217.6086625,E,0.84,358.21,180502,0.0,E,A*30
$GPGGA,000059.00,4852.4416412,N,00217.6086625,E,1,06,1.0,-5.342,M,0.000,M,0.0,*52
$GPGSA,A,3,01,08,10,16,21,23,,,,,,,2.2,1.3,1.8,1*29
$GPGSV,2,1,06,01,16,255,50,08,73,299,57,10,56,076,57,16,26,182,52,1*62
$GPGSV,2,2,06,21,45,263,53,23,27,048,51,,,,,,,,,1*6D
$GPRMC,000100.00,A,4852.4419971,N,00217.6067557,E,0.64,358.21,180502,0.0,E,A*3D
$GPGGA,000100.00,4852.4419971,N,00217.6067557,E,1,06,1.0,0.366,M,0.000,M,0.0,*7F
$GPGSA,A,3,01,08,10,16,21,23,,,,,,,2.2,1.3,1.8,1*29
$GPGSV,2,1,06,01,16,255,49,08,73,299,56,10,56,076,58,16,26,182,51,1*67
$GPGSV,2,2,06,21,45,263,52,23,27,048,50,,,,,,,,,1*6D
$GPRMC,000101.00,A,4852.4413635,N,00217.6087926,E,0.57,358.21,180502,0.0,E,A*3D
$GPGGA,000101.00,4852.4413635,N,00217.6087926,E,1,06,1.0,-1.380,M,0.000,M,0.0,*5B
$GPGSA,A,3,01,08,10,16,21,23,,,,,,,2.2,1.3,1.8,1*29
$GPGSV,2,1,06,01,16,255,48,08,73,299,54,10,56,076,54,16,26,182,50,1*69
$GPGSV,2,2,06,21,45,263,52,23,27,048,50,,,,,,,,,1*6D
$GPRMC,000102.00,A,4852.4411673,N,00217.6092122,E,0.85,358.21,180502,0.0,E,A*39
$GPGGA,000102.00,4852.4411673,N,00217.6092122,E,1,06,1.0,-3.376,M,0.000,M,0.0,*5B
$GPGSA,A,3,01,08,10,16,21,23,,,,,,,2.2,1.3,1.8,1*29
$GPGSV,2,1,06,01,16,255,48,08,73,299,56,10,56,076,55,16,26,182,49,1*62
$GPGSV,2,2,06,21,45,263,53,23,27,048,50,,,,,,,,,1*6C
$GPRMC,000103.00,A,4852.4419445,N,00217.6087159,E,1.16,358.21,180502,0.0,E,A*34
$GPGGA,000103.00,4852.4419445,N,00217.6087159,E,1,06,1.0,-7.976,M,0.000,M,0.0,*53
$GPGSA,A,3,01,08,10,16,21,23,,,,,,,2.2,1.3,1.8,1*29
$GPGSV,2,1,06,01,16,255,48,08,73,299,57,10,56,076,56,16,26,182,50,1*68
$GPGSV,2,2,06,21,45,263,53,23,27,048,51,,,,,,,,,1*6D
$GPRMC,000104.00,A,4852.4411494,N,00217.6085405,E,1.15,358.21,180502,0.0,E,A*3A
$GPGGA,000104.00,4852.4411494,N,00217.6085405,E,1,06,1.0,-6.460,M,0.000,M,0.0,*55
$GPGSA,A,3,01,08,10,16,21,23,,,,,,,2.2,1.3,1.8,1*29
$GPGSV,2,1,06,01,16,255,47,08,73,299,58,10,56,076,56,16,26,182,50,1*68
$GPGSV,2,2,06,21,45,263,54,23,27,048,50,,,,,,,,,1*6B
$GPRMC,000105.00,A,4852.4414985,N,00217.6094886,E,0.56,358.21,180502,0.0,E,A*32
$GPGGA,000105.00,4852.4414985,N,00217.6094886,E,1,06,1.0,-9.393,M,0.000,M,0.0,*5F
$GPGSA,A,3,01,08,10,16,21,23,,,,,,,2.2,1.3,1.8,1*29
$GPGSV,2,1,06,01,16,255,48,08,73,299,58,10,56,076,55,16,26,182,50,1*64
$GPGSV,2,2,06,21,45,263,53,23,27,048,50,,,,,,,,,1*6C
$GPRMC,000106.00,A,4852.4410751,N,00217.6109761,E,1.41,358.21,180502,0.0,E,A*36
$GPGGA,000106.00,4852.4410751,N,00217.6109761,E,1,06,1.0,-14.133,M,0.000,M,0.0,*68
$GPGSA,A,3,01,08,10,16,21,23,,,,,,,2.2,1.3,1.8,1*29
$GPGSV,2,1,06,01,16,255,48,08,73,299,57,10,56,076,55,16,26,182,51,1*6A
$GPGSV,2,2,06,21,45,263,53,23,27,048,50,,,,,,,,,1*6C
$GPRMC,000107.00,A,4852.4404965,N,00217.6100141,E,1.44,358.21,180502,0.0,E,A*33
$GPGGA,000107.00,4852.4404965,N,00217.6100141,E,1,06,1.0,-14.103,M,0.000,M,0.0,*6B
$GPGSA,A,3,01,08,10,16,21,23,,,,,,,2.2,1.3,1.8,1*29
$GPGSV,2,1,06,01,16,255,47,08,73,299,57,10,56,076,53,16,26,182,50,1*62
$GPGSV,2,2,06,21,45,263,51,23,27,048,51,,,,,,,,,1*6F
$GPRMC,000108.00,A,4852.4400318,N,00217.6092430,E,10.84,173.39,180502,0.0,E,A*0F
$GPGGA,000108.00,4852.4400318,N,00217.6092430,E,1,06,1.0,-12.168,M,0.000,M,0.0,*62
$GPGSA,A,3,01,08,10,16,21,23,,,,,,,2.2,1.3,1.8,1*29
$GPGSV,2,1,06,01,16,255,47,08,73,299,56,10,56,076,54,16,26,182,50,1*64
$GPGSV,2,2,06,21,45,263,52,23,27,048,51,,,,,,,,,1*6C
$GPRMC,000109.00,A,4852.4358963,N,00217.6093785,E,18.66,175.99,180502,0.0,E,A*06
$GPGGA,000109.00,4852.4358963,N,00217.6093785,E,1,06,1.0,-13.263,M,0.000,M,0.0,*6A
$GPGSA,A,3,01,08,10,16,21,23,,,,,,,2.2,1.3,1.8,1*29
$GPGSV,2,1,06,01,16,255,48,08,73,299,56,10,56,076,54,16,26,182,50,1*6B
$GPGSV,2,2,06,21,45,263,54,23,27,048,51,,,,,,,,,1*6A
$GPRMC,000110.00,A,4852.4284886,N,00217.6109097,E,28.49,175.30,180502,0.0,E,A*0F
$GPGGA,000110.00,4852.4284886,N,00217.6109097,E,1,06,1.0,-11.279,M,0.000,M,0.0,*67
$GPGSA,A,3,01,08,10,16,21,23,,,,,,,2.2,1.3,1.8,1*29
$GPGSV,2,1,06,01,16,255,48,08,73,299,57,10,56,076,55,16,26,182,49,1*63
$GPGSV,2,2,06,21,45,263,53,23,27,048,49,,,,,,,,,1*64
$GPRMC,000111.00,A,4852.4211889,N,00217.6112749,E,31.98,174.64,180502,0.0,E,A*07
$GPGGA,000111.00,4852.4211889,N,00217.6112749,E,1,06,1.0,-7.743,M,0.000,M,0.0,*50
$GPGSA,A,3,01,08,10,16,21,23,,,,,,,2.2,1.3,1.8,1*29
$GPGSV,2,1,06,01,16,255,49,08,73,299,55,10,56,076,57,16,26,182,50,1*6A
$GPGSV,2,2,06,21,45,263,54,23,27,048,50,,,,,,,,,1*6B
$GPRMC,000112.00,A,4852.4129540,N,00217.6093703,E,32.62,174.19,180502,0.0,E,A*0E
$GPGGA,000112.00,4852.4129540,N,00217.6093703,E,1,06,1.0,-8.274,M,0.000,M,0.0,*5B
$GPGSA,A,3,01,08,10,16,21,23,,,,,,,2.2,1.3,1.8,1*29
$GPGSV,2,1,06,01,16,255,49,08,73,299,56,10,56,076,56,16,26,182,50,1*68
$GPGSV,2,2,06,21,45,263,54,23,27,048,50,,,,,,,,,1*6B
$GPRMC,000113.00,A,4852.4031754,N,00217.6119103,E,32.09,174.60,180502,0.0,E,A*06
$GPGGA,000113.00,4852.4031754,N,00217.6119103,E,1,06,1.0,-5.357,M,0.000,M,0.0,*5D
$GPGSA,A,3,01,08,10,16,21,23,,,,,,,2.2,1.3,1.8,1*29
$GPGSV,2,1,06,01,16,255,50,08,73,299,57,10,56,076,57,16,26,182,49,1*68
$GPGSV,2,2,06,21,45,263,54,23,27,048,52,,,,,,,,,1*69
$GPRMC,000114.00,A,4852.3936570,N,00217.6143389,E,32.14,174.36,180502,0.0,E,A*0C
$GPGGA,000114.00,4852.3936570,N,00217.6143389,E,1,06,1.0,-6.415,M,0.000,M,0.0,*5A
$GPGSA,A,3,01,08,10,16,21,23,,,,,,,2.2,1.3,1.8,1*29
$GPGSV,2,1,06,01,16,255,48,08,73,299,56,10,56,076,56,16,26,182,48,1*60
$GPGSV,2,2,06,21,45,263,52,23,27,048,51,,,,,,,,,1*6C
$GPRMC,000115.00,A,4852.3844516,N,00217.6146064,E,32.26,174.86,180502,0.0,E,A*06
$GPGGA,000115.00,4852.3844516,N,00217.6146064,E,1,06,1.0,-2.842,M,0.000,M,0.0,*50
$GPGSA,A,3,01,08,10,16,21,23,,,,,,,2.2,1.3,1.8,1*29
$GPGSV,2,1,06,01,16,255,45,08,73,299,56,10,56,076,55,16,26,182,47,1*61
$GPGSV,2,2,06,21,45,263,54,23,27,048,52,,,,,,,,,1*69
$GPRMC,000116.00,A,4852.3745219,N,00217.6162682,E,32.68,173.82,180502,0.0,E,A*02
$GPGGA,000116.00,4852.3745219,N,00217.6162682,E,1,06,1.0,-2.347,M,0.000,M,0.0,*53
$GPGSA,A,3,01,08,10,16,21,23,,,,,,,2.2,1.3,1.8,1*29
$GPGSV,2,1,06,01,16,255,47,08,73,299,57,10,56,076,54,16,26,182,49,1*6D
$GPGSV,2,2,06,21,45,263,53,23,27,048,50,,,,,,,,,1*6C
$GPRMC,000117.00,A,4852.3657484,N,00217.6209400,E,23.22,168.70,180502,0.0,E,A*0C
$GPGGA,000117.00,4852.3657484,N,00217.6209400,E,1,06,1.0,-6.417,M,0.000,M,0.0,*52
$GPGSA,A,3,01,08,10,16,21,23,,,,,,,2.2,1.3,1.8,1*29
$GPGSV,2,1,06,01,16,255,50,08,73,298,60,10,56,076,55,16,26,182,42,1*64
$GPGSV,2,2,06,21,45,263,54,23,27,048,48,,,,,,,,,1*62
$GPRMC,000118.00,A,4852.3624136,N,00217.6220624,E,13.65,157.98,180502,0.0,E,A*0E
$GPGGA,000118.00,4852.3624136,N,00217.6220624,E,1,06,1.0,-4.781,M,0.000,M,0.0,*54
$GPGSA,A,3,01,08,10,16,21,23,,,,,,,2.2,1.3,1.8,1*29
$GPGSV,2,1,06,01,16,255,45,08,73,298,58,10,56,076,51,16,26,182,50,1*6C
$GPGSV,2,2,06,21,45,263,53,23,27,048,46,,,,,,,,,1*6B
$GPRMC,000119.00,A,4852.3593336,N,00217.6239778,E,13.32,139.27,180502,0.0,E,A*0C
$GPGGA,000119.00,4852.3593336,N,00217.6239778,E,1,06,1.0,-9.501,M,0.000,M,0.0,*5F
$GPGSA,A,3,01,08,10,16,21,23,,,,,,,2.2,1.3,1.8,1*29
$GPGSV,2,1,06,01,16,255,44,08,74,298,57,10,56,076,46,16,26,182,50,1*63
$GPGSV,2,2,06,21,45,263,53,23,27,048,52,,,,,,,,,1*6E
$GPRMC,000120.00,A,4852.3559813,N,00217.6300039,E,22.86,128.67,180502,0.0,E,A*0C
$GPGGA,000120.00,4852.3559813,N,00217.6300039,E,1,06,1.0,-5.504,M,0.000,M,0.0,*5F
$GPGSA,A,3,01,08,10,16,21,23,,,,,,,2.2,1.3,1.8,1*29
$GPGSV,2,1,06,01,16,255,52,08,74,298,52,10,56,076,46,16,26,182,49,1*69
$GPGSV,2,2,06,21,45,263,53,23,27,048,51,,,,,,,,,1*6D
$GPRMC,000121.00,A,4852.3513640,N,00217.6399972,E,31.65,121.13,180502,0.0,E,A*08
$GPGGA,000121.00,4852.3513640,N,00217.6399972,E,1,06,1.0,-7.798,M,0.000,M,0.0,*5B
$GPGSA,A,3,01,08,10,16,21,23,,,,,,,2.2,1.3,1.8,1*29
$GPGSV,2,1,06,01,16,255,48,08,74,298,57,10,56,076,52,16,26,182,46,1*6D
$GPGSV,2,2,06,21,45,263,49,23,27,048,47,,,,,,,,,1*61
$GPRMC,000122.00,A,4852.3466376,N,00217.6535924,E,31.68,120.07,180502,0.0,E,A*02
$GPGGA,000122.00,4852.3466376,N,00217.6535924,E,1,06,1.0,-12.710,M,0.000,M,0.0,*6C
$GPGSA,A,3,01,08,10,16,21,23,,,,,,,2.2,1.3,1.8,1*29
$GPGSV,2,1,06,01,16,255,46,08,74,298,60,10,56,076,51,16,26,182,46,1*64
$GPGSV,2,2,06,21,45,263,49,23,27,048,49,,,,,,,,,1*6F
$GPRMC,000123.00,A,4852.3423250,N,00217.6640272,E,32.21,120.63,180502,0.0,E,A*02
$GPGGA,000123.00,4852.3423250,N,00217.6640272,E,1,06,1.0,-13.547,M,0.000,M,0.0,*61
$GPGSA,A,3,01,08,10,16,21,23,,,,,,,2.2,1.3,1.8,1*29
$GPGSV,2,1,06,01,16,255,44,08,74,298,58,10,56,076,50,16,26,182,46,1*6C
$GPGSV,2,2,06,21,45,263,49,23,27,048,48,,,,,,,,,1*6E
$GPRMC,000124.00,A,4852.3380063,N,00217.6756792,E,29.67,119.56,180502,0.0,E,A*00
$GPGGA,000124.00,4852.3380063,N,00217.6756792,E,1,06,1.0,-19.722,M,0.000,M,0.0,*6C
$GPGSA,A,3,01,08,10,16,21,23,,,,,,,2.2,1.3,1.8,1*29
$GPGSV,2,1,06,01,16,255,46,08,74,298,59,10,56,076,53,16,26,182,47,1*6D
$GPGSV,2,2,06,21,45,263,50,23,27,048,47,,,,,,,,,1*69
$GPRMC,000125.00,A,4852.3327260,N,00217.6863568,E,31.81,121.39,180502,0.0,E,A*00
$GPGGA,000125.00,4852.3327260,N,00217.6863568,E,1,06,1.0,-10.996,M,0.000,M,0.0,*67
$GPGSA,A,3,01,08,10,16,21,23,,,,,,,2.2,1.3,1.8,1*29
$GPGSV,2,1,06,01,16,255,48,08,74,298,60,10,56,076,51,16,26,182,47,1*6B
$GPGSV,2,2,06,21,45,263,50,23,27,048,46,,,,,,,,,1*68
$GPRMC,000126.00,A,4852.3283004,N,00217.6993536,E,33.22,121.21,180502,0.0,E,A*0B
$GPGGA,000126.00,4852.3283004,N,00217.6993536,E,1,06,1.0,-12.093,M,0.000,M,0.0,*60
$GPGSA,A,3,01,08,10,16,21,23,,,,,,,2.2,1.3,1.8,1*29
$GPGSV,2,1,06,01,16,255,46,08,74,298,59,10,56,076,54,16,26,182,48,1*65
$GPGSV,2,2,06,21,45,263,51,23,27,048,48,,,,,,,,,1*67
$GPRMC,000127.00,A,4852.3240111,N,00217.7120728,E,34.26,123.21,180502,0.0,E,A*0D
$GPGGA,000127.00,4852.3240111,N,00217.7120728,E,1,06,1.0,-19.925,M,0.000,M,0.0,*68
$GPGSA,A,3,01,08,10,16,21,23,,,,,,,2.2,1.3,1.8,1*29
$GPGSV,2,1,06,01,16,255,44,08,74,298,60,10,56,076,52,16,26,182,48,1*6B
$GPGSV,2,2,06,21,45,263,50,23,27,048,49,,,,,,,,,1*67
$GPRMC,000128.00,A,4852.3203549,N,00217.7227791,E,28.27,116.90,180502,0.0,E,A*0A
$GPGGA,000128.00,4852.3203549,N,00217.7227791,E,1,06,1.0,-11.726,M,0.000,M,0.0,*6A
$GPGSA,A,3,01,08,10,16,21,23,,,,,,,2.2,1.3,1.8,1*29
$GPGSV,2,1,06,01,16,255,45,08,74,298,54,10,56,076,52,16,26,182,49,1*6C
$GPGSV,2,2,06,21,45,263,50,23,27,048,48,,,,,,,,,1*66
$GPRMC,000129.00,A,4852.3165328,N,00217.7330995,E,18.58,110.63,180502,0.0,E,A*05
$GPGGA,000129.00,4852.3165328,N,00217.7330995,E,1,06,1.0,-10.278,M,0.000,M,0.0,*6B
$GPGSA,A,3,01,08,10,16,21,23,,,,,,,2.2,1.3,1.8,1*29
$GPGSV,2,1,06,01,16,255,40,08,74,298,47,10,56,076,46,16,26,182,42,1*65
$GPGSV,2,2,06,21,45,263,42,23,27,048,46,,,,,,,,,1*6B
$GPRMC,000130.00,A,4852.3141839,N,00217.7358020,E,14.70,86.38,180502,0.0,E,A*3F
$GPGGA,000130.00,4852.3141839,N,00217.7358020,E,1,06,1.0,-3.723,M,0.000,M,0.0,*5E
$GPGSA,A,3,01,08,10,16,21,23,,,,,,,2.2,1.3,1.8,1*29
$GPGSV,2,1,06,01,16,255,37,08,74,298,42,10,56,076,41,16,26,182,38,1*6A
$GPGSV,2,2,06,21,45,263,38,23,27,048,44,,,,,,,,,1*64
$GPRMC,000131.00,A,4852.3135067,N,00217.7477245,E,27.38,93.20,180502,0.0,E,A*34
$GPGGA,000131.00,4852.3135067,N,00217.7477245,E,1,06,1.0,-0.573,M,0.000,M,0.0,*50
$GPGSA,A,3,01,08,10,16,21,23,,,,,,,2.2,1.3,1.8,1*29
$GPGSV,2,1,06,01,16,255,44,08,74,298,44,10,56,076,46,16,26,182,36,1*61
$GPGSV,2,2,06,21,45,263,44,23,27,048,44,,,,,,,,,1*6F
$GPRMC,000132.00,A,4852.3158722,N,00217.7579352,E,32.26,94.11,180502,0.0,E,A*3C
$GPGGA,000132.00,4852.3158722,N,00217.7579352,E,1,06,1.0,-10.363,M,0.000,M,0.0,*60
$GPGSA,A,3,01,08,10,16,21,23,,,,,,,2.2,1.3,1.8,1*29
$GPGSV,2,1,06,01,16,255,41,08,74,298,50,10,56,076,44,16,26,182,36,1*63
$GPGSV,2,2,06,21,45,263,45,23,27,048,38,,,,,,,,,1*65
$GPRMC,000133.00,A,4852.3136626,N,00217.7739326,E,31.66,78.75,180502,0.0,E,A*32
$GPGGA,000133.00,4852.3136626,N,00217.7739326,E,1,06,1.0,-5.187,M,0.000,M,0.0,*55
$GPGSA,A,3,01,08,10,16,21,23,,,,,,,2.2,1.3,1.8,1*29
$GPGSV,2,1,06,01,16,255,39,08,74,298,50,10,56,076,44,16,26,182,36,1*6C
$GPGSV,2,2,06,21,45,263,44,23,27,048,36,,,,,,,,,1*6A
$GPRMC,000134.00,A,4852.3158573,N,00217.7853699,E,36.07,90.85,180502,0.0,E,A*35
$GPGGA,000134.00,4852.3158573,N,00217.7853699,E,1,06,1.0,1.396,M,0.000,M,0.0,*70
$GPGSA,A,3,01,08,10,16,21,23,,,,,,,2.2,1.3,1.8,1*29
$GPGSV,2,1,06,01,16,255,38,08,74,298,50,10,56,076,44,16,26,182,36,1*6D
$GPGSV,2,2,06,21,45,263,44,23,27,048,36,,,,,,,,,1*6A
$GPRMC,000135.00,A,4852.3224174,N,00217.7973572,E,32.20,78.93,180502,0.0,E,A*3A
$GPGGA,000135.00,4852.3224174,N,00217.7973572,E,1,05,1.0,-4.876,M,0.000,M,0.0,*51
$GPGSA,A,3,01,08,10,21,23,,,,,,,,4.1,3.6,1.9,1*2D
$GPGSV,2,1,05,01,16,255,38,08,74,298,50,10,56,076,43,21,45,263,44,1*61
$GPGSV,2,2,05,23,27,048,36,,,,,,,,,,,,,1*5C
$GPRMC,000136.00,A,4852.3158257,N,00217.8120204,E,30.94,68.06,180502,0.0,E,A*34
$GPGGA,000136.00,4852.3158257,N,00217.8120204,E,1,05,1.0,-1.130,M,0.000,M,0.0,*51
$GPGSA,A,3,01,08,10,21,23,,,,,,,,4.1,3.6,1.9,1*2D
$GPGSV,2,1,05,01,16,255,38,08,74,298,50,10,56,076,44,21,45,263,44,1*66
$GPGSV,2,2,05,23,27,048,36,,,,,,,,,,,,,1*5C
$GPRMC,000137.00,A,4852.3202083,N,00217.8235662,E,38.35,103.58,180502,0.0,E,A*05
$GPGGA,000137.00,4852.3202083,N,00217.8235662,E,1,05,1.0,-0.484,M,0.000,M,0.0,*5F
$GPGSA,A,3,01,08,10,21,23,,,,,,,,4.1,3.6,1.9,1*2D
$GPGSV,2,1,05,01,16,255,38,08,74,298,51,10,56,076,44,21,45,263,43,1*60
$GPGSV,2,2,05,23,27,048,36,,,,,,,,,,,,,1*5C
$GPRMC,000138.00,A,4852.3197719,N,00217.8384413,E,34.21,77.56,180502,0.0,E,A*3B
$GPGGA,000138.00,4852.3197719,N,00217.8384413,E,1,05,1.0,3.180,M,0.000,M,0.0,*7B
$GPGSA,A,3,01,08,10,21,23,,,,,,,,4.1,3.6,1.9,1*2D
$GPGSV,2,1,05,01,16,255,38,08,74,298,50,10,56,076,42,21,45,263,42,1*66
$GPGSV,2,2,05,23,27,048,36,,,,,,,,,,,,,1*5C
$GPRMC,000139.00,A,4852.3169037,N,00217.8535437,E,30.42,95.54,180502,0.0,E,A*35
$GPGGA,000139.00,4852.3169037,N,00217.8535437,E,1,05,1.0,0.384,M,0.000,M,0.0,*7F
$GPGSA,A,3,01,08,10,21,23,,,,,,,,4.1,3.6,1.9,1*2D
$GPGSV,2,1,05,01,16,255,36,08,74,298,49,10,56,076,38,21,45,263,37,1*6F
$GPGSV,2,2,05,23,27,048,36,,,,,,,,,,,,,1*5C
$GPRMC,000140.00,A,4852.3144602,N,00217.8713461,E,39.02,106.82,180502,0.0,E,A*0C
$GPGGA,000140.00,4852.3144602,N,00217.8713461,E,1,05,1.0,-11.393,M,0.000,M,0.0,*60
$GPGSA,A,3,01,08,10,21,23,,,,,,,,4.1,3.6,1.9,1*2D
$GPGSV,2,1,05,01,16,255,35,08,74,298,53,10,56,076,37,21,45,263,36,1*69
$GPGSV,2,2,05,23,27,048,36,,,,,,,,,,,,,1*5C
$GPRMC,000141.00,A,4852.3141985,N,00217.8828055,E,32.87,97.64,180502,0.0,E,A*3B
$GPGGA,000141.00,4852.3141985,N,00217.8828055,E,1,05,1.0,-9.440,M,0.000,M,0.0,*50
$GPGSA,A,3,01,08,10,21,23,,,,,,,,4.1,3.6,1.9,1*2D
$GPGSV,2,1,05,01,16,255,35,08,74,298,53,10,56,076,38,21,45,263,38,1*68
$GPGSV,2,2,05,23,27,048,36,,,,,,,,,,,,,1*5C
$GPRMC,000142.00,A,4852.3160999,N,00217.8935767,E,32.14,90.92,180502,0.0,E,A*39
$GPGGA,000142.00,4852.3160999,N,00217.8935767,E,1,05,1.0,2.243,M,0.000,M,0.0,*75
$GPGSA,A,3,01,08,10,21,23,,,,,,,,4.1,3.6,1.9,1*2D
$GPGSV,2,1,05,01,16,255,36,08,74,298,50,10,56,076,38,21,45,263,38,1*68
$GPGSV,2,2,05,23,27,048,36,,,,,,,,,,,,,1*5C
$GPRMC,000143.00,A,4852.3126625,N,00217.9100994,E,31.57,91.26,180502,0.0,E,A*35
$GPGGA,000143.00,4852.3126625,N,00217.9100994,E,1,05,1.0,-4.695,M,0.000,M,0.0,*57
$GPGSA,A,3,01,08,10,21,23,,,,,,,,4.1,3.6,1.9,1*2D
$GPGSV,2,1,05,01,16,255,36,08,74,298,49,10,56,076,38,21,45,263,38,1*60
$GPGSV,2,2,05,23,27,048,36,,,,,,,,,,,,,1*5C
$GPRMC,000144.00,A,4852.3125975,N,00217.9261940,E,33.56,94.70,180502,0.0,E,A*33
$GPGGA,000144.00,4852.3125975,N,00217.9261940,E,1,05,1.0,-12.420,M,0.000,M,0.0,*6F
$GPGSA,A,3,01,08,10,21,23,,,,,,,,4.1,3.6,1.9,1*2D
$GPGSV,2,1,05,01,16,255,36,08,74,298,50,10,56,076,38,21,45,263,38,1*68
$GPGSV,2,2,05,23,27,048,37,,,,,,,,,,,,,1*5D
$GPRMC,000145.00,A,4852.3231002,N,00217.9358870,E,32.52,74.74,180502,0.0,E,A*3B
$GPGGA,000145.00,4852.3231002,N,00217.9358870,E,1,05,1.0,-0.646,M,0.000,M,0.0,*59
$GPGSA,A,3,01,08,10,21,23,,,,,,,,4.1,3.6,1.9,1*2D
$GPGSV,2,1,05,01,16,255,36,08,74,298,50,10,56,076,38,21,45,263,38,1*68
$GPGSV,2,2,05,23,27,048,37,,,,,,,,,,,,,1*5D
$GPRMC,000146.00,A,4852.3198201,N,00217.9524965,E,32.40,75.82,180502,0.0,E,A*3A
$GPGGA,000146.00,4852.3198201,N,00217.9524965,E,1,05,1.0,-14.952,M,0.000,M,0.0,*6C
$GPGSA,A,3,01,08,10,21,23,,,,,,,,4.1,3.6,1.9,1*2D
$GPGSV,2,1,05,01,16,255,36,08,74,298,50,10,56,076,38,21,45,263,38,1*68
$GPGSV,2,2,05,23,27,048,38,,,,,,,,,,,,,1*52
$GPRMC,000147.00,A,4852.3159479,N,00217.9680066,E,33.39,77.07,180502,0.0,E,A*38
$GPGGA,000147.00,4852.3159479,N,00217.9680066,E,1,05,1.0,-23.063,M,0.000,M,0.0,*61
$GPGSA,A,3,01,08,10,21,23,,,,,,,,4.1,3.6,1.9,1*2D
$GPGSV,2,1,05,01,16,255,36,08,74,298,50,10,56,076,38,21,45,263,38,1*68
$GPGSV,2,2,05,23,27,048,38,,,,,,,,,,,,,1*52
$GPRMC,000148.00,A,4852.3235203,N,00217.9768962,E,33.83,85.40,180502,0.0,E,A*30
$GPGGA,000148.00,4852.3235203,N,00217.9768962,E,1,05,1.0,-5.252,M,0.000,M,0.0,*52
$GPGSA,A,3,01,08,10,21,23,,,,,,,,4.1,3.6,1.9,1*2D
$GPGSV,2,1,05,01,16,255,37,08,74,298,48,10,56,076,38,21,45,263,38,1*60
$GPGSV,2,2,05,23,27,048,39,,,,,,,,,,,,,1*53
$GPRMC,000149.00,A,4852.3230051,N,00217.9920276,E,32.07,85.56,180502,0.0,E,A*37
$GPGGA,000149.00,4852.3230051,N,00217.9920276,E,1,05,1.0,-13.157,M,0.000,M,0.0,*6E
$GPGSA,A,3,01,08,10,21,23,,,,,,,,4.1,3.6,1.9,1*2D
$GPGSV,2,1,05,01,16,255,37,08,74,298,49,10,55,076,38,21,45,263,39,1*63
$GPGSV,2,2,05,23,27,048,39,,,,,,,,,,,,,1*53
$GPRMC,000150.00,A,4852.3197654,N,00218.0087657,E,32.05,85.56,180502,0.0,E,A*35
$GPGGA,000150.00,4852.3197654,N,00218.0087657,E,1,05,1.0,-22.138,M,0.000,M,0.0,*65
$GPGSA,A,3,01,08,10,21,23,,,,,,,,4.1,3.6,1.9,1*2D
$GPGSV,2,1,05,01,16,255,38,08,74,298,50,10,55,076,39,21,45,263,39,1*65
$GPGSV,2,2,05,23,27,048,40,,,,,,,,,,,,,1*5D
$GPRMC,000151.00,A,4852.3291529,N,00218.0176820,E,33.05,80.01,180502,0.0,E,A*3F
$GPGGA,000151.00,4852.3291529,N,00218.0176820,E,1,05,1.0,-10.994,M,0.000,M,0.0,*66
$GPGSA,A,3,01,08,10,21,23,,,,,,,,4.1,3.6,1.9,1*2D
$GPGSV,2,1,05,01,16,255,38,08,74,298,50,10,55,076,39,21,45,263,39,1*65
$GPGSV,2,2,05,23,27,048,40,,,,,,,,,,,,,1*5D
$GPRMC,000152.00,A,4852.3242998,N,00218.0349421,E,34.35,89.48,180502,0.0,E,A*37
$GPGGA,000152.00,4852.3242998,N,00218.0349421,E,1,05,1.0,-22.194,M,0.000,M,0.0,*67
$GPGSA,A,3,01,08,10,21,23,,,,,,,,4.1,3.6,1.9,1*2D
$GPGSV,2,1,05,01,16,255,38,08,74,298,50,10,55,075,39,21,45,263,39,1*66
$GPGSV,2,2,05,23,27,048,41,,,,,,,,,,,,,1*5C
$GPRMC,000153.00,A,4852.3253060,N,00218.0480965,E,31.84,84.15,180502,0.0,E,A*3D
$GPGGA,000153.00,4852.3253060,N,00218.0480965,E,1,05,1.0,-30.601,M,0.000,M,0.0,*6F
$GPGSA,A,3,01,08,10,21,23,,,,,,,,4.1,3.6,1.9,1*2D
$GPGSV,2,1,05,01,16,255,38,08,74,298,50,10,55,075,39,21,45,263,39,1*66
$GPGSV,2,2,05,23,27,048,42,,,,,,,,,,,,,1*5F
$GPRMC,000154.00,A,4852.3393535,N,00218.0528577,E,31.57,76.25,180502,0.0,E,A*3E
$GPGGA,000154.00,4852.3393535,N,00218.0528577,E,1,06,1.0,-20.698,M,0.000,M,0.0,*6E
$GPGSA,A,3,01,08,10,16,21,23,,,,,,,2.2,1.3,1.8,1*29
$GPGSV,2,1,06,01,16,255,38,08,74,298,49,10,55,075,39,16,26,182,46,1*68
$GPGSV,2,2,06,21,45,263,39,23,27,048,42,,,,,,,,,1*63
$GPRMC,000156.00,A,4852.3390895,N,00218.0831493,E,32.47,80.85,180502,0.0,E,A*37
$GPGGA,000156.00,4852.3390895,N,00218.0831493,E,1,06,1.0,-12.598,M,0.000,M,0.0,*64
$GPGSA,A,3,01,08,10,16,21,23,,,,,,,2.2,1.3,1.8,1*29
$GPGSV,2,1,06,01,16,255,39,08,74,298,49,10,55,075,38,16,26,182,46,1*68
$GPGSV,2,2,06,21,45,263,37,23,27,048,44,,,,,,,,,1*6B
$GPRMC,000157.00,A,4852.3405037,N,00218.0986455,E,34.07,81.75,180502,0.0,E,A*36
$GPGGA,000157.00,4852.3405037,N,00218.0986455,E,1,06,1.0,-22.210,M,0.000,M,0.0,*6D
$GPGSA,A,3,01,08,10,16,21,23,,,,,,,2.2,1.3,1.8,1*29
$GPGSV,2,1,06,01,16,255,39,08,74,298,50,10,55,075,38,16,26,182,46,1*60
$GPGSV,2,2,06,21,45,263,37,23,27,048,45,,,,,,,,,1*6A
$GPRMC,000158.00,A,4852.3423591,N,00218.1104967,E,30.81,78.58,180502,0.0,E,A*38
$GPGGA,000158.00,4852.3423591,N,00218.1104967,E,1,06,1.0,-22.149,M,0.000,M,0.0,*6F
$GPGSA,A,3,01,08,10,16,21,23,,,,,,,2.2,1.3,1.8,1*29
$GPGSV,2,1,06,01,16,255,40,08,74,298,58,10,55,075,38,16,26,182,46,1*66
$GPGSV,2,2,06,21,45,263,37,23,27,048,46,,,,,,,,,1*69
$GPRMC,000159.00,A,4852.3443764,N,00218.1228748,E,32.24,82.39,180502,0.0,E,A*36
$GPGGA,000159.00,4852.3443764,N,00218.1228748,E,1,06,1.0,-14.485,M,0.000,M,0.0,*6E
$GPGSA,A,3,01,08,10,16,21,23,,,,,,,2.2,1.3,1.8,1*29
$GPGSV,2,1,06,01,16,255,42,08,74,298,56,10,55,075,38,16,26,182,47,1*6B
$GPGSV,2,2,06,21,45,263,37,23,27,048,48,,,,,,,,,1*67
$GPRMC,000201.00,A,4852.3477992,N,00218.1480120,E,30.65,77.44,180502,0.0,E,A*33
$GPGGA,000201.00,4852.3477992,N,00218.1480120,E,1,06,1.0,-5.227,M,0.000,M,0.0,*52
$GPGSA,A,3,01,08,10,16,21,23,,,,,,,2.2,1.3,1.8,1*29
$GPGSV,2,1,06,01,16,255,43,08,74,298,49,10,55,075,38,16,26,182,49,1*6A
$GPGSV,2,2,06,21,45,263,38,23,27,048,48,,,,,,,,,1*68
$GPRMC,000202.00,A,4852.3505760,N,00218.1594105,E,22.85,73.77,180502,0.0,E,A*3D
$GPGGA,000202.00,4852.3505760,N,00218.1594105,E,1,06,1.0,-6.486,M,0.000,M,0.0,*5B
$GPGSA,A,3,01,08,10,16,21,23,,,,,,,2.2,1.3,1.8,1*29
$GPGSV,2,1,06,01,16,255,44,08,74,298,49,10,55,075,40,16,26,182,50,1*6A
$GPGSV,2,2,06,21,45,263,39,23,27,048,48,,,,,,,,,1*69
$GPRMC,000203.00,A,4852.3516313,N,00218.1681117,E,20.27,67.57,180502,0.0,E,A*37
$GPGGA,000203.00,4852.3516313,N,00218.1681117,E,1,06,1.0,-9.658,M,0.000,M,0.0,*52
$GPGSA,A,3,01,08,10,16,21,23,,,,,,,2.2,1.3,1.8,1*29
$GPGSV,2,1,06,01,16,255,44,08,74,298,45,10,55,075,42,16,26,182,50,1*64
$GPGSV,2,2,06,21,45,263,42,23,27,048,47,,,,,,,,,1*6A
$GPRMC,000204.00,A,4852.3546571,N,00218.1785960,E,29.65,62.91,180502,0.0,E,A*3A
$GPGGA,000204.00,4852.3546571,N,00218.1785960,E,1,06,1.0,-10.580,M,0.000,M,0.0,*61
$GPGSA,A,3,01,08,10,16,21,23,,,,,,,2.2,1.3,1.8,1*29
$GPGSV,2,1,06,01,16,255,44,08,74,298,46,10,55,075,41,16,26,182,49,1*6C
$GPGSV,2,2,06,21,45,263,40,23,27,048,49,,,,,,,,,1*66
$GPRMC,000205.00,A,4852.3592811,N,00218.1894073,E,32.83,59.38,180502,0.0,E,A*34
$GPGGA,000205.00,4852.3592811,N,00218.1894073,E,1,06,1.0,-3.319,M,0.000,M,0.0,*52
$GPGSA,A,3,01,08,10,16,21,23,,,,,,,2.2,1.3,1.8,1*29
$GPGSV,2,1,06,01,16,255,46,08,74,298,46,10,55,075,40,16,26,182,48,1*6E
$GPGSV,2,2,06,21,45,263,39,23,27,048,50,,,,,,,,,1*60
$GPRMC,000206.00,A,4852.3649261,N,00218.1991647,E,32.94,57.66,180502,0.0,E,A*39
$GPGGA,000206.00,4852.3649261,N,00218.1991647,E,1,06,1.0,-1.099,M,0.000,M,0.0,*55
$GPGSA,A,3,01,08,10,16,21,23,,,,,,,2.2,1.3,1.8,1*29
$GPGSV,2,1,06,01,16,255,46,08,74,298,47,10,55,075,40,16,26,182,48,1*6F
$GPGSV,2,2,06,21,45,263,40,23,27,047,50,,,,,,,,,1*61
$GPRMC,000207.00,A,4852.3693713,N,00218.2104421,E,32.73,57.66,180502,0.0,E,A*33
$GPGGA,000207.00,4852.3693713,N,00218.2104421,E,1,06,1.0,2.737,M,0.000,M,0.0,*7B
$GPGSA,A,3,01,08,10,16,21,23,,,,,,,2.2,1.3,1.8,1*29
$GPGSV,2,1,06,01,16,255,46,08,74,298,47,10,55,075,41,16,26,182,48,1*6E
$GPGSV,2,2,06,21,45,263,40,23,27,047,49,,,,,,,,,1*69
$GPRMC,000208.00,A,4852.3746825,N,00218.2228829,E,32.79,59.57,180502,0.0,E,A*30
$GPGGA,000208.00,4852.3746825,N,00218.2228829,E,1,06,1.0,-10.241,M,0.000,M,0.0,*64
$GPGSA,A,3,01,08,10,16,21,23,,,,,,,2.2,1.3,1.8,1*29
$GPGSV,2,1,06,01,16,255,46,08,74,298,47,10,55,075,41,16,26,182,48,1*6E
$GPGSV,2,2,06,21,45,263,40,23,27,047,47,,,,,,,,,1*67
$GPRMC,000209.00,A,4852.3791316,N,00218.2336270,E,32.30,56.63,180502,0.0,E,A*3D
$GPGGA,000209.00,4852.3791316,N,00218.2336270,E,1,06,1.0,-7.287,M,0.000,M,0.0,*50
$GPGSA,A,3,01,08,10,16,21,23,,,,,,,2.2,1.3,1.8,1*29
$GPGSV,2,1,06,01,16,255,47,08,74,298,48,10,55,075,42,16,26,182,48,1*63
$GPGSV,2,2,06,21,45,263,41,23,27,047,50,,,,,,,,,1*60
$GPRMC,000210.00,A,4852.3832083,N,00218.2483574,E,32.95,58.40,180502,0.0,E,A*36
$GPGGA,000210.00,4852.3832083,N,00218.2483574,E,1,06,1.0,-13.455,M,0.000,M,0.0,*67
$GPGSA,A,3,01,08,10,16,21,23,,,,,,,2.2,1.3,1.8,1*29
$GPGSV,2,1,06,01,16,255,47,08,74,298,52,10,55,075,42,16,26,182,48,1*68
$GPGSV,2,2,06,21,45,263,41,23,27,047,50,,,,,,,,,1*60
$GPRMC,000211.00,A,4852.3885134,N,00218.2587077,E,33.15,56.68,180502,0.0,E,A*38
$GPGGA,000211.00,4852.3885134,N,00218.2587077,E,1,06,1.0,2.101,M,0.000,M,0.0,*7D
$GPGSA,A,3,01,08,10,16,21,23,,,,,,,2.2,1.3,1.8,1*29
$GPGSV,2,1,06,01,16,255,46,08,74,298,50,10,55,075,43,16,26,182,48,1*6A
$GPGSV,2,2,06,21,45,263,41,23,27,047,50,,,,,,,,,1*60
$GPRMC,000212.00,A,4852.3929989,N,00218.2693107,E,32.95,58.70,180502,0.0,E,A*3C
$GPGGA,000212.00,4852.3929989,N,00218.2693107,E,1,06,1.0,-5.803,M,0.000,M,0.0,*56
$GPGSA,A,3,01,08,10,16,21,23,,,,,,,2.2,1.3,1.8,1*29
$GPGSV,2,1,06,01,16,255,46,08,74,298,48,10,55,075,43,16,26,182,46,1*6D
$GPGSV,2,2,06,21,45,263,42,23,27,047,48,,,,,,,,,1*6A
$GPRMC,000213.00,A,4852.3981454,N,00218.2804400,E,32.35,57.61,180502,0.0,E,A*35
$GPGGA,000213.00,4852.3981454,N,00218.2804400,E,1,06,1.0,-7.608,M,0.000,M,0.0,*5D
$GPGSA,A,3,01,08,10,16,21,23,,,,,,,2.2,1.3,1.8,1*29
$GPGSV,2,1,06,01,16,255,46,08,74,298,48,10,55,075,44,16,26,182,48,1*64
$GPGSV,2,2,06,21,45,263,43,23,27,047,47,,,,,,,,,1*64
$GPRMC,000214.00,A,4852.4036092,N,00218.2914676,E,32.45,57.81,180502,0.0,E,A*34
$GPGGA,000214.00,4852.4036092,N,00218.2914676,E,1,06,1.0,-2.234,M,0.000,M,0.0,*5B
$GPGSA,A,3,01,08,10,16,21,23,,,,,,,2.2,1.3,1.8,1*29
$GPGSV,2,1,06,01,16,255,46,08,74,298,47,10,55,075,46,16,26,182,49,1*68
$GPGSV,2,2,06,21,45,263,44,23,27,047,48,,,,,,,,,1*6C
$GPRMC,000215.00,A,4852.4075616,N,00218.3047786,E,32.07,56.46,180502,0.0,E,A*34
$GPGGA,000215.00,4852.4075616,N,00218.3047786,E,1,06,1.0,-4.515,M,0.000,M,0.0,*55
$GPGSA,A,3,01,08,10,16,21,23,,,,,,,2.2,1.3,1.8,1*29
$GPGSV,2,1,06,01,16,255,46,08,74,298,47,10,55,075,47,16,26,182,48,1*68
$GPGSV,2,2,06,21,45,263,46,23,27,047,49,,,,,,,,,1*6F
$GPRMC,000216.00,A,4852.4115655,N,00218.3175366,E,32.18,54.13,180502,0.0,E,A*31
$GPGGA,000216.00,4852.4115655,N,00218.3175366,E,1,06,1.0,-5.961,M,0.000,M,0.0,*52
$GPGSA,A,3,01,08,10,16,21,23,,,,,,,2.2,1.3,1.8,1*29
$GPGSV,2,1,06,01,16,255,47,08,74,298,48,10,55,075,50,16,26,182,48,1*60
$GPGSV,2,2,06,21,45,263,47,23,27,047,49,,,,,,,,,1*6E
$GPRMC,000217.00,A,4852.4170894,N,00218.3295005,E,32.46,59.73,180502,0.0,E,A*3B
$GPGGA,000217.00,4852.4170894,N,00218.3295005,E,1,06,1.0,-9.868,M,0.000,M,0.0,*5C
$GPGSA,A,3,01,08,10,16,21,23,,,,,,,2.2,1.3,1.8,1*29
$GPGSV,2,1,06,01,16,255,48,08,74,298,48,10,55,075,51,16,26,182,48,1*6E
$GPGSV,2,2,06,21,45,263,49,23,27,047,48,,,,,,,,,1*61
$GPRMC,000218.00,A,4852.4217904,N,00218.3393641,E,32.11,58.48,180502,0.0,E,A*34
$GPGGA,000218.00,4852.4217904,N,00218.3393641,E,1,06,1.0,-8.818,M,0.000,M,0.0,*5E
$GPGSA,A,3,01,08,10,16,21,23,,,,,,,2.2,1.3,1.8,1*29
$GPGSV,2,1,06,01,16,255,47,08,74,298,48,10,55,075,52,16,26,182,48,1*62
$GPGSV,2,2,06,21,45,263,50,23,27,047,48,,,,,,,,,1*69
$GPRMC,000219.00,A,4852.4270115,N,00218.3504679,E,32.74,57.01,180502,0.0,E,A*3E
$GPGGA,000219.00,4852.4270115,N,00218.3504679,E,1,06,1.0,-5.488,M,0.000,M,0.0,*5D
$GPGSA,A,3,01,08,10,16,21,23,,,,,,,2.2,1.3,1.8,1*29
$GPGSV,2,1,06,01,16,255,48,08,74,298,48,10,55,075,52,16,26,182,50,1*64
$GPGSV,2,2,06,21,45,263,50,23,27,047,48,,,,,,,,,1*69
$GPRMC,000220.00,A,4852.4309255,N,00218.3621711,E,32.70,56.79,180502,0.0,E,A*3D
$GPGGA,000220.00,4852.4309255,N,00218.3621711,E,1,06,1.0,-0.694,M,0.000,M,0.0,*5E
$GPGSA,A,3,01,08,10,16,21,23,,,,,,,2.2,1.3,1.8,1*29
$GPGSV,2,1,06,01,16,255,47,08,74,298,47,10,55,075,53,16,26,182,49,1*6D
$GPGSV,2,2,06,21,45,263,50,23,27,047,47,,,,,,,,,1*66
$GPRMC,000221.00,A,4852.4365534,N,00218.3746658,E,32.85,57.78,180502,0.0,E,A*30
$GPGGA,000221.00,4852.4365534,N,00218.3746658,E,1,06,1.0,-7.912,M,0.000,M,0.0,*5F
$GPGSA,A,3,01,08,10,16,21,23,,,,,,,2.2,1.3,1.8,1*29
$GPGSV,2,1,06,01,16,255,48,08,74,298,46,10,55,075,53,16,26,182,50,1*6B
$GPGSV,2,2,06,21,45,263,49,23,27,047,48,,,,,,,,,1*61
$GPRMC,000222.00,A,4852.4403976,N,00218.3871939,E,32.39,58.28,180502,0.0,E,A*30
$GPGGA,000222.00,4852.4403976,N,00218.3871939,E,1,06,1.0,-8.556,M,0.000,M,0.0,*51
$GPGSA,A,3,01,08,10,16,21,23,,,,,,,2.2,1.3,1.8,1*29
$GPGSV,2,1,06,01,16,255,47,08,74,298,48,10,55,075,52,16,26,182,50,1*6B
$GPGSV,2,2,06,21,45,263,50,23,27,047,48,,,,,,,,,1*69
$GPRMC,000223.00,A,4852.4455529,N,00218.3992136,E,31.47,56.57,180502,0.0,E,A*33
$GPGGA,000223.00,4852.4455529,N,00218.3992136,E,1,07,1.0,-15.748,M,0.000,M,0.0,*6E
$GPGSA,A,3,01,08,10,16,21,23,27,,,,,,2.0,1.2,1.6,1*21
$GPGSV,2,1,07,01,16,255,46,08,74,298,48,10,55,075,52,16,26,182,48,1*62
$GPGSV,2,2,07,21,45,263,52,23,27,047,49,27,69,121,49,,,,,1*5E
$GPRMC,000224.00,A,4852.4497160,N,00218.4102869,E,32.36,58.56,180502,0.0,E,A*3C
$GPGGA,000224.00,4852.4497160,N,00218.4102869,E,1,07,1.0,-7.548,M,0.000,M,0.0,*5A
$GPGSA,A,3,01,08,10,16,21,23,27,,,,,,2.0,1.2,1.6,1*21
$GPGSV,2,1,07,01,16,255,46,08,74,298,47,10,55,075,52,16,26,182,48,1*6D
$GPGSV,2,2,07,21,45,263,52,23,27,047,50,27,69,121,49,,,,,1*56
$GPRMC,000225.00,A,4852.4541359,N,00218.4220663,E,32.46,57.05,180502,0.0,E,A*36
$GPGGA,000225.00,4852.4541359,N,00218.4220663,E,1,07,1.0,-3.282,M,0.000,M,0.0,*5B
$GPGSA,A,3,01,08,10,16,21,23,27,,,,,,2.0,1.2,1.6,1*21
$GPGSV,2,1,07,01,16,255,47,08,74,298,47,10,55,075,52,16,26,182,48,1*6C
$GPGSV,2,2,07,21,45,263,51,23,27,047,50,27,69,121,50,,,,,1*5D
$GPRMC,000226.00,A,4852.4593560,N,00218.4329139,E,32.55,57.97,180502,0.0,E,A*3F
$GPGGA,000226.00,4852.4593560,N,00218.4329139,E,1,07,1.0,-5.934,M,0.000,M,0.0,*5B
$GPGSA,A,3,01,08,10,16,21,23,27,,,,,,2.0,1.2,1.6,1*21
$GPGSV,2,1,07,01,16,255,46,08,74,298,47,10,55,075,54,16,26,182,50,1*62
$GPGSV,2,2,07,21,45,263,52,23,27,047,50,27,69,121,50,,,,,1*5E
$GPRMC,000227.00,A,4852.4665263,N,00218.4427651,E,32.60,58.46,180502,0.0,E,A*35
$GPGGA,000227.00,4852.4665263,N,00218.4427651,E,1,07,1.0,-18.446,M,0.000,M,0.0,*60
$GPGSA,A,3,01,08,10,16,21,23,27,,,,,,2.0,1.2,1.6,1*21
$GPGSV,2,1,07,01,16,255,46,08,74,298,47,10,55,075,52,16,26,182,49,1*6C
$GPGSV,2,2,07,21,45,263,51,23,27,047,49,27,69,121,49,,,,,1*5D
$GPRMC,000228.00,A,4852.4694662,N,00218.4558351,E,32.73,60.41,180502,0.0,E,A*33
$GPGGA,000228.00,4852.4694662,N,00218.4558351,E,1,07,1.0,-12.429,M,0.000,M,0.0,*6B
$GPGSA,A,3,01,08,10,16,21,23,27,,,,,,2.0,1.2,1.6,1*21
$GPGSV,2,1,07,01,16,255,48,08,74,298,45,10,55,075,52,16,26,182,48,1*61
$GPGSV,2,2,07,21,45,263,51,23,27,047,50,27,69,121,47,,,,,1*5B
$GPRMC,000229.00,A,4852.4727236,N,00218.4694307,E,32.86,55.67,180502,0.0,E,A*36
$GPGGA,000229.00,4852.4727236,N,00218.4694307,E,1,07,1.0,-7.283,M,0.000,M,0.0,*54
$GPGSA,A,3,01,08,10,16,21,23,27,,,,,,2.0,1.2,1.6,1*21
$GPGSV,2,1,07,01,16,255,47,08,74,298,43,10,55,075,50,16,26,182,49,1*6B
$GPGSV,2,2,07,21,45,263,51,23,27,047,48,27,69,121,44,,,,,1*51
$GPRMC,000230.00,A,4852.4782973,N,00218.4800461,E,33.14,60.36,180502,0.0,E,A*37
$GPGGA,000230.00,4852.4782973,N,00218.4800461,E,1,07,1.0,-12.035,M,0.000,M,0.0,*66
$GPGSA,A,3,01,08,10,16,21,23,27,,,,,,2.0,1.2,1.6,1*21
$GPGSV,2,1,07,01,16,255,48,08,74,298,41,10,55,075,51,16,26,182,47,1*69
$GPGSV,2,2,07,21,45,263,52,23,27,047,48,27,69,121,41,,,,,1*57
$GPRMC,000231.00,A,4852.4828965,N,00218.4901690,E,32.13,56.44,180502,0.0,E,A*34
$GPGGA,000231.00,4852.4828965,N,00218.4901690,E,1,07,1.0,-13.285,M,0.000,M,0.0,*6B
$GPGSA,A,3,01,08,10,16,21,23,27,,,,,,2.0,1.2,1.6,1*21
$GPGSV,2,1,07,01,16,255,46,08,74,298,39,10,55,075,53,16,26,182,48,1*65
$GPGSV,2,2,07,21,45,263,50,23,27,047,48,27,69,121,39,,,,,1*5A
$GPRMC,000232.00,A,4852.4891915,N,00218.5007698,E,32.69,60.21,180502,0.0,E,A*3F
$GPGGA,000232.00,4852.4891915,N,00218.5007698,E,1,07,1.0,-13.031,M,0.000,M,0.0,*66
$GPGSA,A,3,01,08,10,16,21,23,27,,,,,,2.0,1.2,1.6,1*21
$GPGSV,2,1,07,01,16,255,46,08,74,298,37,10,55,075,52,16,26,182,49,1*6B
$GPGSV,2,2,07,21,45,263,49,23,27,047,50,27,69,121,37,,,,,1*55
$GPRMC,000233.00,A,4852.4924771,N,00218.5127200,E,32.26,56.87,180502,0.0,E,A*39
$GPGGA,000233.00,4852.4924771,N,00218.5127200,E,1,07,1.0,-8.995,M,0.000,M,0.0,*5F
$GPGSA,A,3,01,08,10,16,21,23,27,,,,,,2.0,1.2,1.6,1*21
$GPGSV,2,1,07,01,16,255,45,08,74,298,37,10,55,075,52,16,26,182,48,1*69
$GPGSV,2,2,07,21,45,263,50,23,27,047,50,27,69,121,36,,,,,1*5C
$GPRMC,000234.00,A,4852.4969814,N,00218.5258134,E,32.43,57.11,180502,0.0,E,A*39
$GPGGA,000234.00,4852.4969814,N,00218.5258134,E,1,07,1.0,-11.373,M,0.000,M,0.0,*68
$GPGSA,A,3,01,08,10,16,21,23,27,,,,,,2.0,1.2,1.6,1*21
$GPGSV,2,1,07,01,16,255,47,08,74,298,37,10,55,075,51,16,26,182,46,1*66
$GPGSV,2,2,07,21,45,263,49,23,27,047,50,27,69,121,36,,,,,1*54
$GPRMC,000235.00,A,4852.5009397,N,00218.5376097,E,32.64,58.40,180502,0.0,E,A*3D
$GPGGA,000235.00,4852.5009397,N,00218.5376097,E,1,07,1.0,-10.908,M,0.000,M,0.0,*65
$GPGSA,A,3,01,08,10,16,21,23,27,,,,,,2.0,1.2,1.6,1*21
$GPGSV,2,1,07,01,16,255,47,08,74,298,37,10,55,075,50,16,26,182,48,1*69
$GPGSV,2,2,07,21,45,263,50,23,27,047,48,27,69,122,36,,,,,1*56
$GPRMC,000236.00,A,4852.5075939,N,00218.5493604,E,32.09,56.17,180502,0.0,E,A*3C
$GPGGA,000236.00,4852.5075939,N,00218.5493604,E,1,07,1.0,-16.121,M,0.000,M,0.0,*66
$GPGSA,A,3,01,08,10,16,21,23,27,,,,,,2.0,1.2,1.6,1*21
$GPGSV,2,1,07,01,16,255,48,08,74,298,37,10,55,075,51,16,26,182,49,1*66
$GPGSV,2,2,07,21,45,263,52,23,27,047,49,27,69,122,36,,,,,1*55
$GPRMC,000237.00,A,4852.5124705,N,00218.5601212,E,32.61,56.88,180502,0.0,E,A*3B
$GPGGA,000237.00,4852.5124705,N,00218.5601212,E,1,07,1.0,-14.107,M,0.000,M,0.0,*6F
$GPGSA,A,3,01,08,10,16,21,23,27,,,,,,2.0,1.2,1.6,1*21
$GPGSV,2,1,07,01,16,255,47,08,74,298,38,10,55,075,51,16,26,182,47,1*68
$GPGSV,2,2,07,21,45,263,51,23,27,047,48,27,69,122,36,,,,,1*57
$GPRMC,000238.00,A,4852.5174343,N,00218.5700879,E,32.06,54.84,180502,0.0,E,A*3F
$GPGGA,000238.00,4852.5174343,N,00218.5700879,E,1,07,1.0,-9.909,M,0.000,M,0.0,*5E
$GPGSA,A,3,01,08,10,16,21,23,27,,,,,,2.0,1.2,1.6,1*21
$GPGSV,2,1,07,01,16,255,46,08,74,298,38,10,55,075,52,16,26,182,47,1*6A
$GPGSV,2,2,07,21,45,263,52,23,27,047,48,27,69,122,36,,,,,1*54
$GPRMC,000239.00,A,4852.5218761,N,00218.5821624,E,32.23,52.92,180502,0.0,E,A*3F
$GPGGA,000239.00,4852.5218761,N,00218.5821624,E,1,07,1.0,-8.729,M,0.000,M,0.0,*55
$GPGSA,A,3,01,08,10,16,21,23,27,,,,,,2.0,1.2,1.6,1*21
$GPGSV,2,1,07,01,16,255,46,08,74,298,38,10,55,075,52,16,26,182,48,1*65
$GPGSV,2,2,07,21,45,263,52,23,27,047,47,27,69,122,36,,,,,1*5B
$GPRMC,000240.00,A,4852.5280895,N,00218.5930620,E,32.73,55.40,180502,0.0,E,A*3C
$GPGGA,000240.00,4852.5280895,N,00218.5930620,E,1,06,1.0,-13.803,M,0.000,M,0.0,*67
$GPGSA,A,3,01,08,10,16,21,23,,,,,,,2.2,1.3,1.8,1*29
$GPGSV,2,1,06,01,16,255,46,08,74,298,38,10,55,075,53,16,26,182,48,1*65
$GPGSV,2,2,06,21,45,263,51,23,27,047,48,,,,,,,,,1*68
$GPRMC,000241.00,A,4852.5332802,N,00218.6052110,E,32.75,54.63,180502,0.0,E,A*37
$GPGGA,000241.00,4852.5332802,N,00218.6052110,E,1,06,1.0,-13.938,M,0.000,M,0.0,*63
$GPGSA,A,3,01,08,10,16,21,23,,,,,,,2.2,1.3,1.8,1*29
$GPGSV,2,1,06,01,16,255,47,08,74,298,38,10,55,075,52,16,26,182,49,1*64
$GPGSV,2,2,06,21,45,263,52,23,27,047,48,,,,,,,,,1*6B
$GPRMC,000242.00,A,4852.5377892,N,00218.6166103,E,32.50,54.54,180502,0.0,E,A*3B
$GPGGA,000242.00,4852.5377892,N,00218.6166103,E,1,06,1.0,-13.181,M,0.000,M,0.0,*66
$GPGSA,A,3,01,08,10,16,21,23,,,,,,,2.2,1.3,1.8,1*29
$GPGSV,2,1,06,01,16,255,47,08,74,298,38,10,55,075,51,16,26,182,49,1*67
$GPGSV,2,2,06,21,45,263,53,23,27,047,47,,,,,,,,,1*65
$GPRMC,000243.00,A,4852.5432750,N,00218.6283980,E,32.34,56.40,180502,0.0,E,A*33
$GPGGA,000243.00,4852.5432750,N,00218.6283980,E,1,06,1.0,-12.663,M,0.000,M,0.0,*61
$GPGSA,A,3,01,08,10,16,21,23,,,,,,,2.2,1.3,1.8,1*29
$GPGSV,2,1,06,01,16,255,48,08,74,298,38,10,55,075,50,16,26,182,48,1*68
$GPGSV,2,2,06,21,45,263,52,23,27,047,49,,,,,,,,,1*6A
$GPRMC,000244.00,A,4852.5487400,N,00218.6377518,E,31.90,55.99,180502,0.0,E,A*31
$GPGGA,000244.00,4852.5487400,N,00218.6377518,E,1,06,1.0,-10.939,M,0.000,M,0.0,*6B
$GPGSA,A,3,01,08,10,16,21,23,,,,,,,2.2,1.3,1.8,1*29
$GPGSV,2,1,06,01,16,255,47,08,74,298,39,10,55,075,52,16,26,182,47,1*6B
$GPGSV,2,2,06,21,45,263,52,23,27,047,47,,,,,,,,,1*64
$GPRMC,000245.00,A,4852.5545836,N,00218.6481032,E,32.23,56.69,180502,0.0,E,A*32
$GPGGA,000245.00,4852.5545836,N,00218.6481032,E,1,06,1.0,-7.836,M,0.000,M,0.0,*57
$GPGSA,A,3,01,08,10,16,21,23,,,,,,,2.2,1.3,1.8,1*29
$GPGSV,2,1,06,01,16,255,48,08,74,298,39,10,55,075,52,16,26,182,48,1*6B
$GPGSV,2,2,06,21,45,263,53,23,27,047,48,,,,,,,,,1*6A
$GPRMC,000246.00,A,4852.5587729,N,00218.6594329,E,32.58,57.28,180502,0.0,E,A*3A
$GPGGA,000246.00,4852.5587729,N,00218.6594329,E,1,06,1.0,-10.093,M,0.000,M,0.0,*66
$GPGSA,A,3,01,08,10,16,21,23,,,,,,,2.2,1.3,1.8,1*29
$GPGSV,2,1,06,01,16,255,48,08,74,298,39,10,55,075,53,16,26,182,47,1*65
$GPGSV,2,2,06,21,45,263,52,23,27,047,48,,,,,,,,,1*6B
$GPRMC,000247.00,A,4852.5644056,N,00218.6711821,E,32.69,53.64,180502,0.0,E,A*3A
$GPGGA,000247.00,4852.5644056,N,00218.6711821,E,1,06,1.0,-9.597,M,0.000,M,0.0,*51
$GPGSA,A,3,01,08,10,16,21,23,,,,,,,2.2,1.3,1.8,1*29
$GPGSV,2,1,06,01,16,255,47,08,74,298,39,10,55,075,53,16,26,182,47,1*6A
$GPGSV,2,2,06,21,45,263,52,23,27,047,50,,,,,,,,,1*62
$GPRMC,000248.00,A,4852.5692491,N,00218.6824789,E,32.13,54.45,180502,0.0,E,A*3C
$GPGGA,000248.00,4852.5692491,N,00218.6824789,E,1,06,1.0,-9.549,M,0.000,M,0.0,*5D
$GPGSA,A,3,01,08,10,16,21,23,,,,,,,2.2,1.3,1.8,1*29
$GPGSV,2,1,06,01,16,255,48,08,74,298,40,10,55,075,54,16,26,182,49,1*62
$GPGSV,2,2,06,21,45,264,51,23,27,047,50,,,,,,,,,1*66
$GPRMC,000249.00,A,4852.5746930,N,00218.6942420,E,32.61,56.57,180502,0.0,E,A*36
$GPGGA,000249.00,4852.5746930,N,00218.6942420,E,1,06,1.0,-14.521,M,0.000,M,0.0,*61
$GPGSA,A,3,01,08,10,16,21,23,,,,,,,2.2,1.3,1.8,1*29
$GPGSV,2,1,06,01,16,255,47,08,74,298,40,10,55,075,54,16,26,182,48,1*6C
$GPGSV,2,2,06,21,45,264,51,23,27,047,49,,,,,,,,,1*6E
$GPRMC,000250.00,A,4852.5793555,N,00218.7050933,E,32.06,59.32,180502,0.0,E,A*30
$GPGGA,000250.00,4852.5793555,N,00218.7050933,E,1,06,1.0,-13.974,M,0.000,M,0.0,*61
$GPGSA,A,3,01,08,10,16,21,23,,,,,,,2.2,1.3,1.8,1*29
$GPGSV,2,1,06,01,16,255,47,08,74,298,40,10,55,075,54,16,26,182,48,1*6C
$GPGSV,2,2,06,21,45,264,52,23,27,047,48,,,,,,,,,1*6C
$GPRMC,000251.00,A,4852.5845109,N,00218.7151537,E,32.17,56.76,180502,0.0,E,A*3F
$GPGGA,000251.00,4852.5845109,N,00218.7151537,E,1,06,1.0,-10.903,M,0.000,M,0.0,*62
$GPGSA,A,3,01,08,10,16,21,23,,,,,,,2.2,1.3,1.8,1*29
$GPGSV,2,1,06,01,16,255,47,08,74,298,40,10,55,075,54,16,26,182,50,1*65
$GPGSV,2,2,06,21,45,264,52,23,27,047,46,,,,,,,,,1*62
$GPRMC,000252.00,A,4852.5903016,N,00218.7260971,E,32.45,58.19,180502,0.0,E,A*3F
$GPGGA,000252.00,4852.5903016,N,00218.7260971,E,1,06,1.0,-14.741,M,0.000,M,0.0,*6E
$GPGSA,A,3,01,08,10,16,21,23,,,,,,,2.2,1.3,1.8,1*29
$GPGSV,2,1,06,01,16,255,47,08,74,298,41,10,55,075,54,16,26,182,50,1*64
$GPGSV,2,2,06,21,46,264,52,23,27,047,47,,,,,,,,,1*60
$GPRMC,000253.00,A,4852.5937576,N,00218.7381517,E,32.01,58.77,180502,0.0,E,A*30
$GPGGA,000253.00,4852.5937576,N,00218.7381517,E,1,06,1.0,-10.696,M,0.000,M,0.0,*66
$GPGSA,A,3,01,08,10,16,21,23,,,,,,,2.2,1.3,1.8,1*29
$GPGSV,2,1,06,01,16,255,47,08,74,298,42,10,55,075,53,16,26,182,49,1*68
$GPGSV,2,2,06,21,46,264,52,23,27,047,48,,,,,,,,,1*6F
$GPRMC,000254.00,A,4852.5983639,N,00218.7510229,E,32.31,57.26,180502,0.0,E,A*3C
$GPGGA,000254.00,4852.5983639,N,00218.7510229,E,1,06,1.0,-10.632,M,0.000,M,0.0,*6C
$GPGSA,A,3,01,08,10,16,21,23,,,,,,,2.2,1.3,1.8,1*29
$GPGSV,2,1,06,01,16,255,47,08,74,298,40,10,55,075,54,16,26,182,48,1*6C
$GPGSV,2,2,06,21,46,264,50,23,27,047,48,,,,,,,,,1*6D
$GPRMC,000255.00,A,4852.6025552,N,00218.7636608,E,32.33,57.96,180502,0.0,E,A*3C
$GPGGA,000255.00,4852.6025552,N,00218.7636608,E,1,06,1.0,-11.486,M,0.000,M,0.0,*69
$GPGSA,A,3,01,08,10,16,21,23,,,,,,,2.2,1.3,1.8,1*29
$GPGSV,2,1,06,01,16,255,47,08,74,298,39,10,55,075,53,16,26,182,48,1*65
$GPGSV,2,2,06,21,46,264,52,23,27,047,48,,,,,,,,,1*6F
$GPRMC,000256.00,A,4852.6086124,N,00218.7750408,E,32.69,57.13,180502,0.0,E,A*32
$GPGGA,000256.00,4852.6086124,N,00218.7750408,E,1,06,1.0,-11.896,M,0.000,M,0.0,*68
$GPGSA,A,3,01,08,10,16,21,23,,,,,,,2.2,1.3,1.8,1*29
$GPGSV,2,1,06,01,16,255,48,08,74,298,39,10,55,075,53,16,26,182,48,1*6A
$GPGSV,2,2,06,21,46,264,52,23,27,047,48,,,,,,,,,1*6F
$GPRMC,000257.00,A,4852.6129626,N,00218.7857968,E,32.44,58.79,180502,0.0,E,A*3D
$GPGGA,000257.00,4852.6129626,N,00218.7857968,E,1,06,1.0,-8.462,M,0.000,M,0.0,*54
$GPGSA,A,3,01,08,10,16,21,23,,,,,,,2.2,1.3,1.8,1*29
$GPGSV,2,1,06,01,16,255,46,08,74,298,40,10,55,075,54,16,26,182,48,1*6D
$GPGSV,2,2,06,21,46,264,52,23,27,047,50,,,,,,,,,1*66
$GPRMC,000258.00,A,4852.6176755,N,00218.7978351,E,32.51,58.01,180502,0.0,E,A*3A
$GPGGA,000258.00,4852.6176755,N,00218.7978351,E,1,06,1.0,-8.143,M,0.000,M,0.0,*5E
$GPGSA,A,3,01,08,10,16,21,23,,,,,,,2.2,1.3,1.8,1*29
$GPGSV,2,1,06,01,16,255,46,08,74,298,40,10,55,075,53,16,26,182,48,1*6A
$GPGSV,2,2,06,21,46,264,52,23,27,047,48,,,,,,,,,1*6F
$GPRMC,000259.00,A,4852.6232246,N,00218.8077529,E,32.86,55.11,180502,0.0,E,A*39
$GPGGA,000259.00,4852.6232246,N,00218.8077529,E,1,06,1.0,-7.988,M,0.000,M,0.0,*5B
$GPGSA,A,3,01,08,10,16,21,23,,,,,,,2.2,1.3,1.8,1*29
$GPGSV,2,1,06,01,16,255,46,08,74,298,40,10,55,075,52,16,26,182,46,1*65
$GPGSV,2,2,06,21,46,264,51,23,27,047,48,,,,,,,,,1*6C
$GPRMC,000300.00,A,4852.6278660,N,00218.8200639,E,31.81,56.23,180502,0.0,E,A*3C
$GPGGA,000300.00,4852.6278660,N,00218.8200639,E,1,07,1.0,-7.388,M,0.000,M,0.0,*53
$GPGSA,A,3,01,08,10,16,21,23,27,,,,,,2.0,1.2,1.6,1*21
$GPGSV,2,1,07,01,16,255,46,08,74,298,40,10,55,075,54,16,26,182,46,1*62
$GPGSV,2,2,07,21,46,264,50,23,27,047,50,27,69,122,40,,,,,1*5A
$GPRMC,000301.00,A,4852.6328926,N,00218.8311482,E,32.78,56.29,180502,0.0,E,A*38
$GPGGA,000301.00,4852.6328926,N,00218.8311482,E,1,07,1.0,-9.300,M,0.000,M,0.0,*56
$GPGSA,A,3,01,08,10,16,21,23,27,,,,,,2.0,1.2,1.6,1*21
$GPGSV,2,1,07,01,16,255,46,08,74,298,41,10,55,075,54,16,26,182,47,1*62
$GPGSV,2,2,07,21,46,264,50,23,27,047,47,27,69,122,40,,,,,1*5C
$GPRMC,000302.00,A,4852.6375794,N,00218.8427102,E,31.29,54.85,180502,0.0,E,A*38
$GPGGA,000302.00,4852.6375794,N,00218.8427102,E,1,07,1.0,-13.936,M,0.000,M,0.0,*61
$GPGSA,A,3,01,08,10,16,21,23,27,,,,,,2.0,1.2,1.6,1*21
$GPGSV,2,1,07,01,16,255,46,08,74,298,42,10,55,075,54,16,26,182,47,1*61
$GPGSV,2,2,07,21,46,264,51,23,27,047,48,27,69,122,40,,,,,1*52
$GPRMC,000303.00,A,4852.6423343,N,00218.8526158,E,22.35,49.93,180502,0.0,E,A*38
$GPGGA,000303.00,4852.6423343,N,00218.8526158,E,1,07,1.0,-14.610,M,0.000,M,0.0,*69
$GPGSA,A,3,01,08,10,16,21,23,27,,,,,,2.0,1.2,1.6,1*21
$GPGSV,2,1,07,01,16,255,46,08,74,298,42,10,55,075,54,16,26,182,47,1*61
$GPGSV,2,2,07,21,46,264,52,23,27,047,47,27,69,122,41,,,,,1*5F
$GPRMC,000304.00,A,4852.6443077,N,00218.8568581,E,12.49,31.16,180502,0.0,E,A*3D
$GPGGA,000304.00,4852.6443077,N,00218.8568581,E,1,07,1.0,-8.572,M,0.000,M,0.0,*5C
$GPGSA,A,3,01,08,10,16,21,23,27,,,,,,2.0,1.2,1.6,1*21
$GPGSV,2,1,07,01,16,255,45,08,74,298,44,10,55,075,55,16,26,182,48,1*6A
$GPGSV,2,2,07,21,46,264,52,23,27,047,47,27,69,122,42,,,,,1*5C
$GPRMC,000305.00,A,4852.6473067,N,00218.8586452,E,14.14,21.25,180502,0.0,E,A*3E
$GPGGA,000305.00,4852.6473067,N,00218.8586452,E,1,07,1.0,-9.376,M,0.000,M,0.0,*53
$GPGSA,A,3,01,08,10,16,21,23,27,,,,,,2.0,1.2,1.6,1*21
$GPGSV,2,1,07,01,16,255,46,08,74,298,45,10,55,075,53,16,26,182,50,1*67
$GPGSV,2,2,07,21,46,264,51,23,27,047,48,27,69,122,43,,,,,1*51
$GPRMC,000306.00,A,4852.6530483,N,00218.8601059,E,23.72,6.45,180502,0.0,E,A*01
$GPGGA,000306.00,4852.6530483,N,00218.8601059,E,1,07,1.0,-10.476,M,0.000,M,0.0,*64
$GPGSA,A,3,01,08,10,16,21,23,27,,,,,,2.0,1.2,1.6,1*21
$GPGSV,2,1,07,01,16,255,47,08,74,298,47,10,55,075,53,16,26,182,48,1*6D
$GPGSV,2,2,07,21,46,264,52,23,27,047,48,27,69,122,45,,,,,1*54
$GPRMC,000307.00,A,4852.6615522,N,00218.8608885,E,32.34,2.23,180502,0.0,E,A*08
$GPGGA,000307.00,4852.6615522,N,00218.8608885,E,1,07,1.0,-11.512,M,0.000,M,0.0,*69
$GPGSA,A,3,01,08,10,16,21,23,27,,,,,,2.0,1.2,1.6,1*21
$GPGSV,2,1,07,01,16,255,46,08,74,298,48,10,55,075,53,16,26,182,48,1*63
$GPGSV,2,2,07,21,46,264,53,23,27,047,49,27,69,122,47,,,,,1*56
$GPRMC,000308.00,A,4852.6712621,N,00218.8619721,E,33.49,1.05,180502,0.0,E,A*0C
$GPGGA,000308.00,4852.6712621,N,00218.8619721,E,1,07,1.0,-6.294,M,0.000,M,0.0,*5E
$GPGSA,A,3,01,08,10,16,21,23,27,,,,,,2.0,1.2,1.6,1*21
$GPGSV,2,1,07,01,16,255,46,08,74,298,50,10,55,075,54,16,26,182,48,1*6D
$GPGSV,2,2,07,21,46,264,52,23,27,047,48,27,69,122,48,,,,,1*59
$GPRMC,000309.00,A,4852.6799934,N,00218.8614677,E,33.05,1.73,180502,0.0,E,A*03
$GPGGA,000309.00,4852.6799934,N,00218.8614677,E,1,07,1.0,-13.437,M,0.000,M,0.0,*63
$GPGSA,A,3,01,08,10,16,21,23,27,,,,,,2.0,1.2,1.6,1*21
$GPGSV,2,1,07,01,16,255,47,08,74,298,50,10,55,075,54,16,26,182,48,1*6C
$GPGSV,2,2,07,21,46,264,52,23,27,047,49,27,69,122,49,,,,,1*59
$GPRMC,000310.00,A,4852.6883581,N,00218.8624220,E,32.15,2.86,180502,0.0,E,A*01
$GPGGA,000310.00,4852.6883581,N,00218.8624220,E,1,07,1.0,-9.828,M,0.000,M,0.0,*51
$GPGSA,A,3,01,08,10,16,21,23,27,,,,,,2.0,1.2,1.6,1*21
$GPGSV,2,1,07,01,16,255,48,08,74,298,49,10,55,075,54,16,26,182,48,1*6B
$GPGSV,2,2,07,21,46,264,51,23,27,047,48,27,69,122,49,,,,,1*5B
$GPRMC,000311.00,A,4852.6980523,N,00218.8610806,E,34.94,0.63,180502,0.0,E,A*05
$GPGGA,000311.00,4852.6980523,N,00218.8610806,E,1,07,1.0,-4.330,M,0.000,M,0.0,*5C
$GPGSA,A,3,01,08,10,16,21,23,27,,,,,,2.0,1.2,1.6,1*21
$GPGSV,2,1,07,01,16,255,47,08,74,298,50,10,55,075,54,16,25,182,48,1*6F
$GPGSV,2,2,07,21,46,264,50,23,27,047,48,27,69,122,49,,,,,1*5A
$GPRMC,000312.00,A,4852.7054856,N,00218.8634202,E,33.12,0.51,180502,0.0,E,A*08
$GPGGA,000312.00,4852.7054856,N,00218.8634202,E,1,07,1.0,-8.470,M,0.000,M,0.0,*56
$GPGSA,A,3,01,08,10,16,21,23,27,,,,,,2.0,1.2,1.6,1*21
$GPGSV,2,1,07,01,16,255,46,08,74,298,50,10,55,075,53,16,25,182,48,1*69
$GPGSV,2,2,07,21,46,264,51,23,27,047,48,27,69,122,50,,,,,1*53
$GPRMC,000313.00,A,4852.7148674,N,00218.8636298,E,31.84,2.90,180502,0.0,E,A*08
$GPGGA,000313.00,4852.7148674,N,00218.8636298,E,1,07,1.0,0.714,M,0.000,M,0.0,*70
$GPGSA,A,3,01,08,10,16,21,23,27,,,,,,2.0,1.2,1.6,1*21
$GPGSV,2,1,07,01,16,255,44,08,74,298,51,10,55,075,52,16,25,182,48,1*6B
$GPGSV,2,2,07,21,46,264,52,23,27,047,48,27,69,122,50,,,,,1*50
$GPRMC,000314.00,A,4852.7238284,N,00218.8632310,E,31.36,2.66,180502,0.0,E,A*05
$GPGGA,000314.00,4852.7238284,N,00218.8632310,E,1,07,1.0,-6.872,M,0.000,M,0.0,*59
$GPGSA,A,3,01,08,10,16,21,23,27,,,,,,2.0,1.2,1.6,1*21
$GPGSV,2,1,07,01,16,255,46,08,74,298,50,10,55,075,52,16,25,182,47,1*67
$GPGSV,2,2,07,21,46,264,50,23,27,047,48,27,69,122,49,,,,,1*5A
$GPRMC,000315.00,A,4852.7330157,N,00218.8632544,E,24.07,6.28,180502,0.0,E,A*0F
$GPGGA,000315.00,4852.7330157,N,00218.8632544,E,1,07,1.0,-12.129,M,0.000,M,0.0,*69
$GPGSA,A,3,01,08,10,16,21,23,27,,,,,,2.0,1.2,1.6,1*21
$GPGSV,2,1,07,01,16,255,48,08,74,298,49,10,55,075,52,16,25,182,47,1*61
$GPGSV,2,2,07,21,46,264,51,23,27,047,49,27,69,122,48,,,,,1*5B
$GPRMC,000316.00,A,4852.7387194,N,00218.8633079,E,15.33,18.42,180502,0.0,E,A*33
$GPGGA,000316.00,4852.7387194,N,00218.8633079,E,1,07,1.0,-4.428,M,0.000,M,0.0,*50
$GPGSA,A,3,01,08,10,16,21,23,27,,,,,,2.0,1.2,1.6,1*21
$GPGSV,2,1,07,01,16,255,47,08,74,298,48,10,55,075,54,16,25,182,48,1*66
$GPGSV,2,2,07,21,46,264,51,23,27,047,48,27,69,122,48,,,,,1*5A
$GPRMC,000317.00,A,4852.7419648,N,00218.8679339,E,19.32,32.13,180502,0.0,E,A*3C
$GPGGA,000317.00,4852.7419648,N,00218.8679339,E,1,07,1.0,-5.487,M,0.000,M,0.0,*5A
$GPGSA,A,3,01,08,10,16,21,23,27,,,,,,2.0,1.2,1.6,1*21
$GPGSV,2,1,07,01,16,255,46,08,74,298,48,10,55,074,54,16,25,182,49,1*67
$GPGSV,2,2,07,21,46,264,51,23,27,047,48,27,69,122,47,,,,,1*55
$GPRMC,000318.00,A,4852.7467335,N,00218.8755989,E,29.52,34.03,180502,0.0,E,A*39
$GPGGA,000318.00,4852.7467335,N,00218.8755989,E,1,07,1.0,-3.717,M,0.000,M,0.0,*51
$GPGSA,A,3,01,08,10,16,21,23,27,,,,,,2.0,1.2,1.6,1*21
$GPGSV,2,1,07,01,16,255,47,08,74,298,48,10,55,074,53,16,25,182,49,1*61
$GPGSV,2,2,07,21,46,264,51,23,26,047,48,27,69,122,47,,,,,1*54
$GPRMC,000319.00,A,4852.7532364,N,00218.8839456,E,32.91,37.10,180502,0.0,E,A*33
$GPGGA,000319.00,4852.7532364,N,00218.8839456,E,1,07,1.0,-3.084,M,0.000,M,0.0,*52
$GPGSA,A,3,01,08,10,16,21,23,27,,,,,,2.0,1.2,1.6,1*21
$GPGSV,2,1,07,01,16,255,47,08,74,298,48,10,55,074,52,16,25,182,48,1*61
$GPGSV,2,2,07,21,46,264,49,23,26,047,48,27,69,122,48,,,,,1*52
$GPRMC,000320.00,A,4852.7609122,N,00218.8918921,E,31.27,39.78,180502,0.0,E,A*33
$GPGGA,000320.00,4852.7609122,N,00218.8918921,E,1,07,1.0,-4.050,M,0.000,M,0.0,*52
$GPGSA,A,3,01,08,10,16,21,23,27,,,,,,2.0,1.2,1.6,1*21
$GPGSV,2,1,07,01,16,255,47,08,74,298,48,10,55,074,53,16,25,182,46,1*6E
$GPGSV,2,2,07,21,46,264,50,23,26,047,47,27,69,122,48,,,,,1*55
$GPRMC,000321.00,A,4852.7687718,N,00218.8975292,E,32.56,39.01,180502,0.0,E,A*38
$GPGGA,000321.00,4852.7687718,N,00218.8975292,E,1,07,1.0,-4.393,M,0.000,M,0.0,*5E
$GPGSA,A,3,01,08,10,16,21,23,27,,,,,,2.0,1.2,1.6,1*21
$GPGSV,2,1,07,01,16,255,46,08,74,298,49,10,55,074,55,16,25,182,48,1*66
$GPGSV,2,2,07,21,46,264,52,23,26,047,48,27,69,122,48,,,,,1*58
$GPRMC,000322.00,A,4852.7769260,N,00218.9050750,E,32.71,37.44,180502,0.0,E,A*3E
$GPGGA,000322.00,4852.7769260,N,00218.9050750,E,1,07,1.0,-9.051,M,0.000,M,0.0,*52
$GPGSA,A,3,01,08,10,16,21,23,27,,,,,,2.0,1.2,1.6,1*21
$GPGSV,2,1,07,01,16,255,46,08,74,298,50,10,55,074,53,16,25,182,49,1*69
$GPGSV,2,2,07,21,46,264,52,23,26,047,49,27,69,122,50,,,,,1*50
$GPRMC,000323.00,A,4852.7832331,N,00218.9141238,E,31.88,38.64,180502,0.0,E,A*39
$GPGGA,000323.00,4852.7832331,N,00218.9141238,E,1,07,1.0,-9.229,M,0.000,M,0.0,*50
$GPGSA,A,3,01,08,10,16,21,23,27,,,,,,2.0,1.2,1.6,1*21
$GPGSV,2,1,07,01,16,255,46,08,74,298,51,10,55,074,54,16,25,182,48,1*6E
$GPGSV,2,2,07,21,46,264,52,23,26,047,47,27,69,122,50,,,,,1*5E
$GPRMC,000324.00,A,4852.7888057,N,00218.9245607,E,32.34,37.60,180502,0.0,E,A*3C
$GPGGA,000324.00,4852.7888057,N,00218.9245607,E,1,07,1.0,-7.102,M,0.000,M,0.0,*5E
$GPGSA,A,3,01,08,10,16,21,23,27,,,,,,2.0,1.2,1.6,1*21
$GPGSV,2,1,07,01,16,255,48,08,74,298,52,10,55,074,54,16,25,182,47,1*6C
$GPGSV,2,2,07,21,46,264,50,23,26,047,48,27,69,122,52,,,,,1*51
$GPRMC,000325.00,A,4852.7962242,N,00218.9331440,E,32.44,36.12,180502,0.0,E,A*3E
$GPGGA,000325.00,4852.7962242,N,00218.9331440,E,1,07,1.0,-3.962,M,0.000,M,0.0,*55
$GPGSA,A,3,01,08,10,16,21,23,27,,,,,,2.0,1.2,1.6,1*21
$GPGSV,2,1,07,01,16,255,45,08,74,298,52,10,55,074,52,16,25,182,48,1*68
$GPGSV,2,2,07,21,46,264,50,23,26,047,49,27,69,122,52,,,,,1*50
$GPRMC,000326.00,A,4852.8032349,N,00218.9418717,E,28.67,36.25,180502,0.0,E,A*37
$GPGGA,000326.00,4852.8032349,N,00218.9418717,E,1,07,1.0,-4.686,M,0.000,M,0.0,*50
$GPGSA,A,3,01,08,10,16,21,23,27,,,,,,2.0,1.2,1.6,1*21
