$GPRMC,000030.00,A,4852.4662586,N,00217.5805411,E,1.19,0.00,180502,0.0,E,A*3F
$GPGGA,000030.00,4852.4662586,N,00217.5805411,E,1,06,1.0,-8.461,M,0.000,M,0.0,*5E
$GPGSA,A,3,01,08,10,16,21,23,,,,,,,2.2,1.3,1.8,1*29
$GPGSV,2,1,06,01,15,255,47,08,73,299,56,10,56,076,54,16,27,182,50,1*66
$GPGSV,2,2,06,21,45,263,53,23,28,048,50,,,,,,,,,1*63
$GPRMC,000031.00,A,4852.4660605,N,00217.5818075,E,0.53,0.00,180502,0.0,E,A*31
$GPGGA,000031.00,4852.4660605,N,00217.5818075,E,1,06,1.0,-9.744,M,0.000,M,0.0,*5A
$GPGSA,A,3,01,08,10,16,21,23,,,,,,,2.2,1.3,1.8,1*29
$GPGSV,2,1,06,01,15,255,47,08,73,299,57,10,56,076,54,16,27,182,50,1*67
$GPGSV,2,2,06,21,45,263,54,23,28,048,50,,,,,,,,,1*64
$GPRMC,000032.00,A,4852.4666250,N,00217.5821019,E,1.28,0.00,180502,0.0,E,A*3D
$GPGGA,000032.00,4852.4666250,N,00217.5821019,E,1,06,1.0,-15.230,M,0.000,M,0.0,*60
$GPGSA,A,3,01,08,10,16,21,23,,,,,,,2.2,1.3,1.8,1*29
$GPGSV,2,1,06,01,15,255,48,08,73,299,57,10,56,076,54,16,27,182,50,1*68
$GPGSV,2,2,06,21,45,263,53,23,28,048,51,,,,,,,,,1*62
$GPRMC,000033.00,A,4852.4665756,N,00217.5806404,E,1.51,0.00,180502,0.0,E,A*3F
$GPGGA,000033.00,4852.4665756,N,00217.5806404,E,1,06,1.0,-15.354,M,0.000,M,0.0,*6F
$GPGSA,A,3,01,08,10,16,21,23,,,,,,,2.2,1.3,1.8,1*29
$GPGSV,2,1,06,01,15,255,48,08,73,299,56,10,56,076,54,16,27,182,49,1*61
$GPGSV,2,2,06,21,45,263,54,23,28,048,50,,,,,,,,,1*64
$GPRMC,000034.00,A,4852.4669008,N,00217.5813381,E,1.85,0.00,180502,0.0,E,A*3F
$GPGGA,000034.00,4852.4669008,N,00217.5813381,E,1,06,1.0,-13.868,M,0.000,M,0.0,*64
$GPGSA,A,3,01,08,10,16,21,23,,,,,,,2.2,1.3,1.8,1*29
$GPGSV,2,1,06,01,15,255,48,08,73,299,56,10,56,076,54,16,27,182,50,1*69
$GPGSV,2,2,06,21,45,263,52,23,28,048,50,,,,,,,,,1*62
$GPRMC,000035.00,A,4852.4661282,N,00217.5808878,E,0.37,0.00,180502,0.0,E,A*39
$GPGGA,000035.00,4852.4661282,N,00217.5808878,E,1,06,1.0,-7.653,M,0.000,M,0.0,*59
$GPGSA,A,3,01,08,10,16,21,23,,,,,,,2.2,1.3,1.8,1*29
$GPGSV,2,1,06,01,15,255,47,08,73,299,58,10,56,076,57,16,27,182,50,1*6B
$GPGSV,2,2,06,21,45,263,52,23,27,048,51,,,,,,,,,1*6C
$GPRMC,000036.00,A,4852.4672754,N,00217.5796360,E,0.93,0.00,180502,0.0,E,A*32
$GPGGA,000036.00,4852.4672754,N,00217.5796360,E,1,06,1.0,-8.319,M,0.000,M,0.0,*58
$GPGSA,A,3,01,08,10,16,21,23,,,,,,,2.2,1.3,1.8,1*29
$GPGSV,2,1,06,01,15,255,49,08,73,299,57,10,56,076,57,16,27,182,51,1*6B
$GPGSV,2,2,06,21,45,263,54,23,27,048,50,,,,,,,,,1*6B
$GPRMC,000037.00,A,4852.4677428,N,00217.5783698,E,0.60,0.00,180502,0.0,E,A*34
$GPGGA,000037.00,4852.4677428,N,00217.5783698,E,1,06,1.0,-2.606,M,0.000,M,0.0,*53
$GPGSA,A,3,01,08,10,16,21,23,,,,,,,2.2,1.3,1.8,1*29
$GPGSV,2,1,06,01,15,255,47,08,73,299,59,10,56,076,56,16,27,182,49,1*63
$GPGSV,2,2,06,21,45,263,53,23,27,048,50,,,,,,,,,1*6C
$GPRMC,000038.00,A,4852.4664009,N,00217.5801735,E,0.53,0.00,180502,0.0,E,A*3D
$GPGGA,000038.00,4852.4664009,N,00217.5801735,E,1,06,1.0,-2.124,M,0.000,M,0.0,*5D
$GPGSA,A,3,01,08,10,16,21,23,,,,,,,2.2,1.3,1.8,1*29
$GPGSV,2,1,06,01,15,255,48,08,73,299,55,10,56,076,55,16,27,182,50,1*6B
$GPGSV,2,2,06,21,45,263,53,23,27,048,50,,,,,,,,,1*6C
$GPRMC,000039.00,A,4852.4669056,N,00217.5808812,E,0.80,0.00,180502,0.0,E,A*36
$GPGGA,000039.00,4852.4669056,N,00217.5808812,E,1,06,1.0,-7.797,M,0.000,M,0.0,*53
$GPGSA,A,3,01,08,10,16,21,23,,,,,,,2.2,1.3,1.8,1*29
$GPGSV,2,1,06,01,15,255,48,08,73,299,56,10,56,076,54,16,27,182,50,1*69
$GPGSV,2,2,06,21,45,263,52,23,27,048,52,,,,,,,,,1*6F
$GPRMC,000040.00,A,4852.4669684,N,00217.5786996,E,1.62,0.00,180502,0.0,E,A*38
$GPGGA,000040.00,4852.4669684,N,00217.5786996,E,1,06,1.0,-7.032,M,0.000,M,0.0,*58
$GPGSA,A,3,01,08,10,16,21,23,,,,,,,2.2,1.3,1.8,1*29
$GPGSV,2,1,06,01,15,255,48,08,73,299,57,10,56,076,55,16,27,182,50,1*69
$GPGSV,2,2,06,21,45,263,52,23,27,048,50,,,,,,,,,1*6D
$GPRMC,000041.00,A,4852.4665695,N,00217.5803625,E,0.52,0.00,180502,0.0,E,A*32
$GPGGA,000041.00,4852.4665695,N,00217.5803625,E,1,06,1.0,-10.909,M,0.000,M,0.0,*67
$GPGSA,A,3,01,08,10,16,21,23,,,,,,,2.2,1.3,1.8,1*29
$GPGSV,2,1,06,01,15,255,47,08,73,299,55,10,56,076,54,16,27,182,50,1*65
$GPGSV,2,2,06,21,45,263,54,23,27,048,50,,,,,,,,,1*6B
$GPRMC,000042.00,A,4852.4658140,N,00217.5820723,E,0.85,0.00,180502,0.0,E,A*3C
$GPGGA,000042.00,4852.4658140,N,00217.5820723,E,1,06,1.0,-14.049,M,0.000,M,0.0,*6A
$GPGSA,A,3,01,08,10,16,21,23,,,,,,,2.2,1.3,1.8,1*29
$GPGSV,2,1,06,01,15,255,49,08,73,299,57,10,56,076,54,16,27,182,50,1*69
$GPGSV,2,2,06,21,45,263,53,23,27,048,50,,,,,,,,,1*6C
$GPRMC,000043.00,A,4852.4667794,N,00217.5812481,E,0.96,0.00,180502,0.0,E,A*36
$GPGGA,000043.00,4852.4667794,N,00217.5812481,E,1,06,1.0,-16.836,M,0.000,M,0.0,*60
$GPGSA,A,3,01,08,10,16,21,23,,,,,,,2.2,1.3,1.8,1*29
$GPGSV,2,1,06,01,15,255,47,08,73,299,56,10,56,076,54,16,27,182,48,1*6F
$GPGSV,2,2,06,21,45,263,54,23,27,048,52,,,,,,,,,1*69
$GPRMC,000044.00,A,4852.4663500,N,00217.5806389,E,0.68,0.00,180502,0.0,E,A*31
$GPGGA,000044.00,4852.4663500,N,00217.5806389,E,1,06,1.0,-13.106,M,0.000,M,0.0,*69
$GPGSA,A,3,01,08,10,16,21,23,,,,,,,2.2,1.3,1.8,1*29
$GPGSV,2,1,06,01,15,255,49,08,73,299,58,10,56,076,56,16,27,182,48,1*6D
$GPGSV,2,2,06,21,45,263,52,23,27,048,51,,,,,,,,,1*6C
$GPRMC,000045.00,A,4852.4663965,N,00217.5802138,E,0.41,0.00,180502,0.0,E,A*38
$GPGGA,000045.00,4852.4663965,N,00217.5802138,E,1,06,1.0,-10.360,M,0.000,M,0.0,*6A
$GPGSA,A,3,01,08,10,16,21,23,,,,,,,2.2,1.3,1.8,1*29
$GPGSV,2,1,06,01,15,255,48,08,73,299,57,10,56,076,56,16,27,182,48,1*63
$GPGSV,2,2,06,21,45,263,52,23,27,048,50,,,,,,,,,1*6D
$GPRMC,000046.00,A,4852.4672188,N,00217.5808335,E,0.46,0.00,180502,0.0,E,A*32
$GPGGA,000046.00,4852.4672188,N,00217.5808335,E,1,06,1.0,-11.115,M,0.000,M,0.0,*66
$GPGSA,A,3,01,08,10,16,21,23,,,,,,,2.2,1.3,1.8,1*29
$GPGSV,2,1,06,01,15,255,49,08,73,299,55,10,56,076,56,16,27,182,48,1*60
$GPGSV,2,2,06,21,45,263,51,23,27,048,50,,,,,,,,,1*6E
$GPRMC,000047.00,A,4852.4662402,N,00217.5796600,E,1.54,0.00,180502,0.0,E,A*3C
$GPGGA,000047.00,4852.4662402,N,00217.5796600,E,1,06,1.0,-4.175,M,0.000,M,0.0,*58
$GPGSA,A,3,01,08,10,16,21,23,,,,,,,2.2,1.3,1.8,1*29
$GPGSV,2,1,06,01,15,255,50,08,73,299,57,10,56,076,58,16,27,182,49,1*65
$GPGSV,2,2,06,21,45,263,52,23,27,048,52,,,,,,,,,1*6F
$GPRMC,000048.00,A,4852.4673182,N,00217.5779564,E,1.32,0.00,180502,0.0,E,A*3E
$GPGGA,000048.00,4852.4673182,N,00217.5779564,E,1,06,1.0,-2.646,M,0.000,M,0.0,*5B
$GPGSA,A,3,01,08,10,16,21,23,,,,,,,2.2,1.3,1.8,1*29
$GPGSV,2,1,06,01,15,255,50,08,73,299,57,10,56,076,55,16,27,182,50,1*60
$GPGSV,2,2,06,21,45,263,54,23,27,048,49,,,,,,,,,1*63
$GPRMC,000049.00,A,4852.4672517,N,00217.5791449,E,1.43,0.00,180502,0.0,E,A*38
$GPGGA,000049.00,4852.4672517,N,00217.5791449,E,1,06,1.0,-5.468,M,0.000,M,0.0,*52
$GPGSA,A,3,01,08,10,16,21,23,,,,,,,2.2,1.3,1.8,1*29
$GPGSV,2,1,06,01,15,255,49,08,73,299,57,10,56,076,54,16,27,182,49,1*61
$GPGSV,2,2,06,21,45,263,51,23,27,048,50,,,,,,,,,1*6E
$GPRMC,000050.00,A,4852.4658320,N,00217.5809903,E,1.13,0.00,180502,0.0,E,A*32
$GPGGA,000050.00,4852.4658320,N,00217.5809903,E,1,06,1.0,-6.859,M,0.000,M,0.0,*50
$GPGSA,A,3,01,08,10,16,21,23,,,,,,,2.2,1.3,1.8,1*29
$GPGSV,2,1,06,01,15,255,49,08,73,299,56,10,56,076,55,16,27,182,51,1*68
$GPGSV,2,2,06,21,45,263,52,23,27,048,51,,,,,,,,,1*6C
$GPRMC,000051.00,A,4852.4671726,N,00217.5807607,E,1.18,0.00,180502,0.0,E,A*34
$GPGGA,000051.00,4852.4671726,N,00217.5807607,E,1,06,1.0,-9.595,M,0.000,M,0.0,*5F
$GPGSA,A,3,01,08,10,16,21,23,,,,,,,2.2,1.3,1.8,1*29
$GPGSV,2,1,06,01,15,255,49,08,73,299,57,10,56,076,55,16,27,182,52,1*6A
$GPGSV,2,2,06,21,45,263,54,23,27,048,53,,,,,,,,,1*68
$GPRMC,000052.00,A,4852.4667904,N,00217.5797181,E,1.97,136.97,180502,0.0,E,A*3C
$GPGGA,000052.00,4852.4667904,N,00217.5797181,E,1,06,1.0,-10.231,M,0.000,M,0.0,*6B
$GPGSA,A,3,01,08,10,16,21,23,,,,,,,2.2,1.3,1.8,1*29
$GPGSV,2,1,06,01,15,255,48,08,73,299,56,10,56,076,56,16,27,182,49,1*63
$GPGSV,2,2,06,21,45,263,54,23,27,048,51,,,,,,,,,1*6A
$GPRMC,000053.00,A,4852.4661845,N,00217.5818610,E,1.41,136.97,180502,0.0,E,A*33
$GPGGA,000053.00,4852.4661845,N,00217.5818610,E,1,06,1.0,-15.879,M,0.000,M,0.0,*6C
$GPGSA,A,3,01,08,10,16,21,23,,,,,,,2.2,1.3,1.8,1*29
$GPGSV,2,1,06,01,15,255,48,08,73,299,57,10,56,076,56,16,27,182,49,1*62
$GPGSV,2,2,06,21,45,263,52,23,27,048,49,,,,,,,,,1*65
$GPRMC,000054.00,A,4852.4662704,N,00217.5830270,E,0.43,136.97,180502,0.0,E,A*36
$GPGGA,000054.00,4852.4662704,N,00217.5830270,E,1,06,1.0,-15.773,M,0.000,M,0.0,*6F
$GPGSA,A,3,01,08,10,16,21,23,,,,,,,2.2,1.3,1.8,1*29
$GPGSV,2,1,06,01,15,255,49,08,73,299,57,10,56,076,55,16,27,182,50,1*68
$GPGSV,2,2,06,21,45,263,53,23,27,048,49,,,,,,,,,1*64
$GPRMC,000055.00,A,4852.4663836,N,00217.5810439,E,0.52,136.97,180502,0.0,E,A*31
$GPGGA,000055.00,4852.4663836,N,00217.5810439,E,1,06,1.0,-12.204,M,0.000,M,0.0,*6A
$GPGSA,A,3,01,08,10,16,21,23,,,,,,,2.2,1.3,1.8,1*29
$GPGSV,2,1,06,01,15,255,49,08,73,299,59,10,56,076,58,16,27,182,51,1*6A
$GPGSV,2,2,06,21,45,263,52,23,27,048,50,,,,,,,,,1*6D
$GPRMC,000056.00,A,4852.4665025,N,00217.5808808,E,1.24,136.97,180502,0.0,E,A*39
$GPGGA,000056.00,4852.4665025,N,00217.5808808,E,1,06,1.0,-11.068,M,0.000,M,0.0,*69
$GPGSA,A,3,01,08,10,16,21,23,,,,,,,2.2,1.3,1.8,1*29
$GPGSV,2,1,06,01,15,255,48,08,73,299,58,10,56,076,56,16,27,182,48,1*6C
$GPGSV,2,2,06,21,45,263,54,23,27,048,50,,,,,,,,,1*6B
$GPRMC,000057.00,A,4852.4662522,N,00217.5814053,E,1.86,136.97,180502,0.0,E,A*3E
$GPGGA,000057.00,4852.4662522,N,00217.5814053,E,1,06,1.0,-6.081,M,0.000,M,0.0,*57
$GPGSA,A,3,01,08,10,16,21,23,,,,,,,2.2,1.3,1.8,1*29
$GPGSV,2,1,06,01,16,255,50,08,73,299,57,10,56,076,55,16,27,182,50,1*63
$GPGSV,2,2,06,21,45,263,53,23,27,048,50,,,,,,,,,1*6C
$GPRMC,000058.00,A,4852.4667116,N,00217.5816928,E,1.12,136.97,180502,0.0,E,A*3D
$GPGGA,000058.00,4852.4667116,N,00217.5816928,E,1,06,1.0,-5.228,M,0.000,M,0.0,*5B
$GPGSA,A,3,01,08,10,16,21,23,,,,,,,2.2,1.3,1.8,1*29
$GPGSV,2,1,06,01,16,255,48,08,73,299,57,10,56,076,56,16,27,182,51,1*68
$GPGSV,2,2,06,21,45,263,52,23,27,048,50,,,,,,,,,1*6D
$GPRMC,000059.00,A,4852.4667399,N,00217.5797532,E,0.89,136.97,180502,0.0,E,A*3B
$GPGGA,000059.00,4852.4667399,N,00217.5797532,E,1,06,1.0,-0.635,M,0.000,M,0.0,*53
$GPGSA,A,3,01,08,10,16,21,23,,,,,,,2.2,1.3,1.8,1*29
$GPGSV,2,1,06,01,16,255,50,08,73,299,57,10,56,076,57,16,26,182,52,1*62
$GPGSV,2,2,06,21,45,263,53,23,27,048,51,,,,,,,,,1*6D
$GPRMC,000100.00,A,4852.4668172,N,00217.5792646,E,0.66,136.97,180502,0.0,E,A*3A
$GPGGA,000100.00,4852.4668172,N,00217.5792646,E,1,06,1.0,0.255,M,0.000,M,0.0,*7C
$GPGSA,A,3,01,08,10,16,21,23,,,,,,,2.2,1.3,1.8,1*29
$GPGSV,2,1,06,01,16,255,49,08,73,299,56,10,56,076,57,16,26,182,50,1*69
$GPGSV,2,2,06,21,45,263,53,23,27,048,50,,,,,,,,,1*6C
$GPRMC,000101.00,A,4852.4665691,N,00217.5817054,E,0.63,136.97,180502,0.0,E,A*3E
$GPGGA,000101.00,4852.4665691,N,00217.5817054,E,1,06,1.0,-4.793,M,0.000,M,0.0,*5B
$GPGSA,A,3,01,08,10,16,21,23,,,,,,,2.2,1.3,1.8,1*29
$GPGSV,2,1,06,01,16,255,48,08,73,299,55,10,56,076,55,16,26,182,50,1*69
$GPGSV,2,2,06,21,45,263,52,23,27,048,51,,,,,,,,,1*6C
$GPRMC,000102.00,A,4852.4655880,N,00217.5811260,E,0.55,136.97,180502,0.0,E,A*36
$GPGGA,000102.00,4852.4655880,N,00217.5811260,E,1,06,1.0,-5.544,M,0.000,M,0.0,*5F
$GPGSA,A,3,01,08,10,16,21,23,,,,,,,2.2,1.3,1.8,1*29
$GPGSV,2,1,06,01,16,255,49,08,73,299,56,10,56,076,55,16,26,182,49,1*63
$GPGSV,2,2,06,21,45,263,53,23,27,048,50,,,,,,,,,1*6C
$GPRMC,000103.00,A,4852.4671135,N,00217.5809621,E,1.54,136.97,180502,0.0,E,A*3E
$GPGGA,000103.00,4852.4671135,N,00217.5809621,E,1,06,1.0,-8.962,M,0.000,M,0.0,*52
$GPGSA,A,3,01,08,10,16,21,23,,,,,,,2.2,1.3,1.8,1*29
$GPGSV,2,1,06,01,16,255,48,08,73,299,56,10,56,076,56,16,26,182,50,1*69
$GPGSV,2,2,06,21,45,263,53,23,27,048,51,,,,,,,,,1*6D
$GPRMC,000104.00,A,4852.4663643,N,00217.5814581,E,1.60,136.97,180502,0.0,E,A*3E
$GPGGA,000104.00,4852.4663643,N,00217.5814581,E,1,06,1.0,-9.863,M,0.000,M,0.0,*54
$GPGSA,A,3,01,08,10,16,21,23,,,,,,,2.2,1.3,1.8,1*29
$GPGSV,2,1,06,01,16,255,47,08,73,299,58,10,56,076,56,16,26,182,50,1*68
$GPGSV,2,2,06,21,45,263,54,23,27,048,50,,,,,,,,,1*6B
$GPRMC,000105.00,A,4852.4656430,N,00217.5829099,E,2.02,353.09,180502,0.0,E,A*3C
$GPGGA,000105.00,4852.4656430,N,00217.5829099,E,1,06,1.0,-13.273,M,0.000,M,0.0,*67
$GPGSA,A,3,01,08,10,16,21,23,,,,,,,2.2,1.3,1.8,1*29
$GPGSV,2,1,06,01,16,255,48,08,73,299,58,10,56,076,55,16,26,182,50,1*64
$GPGSV,2,2,06,21,45,263,53,23,27,048,50,,,,,,,,,1*6C
$GPRMC,000106.00,A,4852.4668654,N,00217.5825835,E,1.16,353.09,180502,0.0,E,A*36
$GPGGA,000106.00,4852.4668654,N,00217.5825835,E,1,06,1.0,-18.063,M,0.000,M,0.0,*63
$GPGSA,A,3,01,08,10,16,21,23,,,,,,,2.2,1.3,1.8,1*29
$GPGSV,2,1,06,01,16,255,48,08,73,299,56,10,56,076,55,16,26,182,51,1*6B
$GPGSV,2,2,06,21,45,263,53,23,27,048,50,,,,,,,,,1*6C
$GPRMC,000107.00,A,4852.4662301,N,00217.5809533,E,0.89,353.09,180502,0.0,E,A*3A
$GPGGA,000107.00,4852.4662301,N,00217.5809533,E,1,06,1.0,-11.615,M,0.000,M,0.0,*66
$GPGSA,A,3,01,08,10,16,21,23,,,,,,,2.2,1.3,1.8,1*29
$GPGSV,2,1,06,01,16,255,47,08,73,299,56,10,56,076,54,16,26,182,50,1*64
$GPGSV,2,2,06,21,45,263,51,23,27,048,51,,,,,,,,,1*6F
$GPRMC,000108.00,A,4852.4656699,N,00217.5826910,E,9.92,112.79,180502,0.0,E,A*35
$GPGGA,000108.00,4852.4656699,N,00217.5826910,E,1,06,1.0,-11.771,M,0.000,M,0.0,*69
$GPGSA,A,3,01,08,10,16,21,23,,,,,,,2.2,1.3,1.8,1*29
$GPGSV,2,1,06,01,16,255,46,08,73,299,57,10,56,076,55,16,26,182,51,1*64
$GPGSV,2,2,06,21,45,263,51,23,27,048,52,,,,,,,,,1*6C
$GPRMC,000109.00,A,4852.4642889,N,00217.5893888,E,20.17,115.95,180502,0.0,E,A*03
$GPGGA,000109.00,4852.4642889,N,00217.5893888,E,1,06,1.0,-7.993,M,0.000,M,0.0,*59
$GPGSA,A,3,01,08,10,16,21,23,,,,,,,2.2,1.3,1.8,1*29
$GPGSV,2,1,06,01,16,255,38,08,73,299,59,10,56,076,52,16,26,182,51,1*64
$GPGSV,2,2,06,21,45,263,45,23,27,048,54,,,,,,,,,1*6F
$GPRMC,000110.00,A,4852.4614372,N,00217.5981494,E,28.60,116.43,180502,0.0,E,A*04
$GPGGA,000110.00,4852.4614372,N,00217.5981494,E,1,06,1.0,-8.619,M,0.000,M,0.0,*5C
$GPGSA,A,3,01,08,10,16,21,23,,,,,,,2.2,1.3,1.8,1*29
$GPGSV,2,1,06,01,16,255,50,08,73,299,57,10,56,076,46,16,26,182,42,1*63
$GPGSV,2,2,06,21,45,263,52,23,27,048,46,,,,,,,,,1*6A
$GPRMC,000111.00,A,4852.4585255,N,00217.6097745,E,31.29,115.32,180502,0.0,E,A*08
$GPGGA,000111.00,4852.4585255,N,00217.6097745,E,1,06,1.0,-9.577,M,0.000,M,0.0,*5A
$GPGSA,A,3,01,08,10,16,21,23,,,,,,,2.2,1.3,1.8,1*29
$GPGSV,2,1,06,01,16,255,53,08,73,299,48,10,56,076,53,16,26,182,39,1*66
$GPGSV,2,2,06,21,45,263,59,23,27,048,38,,,,,,,,,1*68
$GPRMC,000112.00,A,4852.4548917,N,00217.6203330,E,32.76,115.69,180502,0.0,E,A*09
$GPGGA,000112.00,4852.4548917,N,00217.6203330,E,1,06,1.0,-5.227,M,0.000,M,0.0,*52
$GPGSA,A,3,01,08,10,16,21,23,,,,,,,2.2,1.3,1.8,1*29
$GPGSV,2,1,06,01,16,255,50,08,73,299,46,10,56,076,57,16,26,182,48,1*69
$GPGSV,2,2,06,21,45,263,60,23,27,048,48,,,,,,,,,1*65
$GPRMC,000113.00,A,4852.4499988,N,00217.6336805,E,31.38,115.21,180502,0.0,E,A*0C
$GPGGA,000113.00,4852.4499988,N,00217.6336805,E,1,06,1.0,-4.479,M,0.000,M,0.0,*5E
$GPGSA,A,3,01,08,10,16,21,23,,,,,,,2.2,1.3,1.8,1*29
$GPGSV,2,1,06,01,16,255,46,08,73,299,47,10,56,076,55,16,26,182,47,1*62
$GPGSV,2,2,06,21,45,263,52,23,27,048,48,,,,,,,,,1*64
$GPRMC,000114.00,A,4852.4444799,N,00217.6447002,E,22.71,121.71,180502,0.0,E,A*06
$GPGGA,000114.00,4852.4444799,N,00217.6447002,E,1,06,1.0,1.748,M,0.000,M,0.0,*70
$GPGSA,A,3,01,08,10,16,21,23,,,,,,,2.2,1.3,1.8,1*29
$GPGSV,2,1,06,01,16,255,44,08,73,299,42,10,56,076,50,16,26,182,44,1*63
$GPGSV,2,2,06,21,45,263,48,23,27,048,43,,,,,,,,,1*64
$GPRMC,000115.00,A,4852.4464932,N,00217.6524496,E,13.49,114.70,180502,0.0,E,A*09
$GPGGA,000115.00,4852.4464932,N,00217.6524496,E,1,06,1.0,-12.383,M,0.000,M,0.0,*6D
$GPGSA,A,3,01,08,10,16,21,23,,,,,,,2.2,1.3,1.8,1*29
$GPGSV,2,1,06,01,16,255,38,08,73,299,43,10,56,076,44,16,26,182,38,1*67
$GPGSV,2,2,06,21,45,263,44,23,27,048,38,,,,,,,,,1*64
$GPRMC,000116.00,A,4852.4450212,N,00217.6564257,E,10.14,113.80,180502,0.0,E,A*08
$GPGGA,000116.00,4852.4450212,N,00217.6564257,E,1,06,1.0,-10.154,M,0.000,M,0.0,*65
$GPGSA,A,3,01,08,10,16,21,23,,,,,,,2.2,1.3,1.8,1*29
$GPGSV,2,1,06,01,16,255,36,08,73,298,44,10,56,076,41,16,26,182,36,1*64
$GPGSV,2,2,06,21,45,263,40,23,27,048,36,,,,,,,,,1*6E
$GPRMC,000117.00,A,4852.4454856,N,00217.6627965,E,12.42,103.93,180502,0.0,E,A*0B
$GPGGA,000117.00,4852.4454856,N,00217.6627965,E,1,06,1.0,-4.126,M,0.000,M,0.0,*54
$GPGSA,A,3,01,08,10,16,21,23,,,,,,,2.2,1.3,1.8,1*29
$GPGSV,2,1,06,01,16,255,34,08,73,298,57,10,56,076,36,16,26,182,34,1*66
$GPGSV,2,2,06,21,45,263,35,23,27,048,34,,,,,,,,,1*6E
$GPRMC,000118.00,A,4852.4504459,N,00217.6689628,E,13.07,108.80,180502,0.0,E,A*08
$GPGGA,000118.00,4852.4504459,N,00217.6689628,E,1,06,1.0,-11.640,M,0.000,M,0.0,*6D
$GPGSA,A,3,01,08,10,16,21,23,,,,,,,2.2,1.3,1.8,1*29
$GPGSV,2,1,06,01,16,255,34,08,73,298,54,10,56,076,34,16,26,182,34,1*67
$GPGSV,2,2,06,21,45,263,34,23,27,048,34,,,,,,,,,1*6F
$GPRMC,000119.00,A,4852.4475081,N,00217.6821232,E,15.79,109.80,180502,0.0,E,A*02
$GPGGA,000119.00,4852.4475081,N,00217.6821232,E,1,06,1.0,-6.420,M,0.000,M,0.0,*5B
$GPGSA,A,3,01,08,10,16,21,23,,,,,,,2.2,1.3,1.8,1*29
$GPGSV,2,1,06,01,16,255,34,08,74,298,49,10,56,076,34,16,26,182,34,1*6C
$GPGSV,2,2,06,21,45,263,34,23,27,048,34,,,,,,,,,1*6F
$GPRMC,000120.00,A,4852.4474742,N,00217.6889119,E,13.25,122.06,180502,0.0,E,A*01
$GPGGA,000120.00,4852.4474742,N,00217.6889119,E,1,06,1.0,-10.909,M,0.000,M,0.0,*61
$GPGSA,A,3,01,08,10,16,21,23,,,,,,,2.2,1.3,1.8,1*29
$GPGSV,2,1,06,01,16,255,34,08,74,298,53,10,56,076,35,16,26,182,34,1*66
$GPGSV,2,2,06,21,45,263,34,23,27,048,34,,,,,,,,,1*6F
$GPRMC,000121.00,A,4852.4463731,N,00217.6930093,E,20.35,122.48,180502,0.0,E,A*09
$GPGGA,000121.00,4852.4463731,N,00217.6930093,E,1,06,1.0,-13.511,M,0.000,M,0.0,*64
$GPGSA,A,3,01,08,10,16,21,23,,,,,,,2.2,1.3,1.8,1*29
$GPGSV,2,1,06,01,16,255,34,08,74,298,54,10,56,076,36,16,26,182,34,1*62
$GPGSV,2,2,06,21,45,263,36,23,27,048,35,,,,,,,,,1*6C
$GPRMC,000122.00,A,4852.4452331,N,00217.7016652,E,17.99,84.06,180502,0.0,E,A*3E
$GPGGA,000122.00,4852.4452331,N,00217.7016652,E,1,06,1.0,-8.208,M,0.000,M,0.0,*53
$GPGSA,A,3,01,08,10,16,21,23,,,,,,,2.2,1.3,1.8,1*29
$GPGSV,2,1,06,01,16,255,35,08,74,298,51,10,56,076,37,16,26,182,35,1*66
$GPGSV,2,2,06,21,45,263,36,23,27,048,35,,,,,,,,,1*6C
$GPRMC,000123.00,A,4852.4458839,N,00217.7121830,E,20.40,114.42,180502,0.0,E,A*01
$GPGGA,000123.00,4852.4458839,N,00217.7121830,E,1,06,1.0,-27.757,M,0.000,M,0.0,*66
$GPGSA,A,3,01,08,10,16,21,23,,,,,,,2.2,1.3,1.8,1*29
$GPGSV,2,1,06,01,16,255,36,08,74,298,50,10,56,076,41,16,26,182,36,1*66
$GPGSV,2,2,06,21,45,263,39,23,27,048,37,,,,,,,,,1*61
$GPRMC,000124.00,A,4852.4388381,N,00217.7140334,E,20.01,110.47,180502,0.0,E,A*08
$GPGGA,000124.00,4852.4388381,N,00217.7140334,E,1,06,1.0,-24.681,M,0.000,M,0.0,*62
$GPGSA,A,3,01,08,10,16,21,23,,,,,,,2.2,1.3,1.8,1*29
$GPGSV,2,1,06,01,16,255,41,08,74,298,46,10,56,076,47,16,26,182,43,1*65
$GPGSV,2,2,06,21,45,263,46,23,27,048,42,,,,,,,,,1*6B
$GPRMC,000125.00,A,4852.4303488,N,00217.7282321,E,19.22,121.84,180502,0.0,E,A*0B
$GPGGA,000125.00,4852.4303488,N,00217.7282321,E,1,06,1.0,0.330,M,0.000,M,0.0,*73
$GPGSA,A,3,01,08,10,16,21,23,,,,,,,2.2,1.3,1.8,1*29
$GPGSV,2,1,06,01,16,255,46,08,74,298,52,10,56,076,48,16,26,182,44,1*6F
$GPGSV,2,2,06,21,45,263,52,23,27,048,46,,,,,,,,,1*6A
$GPRMC,000126.00,A,4852.4358760,N,00217.7311618,E,15.17,131.23,180502,0.0,E,A*01
$GPGGA,000126.00,4852.4358760,N,00217.7311618,E,1,06,1.0,-17.601,M,0.000,M,0.0,*63
$GPGSA,A,3,01,08,10,16,21,23,,,,,,,2.2,1.3,1.8,1*29
$GPGSV,2,1,06,01,16,255,40,08,74,298,52,10,56,076,45,16,26,182,40,1*60
$GPGSV,2,2,06,21,45,263,44,23,27,048,39,,,,,,,,,1*65
$GPRMC,000127.00,A,4852.4316767,N,00217.7329737,E,15.81,140.91,180502,0.0,E,A*0A
$GPGGA,000127.00,4852.4316767,N,00217.7329737,E,1,06,1.0,-7.137,M,0.000,M,0.0,*5B
$GPGSA,A,3,01,08,10,16,21,23,,,,,,,2.2,1.3,1.8,1*29
$GPGSV,2,1,06,01,16,255,35,08,74,298,49,10,56,076,39,16,26,182,37,1*63
$GPGSV,2,2,06,21,45,263,38,23,27,048,36,,,,,,,,,1*61
$GPRMC,000128.00,A,4852.4288233,N,00217.7386613,E,27.97,149.02,180502,0.0,E,A*00
$GPGGA,000128.00,4852.4288233,N,00217.7386613,E,1,06,1.0,-7.246,M,0.000,M,0.0,*51
$GPGSA,A,3,01,08,10,16,21,23,,,,,,,2.2,1.3,1.8,1*29
$GPGSV,2,1,06,01,16,255,34,08,74,298,51,10,56,076,37,16,26,182,35,1*67
$GPGSV,2,2,06,21,45,263,36,23,27,048,35,,,,,,,,,1*6C
$GPRMC,000129.00,A,4852.4277608,N,00217.7444616,E,28.83,156.66,180502,0.0,E,A*07
$GPGGA,000129.00,4852.4277608,N,00217.7444616,E,1,06,1.0,-8.885,M,0.000,M,0.0,*5A
$GPGSA,A,3,01,08,10,16,21,23,,,,,,,2.2,1.3,1.8,1*29
$GPGSV,2,1,06,01,16,255,34,08,74,298,44,10,56,076,36,16,26,182,34,1*63
$GPGSV,2,2,06,21,45,263,35,23,27,048,35,,,,,,,,,1*6F
$GPRMC,000130.00,A,4852.4205826,N,00217.7505326,E,19.38,149.43,180502,0.0,E,A*01
$GPGGA,000130.00,4852.4205826,N,00217.7505326,E,1,05,1.0,3.838,M,0.000,M,0.0,*74
$GPGSA,A,3,08,10,16,21,23,,,,,,,,3.0,1.6,2.6,1*23
$GPGSV,2,1,05,08,74,298,41,10,56,076,34,16,26,182,34,21,45,263,34,1*66
$GPGSV,2,2,05,23,27,048,34,,,,,,,,,,,,,1*5E
$GPRMC,000131.00,A,4852.4175376,N,00217.7493430,E,29.86,138.19,180502,0.0,E,A*0B
$GPGGA,000131.00,4852.4175376,N,00217.7493430,E,1,05,1.0,6.317,M,0.000,M,0.0,*72
$GPGSA,A,3,08,10,16,21,23,,,,,,,,3.0,1.6,2.6,1*23
$GPGSV,2,1,05,08,74,298,56,10,56,076,34,16,26,182,34,21,45,263,34,1*60
$GPGSV,2,2,05,23,27,048,34,,,,,,,,,,,,,1*5E
$GPRMC,000132.00,A,4852.4240260,N,00217.7506440,E,18.47,121.16,180502,0.0,E,A*09
$GPGGA,000132.00,4852.4240260,N,00217.7506440,E,1,04,1.0,7.599,M,0.000,M,0.0,*78
$GPGSA,A,3,08,10,21,23,,,,,,,,,5.9,4.5,3.8,1*22
$GPGSV,1,1,04,08,74,298,52,10,56,076,34,21,45,263,34,23,27,048,34,1*66
$GPRMC,000133.00,A,4852.4151361,N,00217.7614291,E,24.84,126.15,180502,0.0,E,A*05
$GPGGA,000133.00,4852.4151361,N,00217.7614291,E,1,04,1.0,20.129,M,0.000,M,0.0,*4A
$GPGSA,A,3,08,10,21,23,,,,,,,,,5.9,4.5,3.8,1*22
$GPGSV,1,1,04,08,74,298,49,10,56,076,38,21,45,263,38,23,27,048,34,1*6C
$GPRMC,000134.00,A,4852.4330904,N,00217.7606533,E,27.82,130.09,180502,0.0,E,A*0D
$GPGGA,000134.00,4852.4330904,N,00217.7606533,E,1,04,1.0,-5.505,M,0.000,M,0.0,*5D
$GPGSA,A,3,08,10,21,23,,,,,,,,,5.9,4.5,3.8,1*22
$GPGSV,1,1,04,08,74,298,42,10,56,076,42,21,45,263,40,23,27,048,41,1*67
$GPRMC,000135.00,A,4852.4105847,N,00217.7748891,E,36.07,115.22,180502,0.0,E,A*03
$GPGGA,000135.00,4852.4105847,N,00217.7748891,E,1,04,1.0,-1.900,M,0.000,M,0.0,*5D
$GPGSA,A,3,08,10,21,23,,,,,,,,,5.9,4.5,3.8,1*22
$GPGSV,1,1,04,08,74,298,39,10,56,076,40,21,45,263,36,23,27,048,44,1*6D
$GPRMC,000136.00,A,4852.4106839,N,00217.7832555,E,29.73,112.39,180502,0.0,E,A*0D
$GPGGA,000136.00,4852.4106839,N,00217.7832555,E,1,04,1.0,2.160,M,0.000,M,0.0,*73
$GPGSA,A,3,08,10,21,23,,,,,,,,,5.9,4.5,3.8,1*22
$GPGSV,1,1,04,08,74,298,44,10,56,076,45,21,45,263,41,23,27,048,45,1*63
$GPRMC,000137.00,A,4852.3941715,N,00217.8025257,E,26.70,105.71,180502,0.0,E,A*03
$GPGGA,000137.00,4852.3941715,N,00217.8025257,E,1,04,1.0,1.439,M,0.000,M,0.0,*71
$GPGSA,A,3,08,10,21,23,,,,,,,,,5.9,4.5,3.8,1*22
$GPGSV,1,1,04,08,74,298,54,10,56,076,50,21,45,263,47,23,27,048,43,1*66
$GPRMC,000138.00,A,4852.3917813,N,00217.8129174,E,20.16,101.66,180502,0.0,E,A*0D
$GPGGA,000138.00,4852.3917813,N,00217.8129174,E,1,04,1.0,-5.067,M,0.000,M,0.0,*5D
$GPGSA,A,3,08,10,21,23,,,,,,,,,5.9,4.5,3.8,1*22
$GPGSV,1,1,04,08,74,298,50,10,56,076,45,21,45,263,43,23,27,048,40,1*61
$GPRMC,000139.00,A,4852.3868261,N,00217.8221318,E,21.70,104.59,180502,0.0,E,A*01
$GPGGA,000139.00,4852.3868261,N,00217.8221318,E,1,04,1.0,-5.021,M,0.000,M,0.0,*5B
$GPGSA,A,3,08,10,21,23,,,,,,,,,5.9,4.5,3.8,1*22
$GPGSV,1,1,04,08,74,298,43,10,56,076,38,21,45,263,37,23,27,048,37,1*6A
$GPRMC,000140.00,A,4852.3834986,N,00217.8248315,E,14.28,126.11,180502,0.0,E,A*01
$GPGGA,000140.00,4852.3834986,N,00217.8248315,E,1,04,1.0,-5.817,M,0.000,M,0.0,*51
$GPGSA,A,3,08,10,21,23,,,,,,,,,5.9,4.5,3.8,1*22
$GPGSV,1,1,04,08,74,298,40,10,56,076,36,21,45,263,35,23,27,048,35,1*67
$GPRMC,000141.00,A,4852.3774381,N,00217.8259800,E,10.91,126.41,180502,0.0,E,A*0A
$GPGGA,000141.00,4852.3774381,N,00217.8259800,E,1,04,1.0,-19.959,M,0.000,M,0.0,*6F
$GPGSA,A,3,08,10,21,23,,,,,,,,,5.9,4.5,3.8,1*22
$GPGSV,1,1,04,08,74,298,41,10,56,076,36,21,45,263,35,23,27,048,36,1*65
$GPRMC,000142.00,A,4852.3855399,N,00217.8197364,E,21.70,178.78,180502,0.0,E,A*08
$GPGGA,000142.00,4852.3855399,N,00217.8197364,E,1,04,1.0,-20.578,M,0.000,M,0.0,*64
$GPGSA,A,3,08,10,21,23,,,,,,,,,5.9,4.5,3.8,1*22
$GPGSV,1,1,04,08,74,298,50,10,56,076,37,21,45,263,36,23,27,048,34,1*65
$GPRMC,000143.00,A,4852.3749915,N,00217.8191987,E,19.28,217.17,180502,0.0,E,A*01
$GPGGA,000143.00,4852.3749915,N,00217.8191987,E,1,04,1.0,-19.166,M,0.000,M,0.0,*69
$GPGSA,A,3,08,10,21,23,,,,,,,,,5.9,4.5,3.8,1*22
$GPGSV,1,1,04,08,74,298,48,10,56,076,36,21,45,263,35,23,27,048,34,1*6E
$GPRMC,000144.00,A,4852.3621051,N,00217.8067404,E,29.36,261.73,180502,0.0,E,A*01
$GPGGA,000144.00,4852.3621051,N,00217.8067404,E,1,04,1.0,-32.601,M,0.000,M,0.0,*69
$GPGSA,A,3,08,10,21,23,,,,,,,,,5.9,4.5,3.8,1*22
$GPGSV,1,1,04,08,74,298,47,10,56,076,36,21,45,263,35,23,27,048,34,1*61
$GPRMC,000145.00,A,4852.3648684,N,00217.8042668,E,29.13,220.16,180502,0.0,E,A*0F
$GPGGA,000145.00,4852.3648684,N,00217.8042668,E,1,04,1.0,-26.756,M,0.000,M,0.0,*60
$GPGSA,A,3,08,10,21,23,,,,,,,,,5.9,4.5,3.8,1*22
$GPGSV,1,1,04,08,74,298,49,10,56,076,44,21,45,263,41,23,27,048,43,1*69
$GPRMC,000146.00,A,4852.3617740,N,00217.7939798,E,26.75,223.61,180502,0.0,E,A*07
$GPGGA,000146.00,4852.3617740,N,00217.7939798,E,1,04,1.0,-14.242,M,0.000,M,0.0,*65
$GPGSA,A,3,08,10,21,23,,,,,,,,,5.9,4.5,3.8,1*22
$GPGSV,1,1,04,08,74,298,54,10,56,076,45,21,45,263,44,23,27,048,38,1*6D
$GPRMC,000147.00,A,4852.3517413,N,00217.7887564,E,29.98,252.96,180502,0.0,E,A*07
$GPGGA,000147.00,4852.3517413,N,00217.7887564,E,1,04,1.0,3.022,M,0.000,M,0.0,*78
$GPGSA,A,3,08,10,21,23,,,,,,,,,5.9,4.5,3.8,1*22
$GPGSV,1,1,04,08,74,298,49,10,56,076,44,21,45,263,44,23,27,048,43,1*6C
