     2.11           OBSERVATION DATA    G                   RINEX VERSION / TYPE
BLANK OR G = GPS,  R = GLONASS,  E = GALILEO,  M = MIXED    COMMENT             
GNSS-SDR            joel                19-APR-25 14:43     PGM / RUN BY / DATE 
GPS OBSERVATION DATA FILE GENERATED BY GNSS-SDR             COMMENT             
GNSS-SDR VERSION 0.0.16                                     COMMENT             
See https://gnss-sdr.org                                    COMMENT             
DEFAULT MARKER NAME                                         MARKER NAME         
joel                CTTC                                    OBSERVER / AGENCY   
GNSS-SDR            Software Receiver   0.0.16              REC # / TYPE / VERS 
Antenna number      Antenna type                            ANT # / TYPE        
        0.0000        0.0000        0.0000                  APPROX POSITION XYZ 
        0.0000        0.0000        0.0000                  ANTENNA: DELTA H/E/N
     1     1                                                WAVELENGTH FACT L1/2
     4    C1    L1    D1    S1                              # / TYPES OF OBSERV 
  2002    05    18    00    00   42.3600000     GPS         TIME OF FIRST OBS   
    18                                                      LEAP SECONDS        
                                                            END OF HEADER       
 02  5 18 00 00 43.0000000  0  7G01G21G10G23G16G07G08                           
  23763590.539 7 124878515.381 7      3399.698 7        46.686                  
  21783585.520 8 114473521.344 8      1786.637 8        53.260                  
  21313658.664 9 112004045.667 9      -798.335 9        54.377                  
  23001127.174 8 120871745.352 8     -2818.484 8        49.978                  
  23471245.193 8 123342227.695 8     -3662.987 8        49.407                  
  24961618.630 7 131174203.514 7     -1906.851 7        45.636                  
  20445704.806 9 107442936.360 9       868.244 9        55.796                  
 02  5 18 00 00 44.0000000  0  7G01G21G10G23G16G07G08                           
  23762945.592 7 124875118.259 7      3394.652 7        46.769                  
  21783249.368 9 114471734.133 9      1786.414 9        54.224                  
  21313811.211 8 112004844.024 8      -799.529 8        53.910                  
  23001664.817 8 120874564.620 8     -2818.302 8        50.207                  
  23471943.854 8 123345891.470 8     -3663.420 8        50.486                  
  24961981.978 7 131176108.041 7     -1909.800 7        46.107                  
  20445541.823 9 107442068.516 9       867.784 9        56.822                  
 02  5 18 00 00 45.0000000  0  7G01G21G10G23G16G07G08                           
  23762299.002 7 124871721.311 7      3394.036 7        47.504                  
  21782906.712 8 114469947.232 8      1786.912 8        53.223                  
  21313963.044 9 112005643.022 9      -798.039 9        54.599                  
  23002198.993 8 120877384.250 8     -2818.298 8        51.034                  
  23472640.764 8 123349555.442 8     -3662.069 8        50.282                  
  24962342.700 7 131178012.923 7     -1904.893 7        46.790                  
  20445380.198 9 107441201.149 9       867.254 9        57.365                  
 02  5 18 00 00 46.0000000  0  7G01G21G10G23G16G07G08                           
  23761651.178 8 124868324.515 8      3395.465 8        48.416                  
  21782563.537 8 114468160.641 8      1786.827 8        53.633                  
  21314115.253 9 112006442.619 9      -799.382 9        54.139                  
  23002736.529 8 120880204.292 8     -2822.646 8        50.582                  
  23473337.638 8 123353219.599 8     -3665.616 8        49.299                  
  24962709.051 7 131179918.164 7     -1905.460 7        45.005                  
  20445215.677 9 107440334.259 9       866.662 9        56.298                  
 02  5 18 00 00 47.0000000  0  7G01G21G10G23G16G07G08                           
  23761005.713 7 124864927.872 7      3392.843 7        47.626                  
  21782227.296 8 114466374.352 8      1785.610 8        52.244                  
  21314268.462 8 112007242.812 8      -801.051 8        53.802                  
  23003272.582 8 120883024.723 8     -2822.781 8        49.776                  
  23474035.620 8 123356883.951 8     -3665.574 8        50.480                  
  24963068.451 7 131181823.745 7     -1907.419 7        45.939                  
  20445048.388 9 107439467.823 9       865.981 9        55.627                  
 02  5 18 00 00 48.0000000  0  7G01G21G10G23G16G07G08                           
  23760360.070 7 124861531.391 7      3396.526 7        47.344                  
  21781887.784 8 114464588.358 8      1785.162 8        52.280                  
  21314420.241 9 112008043.612 9      -801.060 9        56.880                  
  23003811.941 8 120885845.546 8     -2822.504 8        50.776                  
  23474732.958 8 123360548.505 8     -3664.555 8        50.439                  
  24963433.175 7 131183729.683 7     -1905.902 7        46.245                  
  20444880.973 9 107438601.862 9       864.956 9        57.918                  
 02  5 18 00 00 49.0000000  0  7G01G21G10G23G16G07G08                           
  23759712.085 8 124858135.070 8      3396.606 8        49.105                  
  21781545.575 8 114462802.662 8      1785.498 8        53.591                  
  21314573.540 9 112008845.055 9      -802.224 9        57.277                  
  23004345.849 8 120888666.780 8     -2821.150 8        49.431                  
  23475429.671 8 123364213.251 8     -3667.136 8        50.711                  
  24963795.095 7 131185635.983 7     -1907.313 7        46.813                  
  20444713.254 9 107437736.377 9       865.608 9        57.232                  
 02  5 18 00 00 50.0000000  0  7G01G21G10G23G16G07G08                           
  23759066.281 7 124854738.906 7      3396.988 7        47.098                  
  21781204.937 8 114461017.265 8      1787.112 8        53.306                  
  21314726.123 9 112009647.095 9      -801.912 9        56.269                  
  23004883.850 8 120891488.407 8     -2822.129 8        49.600                  
  23476128.386 8 123367878.173 8     -3665.733 8        48.834                  
  24964157.050 7 131187542.626 7     -1905.324 7        47.782                  
  20444545.267 9 107436871.361 9       864.887 9        58.649                  
 02  5 18 00 00 51.0000000  0  7G01G21G10G23G16G07G08                           
  23758421.549 7 124851342.921 7      3393.898 7        47.530                  
  21780869.393 8 114459232.167 8      1783.596 8        53.157                  
  21314878.993 9 112010449.732 9      -802.744 9        54.757                  
  23005422.261 8 120894310.419 8     -2821.809 8        49.858                  
  23476824.849 8 123371543.307 8     -3665.764 8        50.496                  
  24964522.918 7 131189449.629 7     -1906.604 7        47.332                  
  20444381.391 9 107436006.807 9       863.708 9        54.623                  
 02  5 18 00 00 52.0000000  0  7G01G21G10G23G16G07G08                           
  23757774.333 8 124847947.075 8      3397.192 8        48.305                  
  21780530.221 8 114457447.364 8      1784.979 8        51.519                  
  21315031.952 9 112011252.989 9      -804.181 9        54.025                  
  23005957.206 8 120897132.815 8     -2822.252 8        51.387                  
  23477522.170 8 123375208.640 8     -3666.340 8        49.676                  
  24964882.460 7 131191356.992 7     -1911.296 7        46.039                  
  20444219.211 9 107435142.730 9       864.521 9        56.359                  
 02  5 18 00 00 53.0000000  0  7G01G21G10G23G16G07G08                           
  23757127.188 7 124844551.402 7      3393.065 7        47.985                  
  21780186.153 8 114455662.858 8      1784.930 8        51.849                  
  21315184.857 9 112012056.876 9      -805.070 9        55.024                  
  23006496.958 8 120899955.603 8     -2823.612 8        49.659                  
  23478220.813 8 123378874.143 8     -3662.365 8        49.496                  
  24965249.365 7 131193264.699 7     -1908.642 7        46.798                  
  20444056.979 9 107434279.131 9       863.373 9        57.119                  
 02  5 18 00 00 54.0000000  0  7G01G21G10G23G16G07G08                           
  23756482.528 7 124841155.887 7      3394.705 7        46.978                  
  21779846.981 8 114453878.667 8      1783.998 8        53.865                  
  21315338.191 9 112012861.360 9      -805.108 9        54.015                  
  23007032.225 8 120902778.776 8     -2824.015 8        50.439                  
  23478916.865 8 123382539.856 8     -3666.085 8        50.113                  
  24965609.086 7 131195172.759 7     -1906.370 7        46.831                  
  20443895.210 9 107433416.008 9       863.127 9        54.942                  
 02  5 18 00 00 55.0000000  0  7G01G21G10G23G16G07G08                           
  23755836.723 8 124837760.521 8      3394.963 8        48.817                  
  21779511.615 8 114452094.796 8      1782.433 8        53.359                  
  21315491.221 9 112013666.441 9      -805.400 9        54.167                  
  23007570.725 8 120905602.340 8     -2822.367 8        49.874                  
  23479614.704 8 123386205.755 8     -3667.153 8        49.605                  
  24965973.632 7 131197081.174 7     -1908.919 7        47.057                  
  20443734.175 9 107432553.338 9       862.157 9        56.863                  
 02  5 18 00 00 56.0000000  0  7G01G21G10G23G16G07G08                           
  23755189.239 7 124834365.326 7      3392.413 7        46.775                  
  21779171.568 9 114450311.209 9      1782.481 9        54.231                  
  21315644.805 9 112014472.138 9      -806.163 9        54.590                  
  23008107.940 8 120908426.322 8     -2824.761 8        51.901                  
  23480314.079 7 123389871.845 7     -3668.043 7        47.429                  
  24966337.589 7 131198989.942 7     -1904.842 7        46.367                  
  20443571.674 9 107431691.145 9       861.565 9        56.020                  
 02  5 18 00 00 57.0000000  0  7G01G21G10G23G16G07G08                           
  23754544.632 8 124830970.292 8      3395.848 8        48.709                  
  21778828.089 8 114448527.933 8      1784.774 8        51.743                  
  21315798.336 9 112015278.470 9      -806.513 9        55.380                  
  23008644.403 8 120911250.685 8     -2824.404 8        50.931                  
  23481009.506 7 123393538.124 7     -3663.681 7        47.421                  
  24966698.364 7 131200899.067 7     -1912.641 7        45.965                  
  20443405.277 9 107430829.429 9       861.555 9        58.258                  
 02  5 18 00 00 58.0000000  0  7G01G21G10G23G16G07G08                           
  23753898.202 8 124827575.410 8      3397.123 8        48.508                  
  21778490.329 8 114446744.946 8      1783.036 8        51.992                  
  21315952.081 9 112016085.397 9      -806.607 9        55.503                  
  23009182.887 8 120914075.446 8     -2825.127 8        50.077                  
  23481707.827 7 123397204.601 7     -3665.606 7        47.741                  
  24967065.037 7 131202808.535 7     -1911.468 7        45.918                  
  20443239.113 9 107429968.189 9       861.868 9        56.996                  
 02  5 18 00 00 59.0000000  0  7G01G21G10G23G16G07G08                           
  23753251.093 8 124824180.701 8      3395.360 8        49.102                  
  21778154.999 8 114444962.266 8      1782.949 8        50.759                  
  21316105.969 9 112016892.921 9      -807.637 9        56.593                  
  23009718.761 8 120916900.586 8     -2824.326 8        49.962                  
  23482406.274 8 123400871.275 8     -3666.559 8        48.523                  
  24967425.347 7 131204718.368 7     -1910.903 7        44.695                  
  20443072.681 9 107429107.403 9       860.769 9        55.322                  
 02  5 18 00 01  0.0000000  0  7G01G21G10G23G16G07G08                           
  23752605.843 8 124820786.142 8      3397.672 8        49.841                  
  21777813.522 8 114443179.873 8      1780.437 8        52.408                  
  21316259.643 9 112017701.078 9      -807.974 9        57.442                  
  23010258.709 8 120919726.103 8     -2826.597 8        51.589                  
  23483102.755 8 123404538.131 8     -3670.424 8        48.695                  
  24967791.144 7 131206628.536 7     -1908.937 7        46.976                  
  20442905.695 9 107428247.093 9       859.873 9        57.003                  
 02  5 18 00 01  1.0000000  0  7G01G21G10G23G16G07G08                           
  23751959.914 8 124817391.741 8      3396.176 8        50.109                  
  21777470.294 8 114441397.790 8      1782.211 8        53.967                  
  21316414.138 9 112018509.852 9      -808.683 9        55.333                  
  23010795.155 8 120922552.020 8     -2823.884 8        49.271                  
  23483801.148 8 123408205.186 8     -3665.101 8        49.377                  
  24968153.278 7 131208539.075 7     -1912.293 7        47.400                  
  20442740.425 9 107427387.259 9       859.804 9        56.639                  
 02  5 18 00 01  2.0000000  0  7G01G21G10G23G16G07G08                           
  23751313.180 8 124813997.510 8      3395.812 8        49.067                  
  21777134.696 8 114439615.991 8      1782.067 8        50.745                  
  21316567.401 9 112019319.225 9      -810.836 9        54.344                  
  23011333.263 8 120925378.329 8     -2824.882 8        50.198                  
  23484499.755 8 123411872.434 8     -3666.524 8        49.127                  
  24968517.788 7 131210449.945 7     -1912.122 7        45.640                  
  20442578.603 9 107426527.904 9       858.934 9        57.190                  
 02  5 18 00 01  3.0000000  0  7G01G21G10G23G16G07G08                           
  23750667.947 8 124810603.432 8      3396.388 8        48.965                  
  21776798.651 8 114437834.515 8      1781.650 8        51.973                  
  21316721.039 9 112020129.192 9      -810.324 9        55.031                  
  23011872.067 8 120928205.043 8     -2826.687 8        50.886                  
  23485196.004 8 123415539.857 8     -3666.902 8        51.017                  
  24968882.030 7 131212361.184 7     -1910.558 7        44.748                  
  20442416.942 9 107425669.000 9       858.101 9        55.565                  
 02  5 18 00 01  4.0000000  0  7G01G21G10G23G16G07G08                           
  23750023.180 8 124807209.508 8      3390.094 8        49.268                  
  21776456.387 9 114436053.350 9      1780.690 9        54.058                  
  21316875.088 9 112020939.780 9      -810.884 9        54.671                  
  23012407.620 8 120931032.149 8     -2826.593 8        53.065                  
  23485895.344 8 123419207.501 8     -3668.043 8        52.165                  
  24969242.842 7 131214272.774 7     -1910.283 7        45.143                  
  20442255.888 9 107424810.575 9       858.146 9        56.758                  
 02  5 18 00 01  5.0000000  0  7G01G21G10G23G16G07G08                           
  23749375.803 8 124803815.766 8      3389.048 8        48.142                  
  21776115.411 8 114434272.482 8      1779.853 8        53.745                  
  21317028.833 9 112021750.999 9      -812.004 9        56.107                  
  23012947.782 8 120933859.640 8     -2827.709 8        51.186                  
  23486593.469 8 123422875.316 8     -3666.007 8        49.209                  
  24969609.996 7 131216184.713 7     -1912.793 7        45.788                  
  20442094.638 9 107423952.625 9       858.150 9        56.300                  
 02  5 18 00 01  6.0000000  0  7G01G21G10G23G16G07G08                           
  23748729.552 8 124800422.169 8      3392.092 8        48.424                  
  21775779.938 8 114432491.913 8      1779.871 8        52.030                  
  21317182.703 9 112022562.814 9      -812.132 9        56.325                  
  23013485.032 8 120936687.498 8     -2827.006 8        48.882                  
  23487290.468 8 123426543.329 8     -3664.421 8        48.790                  
  24969970.915 7 131218096.992 7     -1910.499 7        46.432                  
  20441934.710 9 107423095.154 9       857.033 9        57.028                  
 02  5 18 00 01  7.0000000  0  7G01G21G10G23G16G07G08                           
  23748085.463 8 124797028.723 8      3392.585 8        49.175                  
  21775443.053 8 114430711.640 8      1779.835 8        52.923                  
  21317336.662 9 112023375.226 9      -813.275 9        54.948                  
  23014023.247 8 120939515.762 8     -2827.347 8        48.925                  
  23487989.665 8 123430211.541 8     -3668.269 8        50.153                  
  24970337.480 7 131220009.640 7     -1914.428 7        46.144                  
  20441772.817 9 107422238.146 9       856.573 9        57.067                  
 02  5 18 00 01  8.0000000  0  7G01G21G10G23G16G07G08                           
  23747438.568 8 124793635.467 8      3393.925 8        48.889                  
  21775100.897 8 114428931.669 8      1778.967 8        52.584                  
  21317491.408 9 112024188.271 9      -813.298 9        57.847                  
  23014562.427 8 120942344.417 8     -2828.541 8        49.932                  
  23488687.432 8 123433879.933 8     -3666.730 8        50.799                  
  24970700.042 8 131221922.639 8     -1914.163 8        48.191                  
  20441607.314 9 107421381.601 9       857.242 9        58.691                  
 02  5 18 00 01  9.0000000  0  7G01G21G10G23G16G07G08                           
  23746792.514 8 124790242.353 8      3391.206 8        48.029                  
  21774760.492 8 114427151.990 8      1780.308 8        53.914                  
  21317645.475 9 112025001.930 9      -813.812 9        55.602                  
  23015099.338 8 120945173.476 8     -2829.963 8        50.451                  
  23489384.413 8 123437548.528 8     -3667.221 8        48.442                  
  24971064.499 8 131223835.982 8     -1912.732 8        48.046                  
  20441442.580 9 107420525.537 9       855.921 9        57.486                  
 02  5 18 00 01 10.0000000  0  7G01G21G10G23G16G07G08                           
  23746148.782 8 124786849.394 8      3397.266 8        49.663                  
  21774425.126 8 114425372.613 8      1779.869 8        53.374                  
  21317800.560 9 112025816.190 9      -814.382 9        54.983                  
  23015639.447 8 120948002.930 8     -2828.602 8        50.122                  
  23490083.825 8 123441217.312 8     -3669.607 8        49.565                  
  24971429.742 8 131225749.682 8     -1914.157 8        48.423                  
  20441277.541 9 107419669.949 9       855.829 9        56.886                  
 02  5 18 00 01 11.0000000  0  7G01G21G10G23G16G07G08                           
  23745502.299 7 124783456.614 7      3393.349 7        47.540                  
  21774088.456 8 114423593.533 8      1779.054 8        51.791                  
  21317955.342 9 112026631.045 9      -815.055 9        56.145                  
  23016176.500 8 120950832.753 8     -2827.749 8        50.591                  
  23490781.896 8 123444886.278 8     -3669.678 8        50.920                  
  24971791.840 8 131227663.729 8     -1913.668 8        48.145                  
  20441111.842 9 107418814.837 9       854.967 9        57.305                  
 02  5 18 00 01 12.0000000  0  7G01G21G10G23G16G07G08                           
  23744855.923 8 124780063.977 8      3389.547 8        49.999                  
  21773745.228 8 114421814.764 8      1779.351 8        53.130                  
  21318109.748 9 112027446.519 9      -816.637 9        57.106                  
  23016715.734 8 120953662.963 8     -2829.952 8        50.663                  
  23491479.449 8 123448555.446 8     -3669.305 8        51.402                  
  24972158.744 7 131229578.130 7     -1918.444 7        47.879                  
  20440946.553 9 107417960.178 9       854.477 9        57.346                  
 02  5 18 00 01 13.0000000  0  7G01G21G10G23G16G07G08                           
  23744211.298 8 124776671.505 8      3391.720 8        48.967                  
  21773406.360 8 114420036.306 8      1778.245 8        52.769                  
  21318266.030 9 112028262.629 9      -816.412 9        56.966                  
  23017255.253 8 120956493.562 8     -2828.604 8        50.187                  
  23492178.503 8 123452224.792 8     -3669.400 8        50.378                  
  24972519.055 7 131231492.871 7     -1913.298 7        46.492                  
  20440784.410 9 107417105.995 9       854.120 9        56.033                  
 02  5 18 00 01 14.0000000  0  7G01G21G10G23G16G07G08                           
  23743565.815 8 124773279.202 8      3392.187 8        48.572                  
  21773072.709 8 114418258.155 8      1778.604 8        51.988                  
  21318421.151 9 112029079.330 9      -816.833 9        54.916                  
  23017792.378 8 120959324.566 8     -2830.581 8        50.849                  
  23492876.306 8 123455894.338 8     -3670.839 8        49.974                  
  24972887.390 7 131233407.973 7     -1915.980 7        46.574                  
  20440624.053 9 107416252.288 9       854.178 9        54.648                  
 02  5 18 00 01 15.0000000  0  7G01G21G10G23G16G07G08                           
  23742918.849 8 124769887.055 8      3390.622 8        48.709                  
  21772733.484 8 114416480.292 8      1778.188 8        52.842                  
  21318576.290 9 112029896.630 9      -817.228 9        55.310                  
  23018333.863 8 120962155.968 8     -2830.900 8        50.298                  
  23493573.967 8 123459564.079 8     -3669.919 8        49.043                  
  24973249.666 7 131235323.428 7     -1916.105 7        46.906                  
  20440463.804 9 107415399.060 9       853.193 9        55.706                  
 02  5 18 00 01 16.0000000  0  7G01G21G10G23G16G07G08                           
  23742273.795 8 124766495.061 8      3395.022 8        48.237                  
  21772392.310 8 114414702.739 8      1778.254 8        52.836                  
  21318731.358 9 112030714.537 9      -818.504 9        55.979                  
  23018869.988 8 120964987.752 8     -2831.740 8        50.733                  
  23494273.950 8 123463233.995 8     -3672.081 8        49.587                  
  24973615.838 7 131237239.229 7     -1915.942 7        46.185                  
  20440303.823 9 107414546.308 9       853.054 9        56.600                  
 02  5 18 00 01 17.0000000  0  7G01G21G10G23G16G07G08                           
  23741629.742 7 124763103.249 7      3388.903 7        46.926                  
  21772053.782 9 114412925.472 9      1777.476 9        54.418                  
  21318887.997 9 112031533.086 9      -819.215 9        56.123                  
  23019409.257 8 120967819.905 8     -2834.094 8        50.228                  
  23494971.199 8 123466904.115 8     -3670.898 8        50.233                  
  24973980.724 8 131239155.390 8     -1916.852 8        48.114                  
  20440143.252 9 107413694.011 9       852.008 9        57.661                  
 02  5 18 00 01 18.0000000  0  7G01G21G10G23G16G07G08                           
  23740983.956 7 124759711.579 7      3392.970 7        47.715                  
  21771719.292 8 114411148.520 8      1775.581 8        53.196                  
  21319043.762 9 112032352.234 9      -820.188 9        55.370                  
  23019949.169 8 120970652.452 8     -2830.608 8        49.599                  
  23495669.431 8 123470574.416 8     -3672.516 8        49.397                  
  24974342.536 7 131241071.889 7     -1914.785 7        47.696                  
  20439983.771 9 107412842.189 9       850.985 9        57.423                  
 02  5 18 00 01 19.0000000  0  7G01G21G10G23G16G07G08                           
  23740337.043 7 124756320.076 7      3392.726 7        47.747                  
  21771381.442 8 114409371.842 8      1774.970 8        52.677                  
  21319200.973 9 112033171.975 9      -819.750 9        54.664                  
  23020485.776 8 120973485.406 8     -2832.122 8        50.264                  
  23496368.485 8 123474244.912 8     -3669.737 8        50.746                  
  24974711.120 8 131242988.739 8     -1916.079 8        48.139                  
  20439822.199 9 107411990.844 9       850.794 9        56.581                  
 02  5 18 00 01 20.0000000  0  7G01G21G10G23G16G07G08                           
  23739693.776 7 124752928.979 7      3390.298 7        47.309                  
  21771039.554 8 114407595.690 8      1774.650 8        50.992                  
  21319357.971 8 112033992.166 8      -819.473 8        53.410                  
  23021027.333 8 120976318.645 8     -2831.649 8        50.787                  
  23497066.664 8 123477915.477 8     -3671.991 8        50.064                  
  24975072.378 7 131244906.276 7     -1918.166 7        47.208                  
  20439658.572 9 107411140.073 9       849.547 9        56.525                  
 02  5 18 00 01 21.0000000  0  7G01G21G10G23G16G07G08                           
  23739050.116 7 124749549.053 7      3371.633 7        47.415                  
  21770703.795 8 114405828.870 8      1759.524 8        51.511                  
  21319513.503 9 112034806.411 9      -808.256 9        55.097                  
  23021565.512 8 120979147.224 8     -2825.606 8        51.008                  
  23497763.573 8 123481580.839 8     -3661.066 8        50.621                  
  24975443.786 7 131246838.702 7     -1946.256 7        46.894                  
  20439496.018 9 107410294.107 9       841.531 9        56.362                  
 02  5 18 00 01 22.0000000  0  7G01G21G10G23G16G07G08                           
  23738407.689 7 124746187.991 7      3352.541 7        47.307                  
  21770374.254 8 114404077.683 8      1742.652 8        53.868                  
  21319666.461 8 112035610.110 8      -798.655 8        53.737                  
  23022101.743 8 120981967.677 8     -2818.286 8        51.648                  
  23498461.931 8 123485237.203 8     -3654.526 8        50.282                  
  24975813.103 7 131248796.129 7     -1971.015 7        46.122                  
  20439334.267 9 107409455.933 9       834.886 9        56.131                  
 02  5 18 00 01 23.0000000  0  7G01G21G10G23G16G07G08                           
  23737774.197 8 124742845.792 8      3334.717 8        48.316                  
  21770045.286 8 114402342.147 8      1728.522 8        52.278                  
  21319817.472 9 112036403.222 9      -787.902 9        54.801                  
  23022636.796 8 120984779.994 8     -2806.684 8        49.568                  
  23499154.266 8 123488884.556 8     -3640.513 8        49.423                  
  24976193.212 7 131250778.588 7     -1994.709 7        46.188                  
  20439173.946 9 107408625.557 9       826.452 9        56.707                  
 02  5 18 00 01 24.0000000  0  7G01G21G10G23G16G07G08                           
  23737141.079 8 124739517.608 8      3326.359 8        49.294                  
  21769713.619 8 114400618.280 8      1721.440 8        53.330                  
  21319967.340 9 112037188.673 9      -784.892 9        56.698                  
  23023171.079 8 120987586.399 8     -2807.254 8        50.766                  
  23499846.548 8 123492525.222 8     -3639.644 8        50.560                  
  24976571.053 7 131252779.698 7     -2003.988 7        45.352                  
  20439016.181 9 107407801.078 9       823.626 9        54.762                  
 02  5 18 00 01 25.0000000  0  7G01G21G10G23G16G07G08                           
  23736508.659 8 124736190.514 8      3326.641 8        48.080                  
  21769382.953 8 114398895.491 8      1723.354 8        53.948                  
  21320116.832 9 112037974.191 9      -785.668 9        56.146                  
  23023704.577 8 120990392.874 8     -2805.838 8        49.432                  
  23500541.420 8 123496165.440 8     -3640.704 8        49.542                  
  24976955.058 7 131254782.453 7     -2002.332 7        47.276                  
  20438857.790 9 107406977.449 9       823.095 9        56.125                  
 02  5 18 00 01 26.0000000  0  7G01G21G10G23G16G07G08                           
  23735874.291 8 124732862.735 8      3331.649 8        49.334                  
  21769056.235 9 114397172.422 9      1724.983 9        54.335                  
  21320266.039 9 112038760.822 9      -788.460 9        57.604                  
  23024239.129 8 120993200.633 8     -2808.679 8        51.428                  
  23501231.772 8 123499805.190 8     -3640.992 8        48.997                  
  24977333.363 7 131256784.985 7     -2001.380 7        46.570                  
  20438699.685 9 107406154.202 9       823.913 9        57.195                  
 02  5 18 00 01 27.0000000  0  7G01G21G10G23G16G07G08                           
  23735238.475 7 124729521.970 7      3351.489 7        47.768                  
  21768730.018 8 114395439.340 8      1742.600 8        52.434                  
  21320417.443 9 112039555.857 9      -802.590 9        55.877                  
  23024776.343 8 120996016.657 8     -2820.038 8        50.963                  
  23501925.769 7 123503447.628 7     -3644.297 7        47.652                  
  24977714.188 8 131258772.458 8     -1972.640 8        49.103                  
  20438542.169 9 107405327.145 9       831.510 9        56.723                  
 02  5 18 00 01 28.0000000  0  7G01G21G10G23G16G07G08                           
  23734599.890 7 124726157.964 7      3377.593 7        45.668                  
  21768397.815 9 114393688.180 9      1760.529 9        55.202                  
  21320571.956 9 112040365.407 9      -816.542 9        54.919                  
  23025312.217 8 120998846.972 8     -2837.973 8        51.963                  
  23502619.695 8 123507094.936 8     -3651.276 8        48.022                  
  24978082.897 8 131260732.843 8     -1949.944 8        50.173                  
  20438384.386 9 107404492.969 9       836.900 9        56.770                  
 02  5 18 00 01 29.0000000  0  7G01G21G10G23G16G07G08                           
  23733954.568 7 124722774.957 7      3387.740 7        46.958                  
  21768058.036 8 114391922.116 8      1769.850 8        53.837                  
  21320728.328 9 112041186.944 9      -825.169 9        54.629                  
  23025855.024 8 121001688.544 8     -2848.469 8        50.908                  
  23503313.763 8 123510747.417 8     -3650.320 8        49.746                  
  24978456.378 8 131262670.420 8     -1933.575 8        48.057                  
  20438226.638 9 107403652.788 9       839.982 9        57.494                  
 02  5 18 00 01 30.0000000  0  7G01G21G10G23G16G07G08                           
  23733308.513 8 124719380.936 8      3399.286 8        48.795                  
  21767718.989 8 114390149.675 8      1775.467 8        52.519                  
  21320886.094 9 112042015.499 9      -832.965 9        55.538                  
  23026398.993 8 121004545.573 8     -2868.972 8        50.039                  
  23504007.600 8 123514384.454 8     -3627.086 8        49.611                  
  24978821.174 7 131264604.098 7     -1933.534 7        46.218                  
  20438068.086 9 107402813.552 9       838.220 9        58.195                  
 02  5 18 00 01 31.0000000  0  7G01G21G10G23G16G07G08                           
  23732661.994 8 124715976.333 8      3406.120 8        49.499                  
  21767384.410 8 114388371.686 8      1778.057 8        52.169                  
  21321045.039 8 112042850.732 8      -834.455 8        52.860                  
  23026944.016 8 121007419.534 8     -2877.584 8        49.633                  
  23504694.878 8 123518002.418 8     -3615.925 8        51.225                  
  24979191.188 7 131266536.157 7     -1929.361 7        45.591                  
  20437910.410 9 107401976.238 9       835.719 9        55.917                  
 02  5 18 00 01 32.0000000  0  7G01G21G10G23G16G07G08                           
  23732014.010 8 124712576.502 8      3395.210 8        48.904                  
  21767048.597 9 114386597.684 9      1770.175 9        54.267                  
  21321204.073 8 112043683.875 8      -832.879 8        52.236                  
  23027492.703 8 121010291.450 8     -2870.627 8        50.794                  
  23505383.443 8 123521619.060 8     -3618.993 8        50.200                  
  24979557.807 7 131268474.208 7     -1943.540 7        44.924                  
  20437752.984 9 107401140.998 9       834.523 9        55.335                  
 02  5 18 00 01 33.0000000  0  7G01G21G10G23G16G07G08                           
  23731368.992 8 124709185.108 8      3383.930 8        50.177                  
  21766708.281 8 114384829.538 8      1766.103 8        52.400                  
  21321361.999 8 112044512.842 8      -826.423 8        52.906                  
  23028036.796 8 121013155.128 8     -2859.092 8        48.657                  
  23506071.579 8 123525242.102 8     -3625.280 8        49.796                  
  24979931.180 7 131270418.397 7     -1949.830 7        46.962                  
  20437595.647 9 107400307.083 9       833.051 9        56.575                  
 02  5 18 00 01 34.0000000  0  7G01G21G10G23G16G07G08                           
  23730725.671 8 124705802.373 8      3378.190 8        49.131                  
  21766371.200 8 114383067.564 8      1759.329 8        52.742                  
  21321518.389 8 112045337.470 8      -821.744 8        52.357                  
  23028579.139 8 121016010.979 8     -2850.080 8        51.121                  
  23506762.199 8 123528870.311 8     -3627.393 8        49.304                  
  24980299.246 7 131272369.600 7     -1951.124 7        46.947                  
  20437439.400 9 107399474.833 9       831.648 9        56.221                  
 02  5 18 00 01 35.0000000  0  7G01G21G10G23G16G07G08                           
  23730080.975 8 124702426.679 8      3370.793 8        48.025                  
  21766039.837 8 114381309.945 8      1753.813 8        52.670                  
  21321673.760 9 112046158.811 9      -817.385 9        54.906                  
  23029123.019 8 121018857.779 8     -2844.022 8        52.259                  
  23507456.536 8 123532508.645 8     -3641.465 8        48.699                  
  24980672.941 8 131274323.637 8     -1959.784 8        48.107                  
  20437282.600 9 107398642.672 9       830.425 9        57.641                  
 02  5 18 00 01 36.0000000  0  7G01G21G10G23G16G07G08                           
  23729440.781 8 124699060.490 8      3362.986 8        48.323                  
  21765709.492 8 114379559.365 8      1747.289 8        50.629                  
  21321828.041 9 112046975.278 9      -815.976 9        54.129                  
  23029662.127 8 121021696.985 8     -2834.952 8        51.754                  
  23508150.050 8 123536150.399 8     -3646.775 8        49.715                  
  24981044.509 7 131276286.454 7     -1966.573 7        47.119                  
  20437124.548 9 107397812.830 9       829.198 9        54.218                  
 02  5 18 00 01 37.0000000  0  7G01G21G10G23G16G07G08                           
  23728805.627 7 124695702.054 7      3355.648 7        47.443                  
  21765375.574 8 114377814.186 8      1742.746 8        52.272                  
  21321983.055 9 112047787.963 9      -810.124 9        55.301                  
  23030201.325 8 121024528.684 8     -2826.043 8        50.911                  
  23508840.956 8 123539798.016 8     -3649.669 8        49.129                  
  24981420.706 7 131278254.905 7     -1970.689 7        46.352                  
  20436965.460 9 107396984.242 9       828.610 9        54.474                  
 02  5 18 00 01 38.0000000  0  7G01G21G10G23G16G07G08                           
  23728165.433 8 124692350.074 8      3348.135 8        48.511                  
  21765040.369 8 114376073.353 8      1738.711 8        53.586                  
  21322136.443 9 112048597.620 9      -808.571 9        56.128                  
  23030738.611 8 121027353.559 8     -2822.300 8        50.469                  
  23509537.240 8 123543451.892 8     -3657.022 8        49.400                  
  24981794.794 7 131280227.447 7     -1973.525 7        47.342                  
  20436806.640 9 107396156.452 9       827.461 9        55.841                  
 02  5 18 00 01 39.0000000  0  7G01G21G10G23G16G07G08                           
  23727529.528 8 124689003.352 8      3343.326 8        48.548                  
  21764711.347 8 114374335.866 8      1735.271 8        53.533                  
  21322289.884 9 112049404.979 9      -806.788 9        55.986                  
  23031273.484 8 121030171.947 8     -2815.422 8        49.929                  
  23510232.846 8 123547113.066 8     -3662.609 8        49.813                  
  24982172.134 7 131282202.315 7     -1973.774 7        47.869                  
  20436647.999 9 107395328.935 9       827.812 9        55.729                  
 02  5 18 00 01 40.0000000  0  7G01G21G10G23G16G07G08                           
  23726891.694 7 124685659.888 7      3342.921 7        47.339                  
  21764383.539 8 114372600.304 8      1735.872 8        53.351                  
  21322443.897 9 112050211.196 9      -806.218 9        56.356                  
  23031811.091 8 121032985.727 8     -2812.782 8        51.333                  
  23510933.401 8 123550780.418 8     -3672.060 8        51.894                  
  24982546.615 8 131284177.889 8     -1971.349 8        48.927                  
  20436489.429 9 107394501.338 9       828.479 9        56.566                  
 02  5 18 00 01 41.0000000  0  7G01G21G10G23G16G07G08                           
  23726255.181 8 124682316.476 8      3338.079 8        48.594                  
  21764053.999 8 114370863.994 8      1730.453 8        52.706                  
  21322595.248 9 112051018.186 9      -804.589 9        58.011                  
  23032344.321 8 121035796.151 8     -2803.238 8        49.511                  
  23511632.455 8 123554456.000 8     -3677.812 8        50.608                  
  24982922.633 7 131286149.723 7     -1976.730 7        47.742                  
  20436329.895 9 107393672.335 9       827.517 9        55.619                  
 02  5 18 00 01 42.0000000  0  7G01G21G10G23G16G07G08                           
  23725622.171 7 124678980.440 7      3330.237 7        47.181                  
  21763722.904 8 114369132.520 8      1731.620 8        53.488                  
  21322749.136 9 112051821.614 9      -802.585 9        56.852                  
  23032879.802 8 121038598.131 8     -2799.678 8        51.538                  
  23512334.547 8 123558139.939 8     -3687.529 8        51.044                  
  24983296.024 7 131288125.650 7     -1972.596 7        45.437                  
  20436170.485 9 107392843.923 9       829.070 9        56.157                  
 02  5 18 00 01 43.0000000  0  7G01G21G10G23G16G07G08                           
  23724987.320 8 124675646.312 8      3329.042 8        48.072                  
  21763389.021 8 114367401.758 8      1727.805 8        53.058                  
  21322901.594 8 112052624.688 8      -800.837 8        52.479                  
  23033410.208 8 121041395.638 8     -2793.874 8        50.647                  
  23513035.673 8 123561831.697 8     -3697.288 8        51.494                  
  24983675.562 7 131290100.048 7     -1974.690 7        45.853                  
  20436011.362 9 107392014.741 9       829.084 9        54.856                  
 02  5 18 00 01 44.0000000  0  7G01G21G10G23G16G07G08                           
  23724352.970 8 124672317.263 8      3331.384 8        49.060                  
  21763061.303 8 114365673.970 8      1729.039 8        52.826                  
  21323054.267 8 112053425.551 8      -802.004 8        53.695                  
  23033941.919 8 121044185.953 8     -2787.519 8        48.572                  
  23513740.624 8 123565532.474 8     -3704.685 8        49.979                  
  24984052.277 7 131292075.755 7     -1974.351 7        47.524                  
  20435851.184 9 107391185.352 9       829.490 9        56.916                  
 02  5 18 00 01 45.0000000  0  7G01G21G10G23G16G07G08                           
  23723719.602 8 124668987.122 8      3332.403 8        48.905                  
  21762736.712 8 114363944.972 8      1729.587 8        53.641                  
  21323206.619 8 112054227.808 8      -803.013 8        53.036                  
  23034472.807 8 121046975.188 8     -2791.036 8        48.819                  
  23514444.324 8 123569238.291 8     -3705.857 8        51.228                  
  24984426.365 7 131294048.071 7     -1974.031 7        46.218                  
  20435693.096 9 107390354.989 9       829.974 9        55.649                  
 02  5 18 00 01 46.0000000  0  7G01G21G10G23G16G07G08                           
  23723084.788 8 124665650.875 8      3341.486 8        48.514                  
  21762408.744 8 114362211.683 8      1738.941 8        51.756                  
  21323359.792 9 112055034.347 9      -812.232 9        54.602                  
  23035004.643 8 121049769.925 8     -2804.324 8        51.092                  
  23515149.079 8 123572942.645 8     -3696.051 8        49.767                  
  24984798.469 7 131296014.792 7     -1961.187 7        47.746                  
  20435536.242 9 107389523.741 9       831.944 9        54.525                  
 02  5 18 00 01 47.0000000  0  7G01G21G10G23G16G07G08                           
  23722446.917 7 124662295.030 7      3361.092 7        47.276                  
  21762073.289 8 114360465.693 8      1750.695 8        51.635                  
  21323516.450 9 112055852.973 9      -822.436 9        55.060                  
  23035541.661 8 121052586.833 8     -2826.303 8        51.578                  
  23515852.064 8 123576630.005 8     -3682.802 8        49.764                  
  24985172.933 7 131297969.111 7     -1953.402 7        46.091                  
  20435379.281 9 107388691.424 9       831.657 9        55.232                  
 02  5 18 00 01 48.0000000  0  7G01G21G10G23G16G07G08                           
  23721809.082 8 124658939.300 8      3347.203 8        48.985                  
  21761739.335 8 114358721.265 8      1736.564 8        53.658                  
  21323671.731 9 112056672.138 9      -813.861 9        54.873                  
  23036076.141 8 121055409.402 8     -2819.023 8        49.444                  
  23516550.635 8 123580306.522 8     -3668.794 8        48.528                  
  24985544.054 7 131299929.155 7     -1974.503 7        44.888                  
  20435222.105 8 107387862.075 8       826.154 8        53.877                  
 02  5 18 00 01 49.0000000  0  7G01G21G10G23G16G07G08                           
  23721171.748 7 124655601.084 7      3328.287 7        47.489                  
  21761410.205 8 114356991.847 8      1721.277 8        52.336                  
  21323825.566 9 112057481.535 9      -803.889 9        56.375                  
  23036614.803 8 121058226.467 8     -2814.868 8        50.568                  
  23517248.206 8 123583970.510 8     -3655.936 8        49.268                  
  24985923.878 7 131301914.477 7     -1994.212 7        46.272                  
  20435066.966 9 107387040.867 9       817.884 9        55.283                  
 02  5 18 00 01 50.0000000  0  7G01G21G10G23G16G07G08                           
  23720540.042 7 124652278.158 7      3322.830 7        47.080                  
  21761087.509 8 114355275.679 8      1712.595 8        52.815                  
  21323977.989 9 112058282.461 9      -799.605 9        56.481                  
  23037146.978 8 121061039.236 8     -2811.154 8        51.630                  
  23517944.062 8 123587622.569 8     -3648.257 8        49.029                  
  24986303.041 7 131303922.354 7     -2012.132 7        44.740                  
  20434912.899 9 107386227.009 9       812.854 9        56.886                  
 02  5 18 00 01 51.0000000  0  7G01G21G10G23G16G07G08                           
  23719908.980 7 124648958.128 7      3315.995 7        47.900                  
  21760762.596 8 114353562.268 8      1715.561 8        50.510                  
  21324129.857 9 112059082.366 9      -799.487 9        54.364                  
  23037685.854 8 121063852.267 8     -2813.168 8        50.335                  
  23518637.094 8 123591271.284 8     -3647.261 8        49.706                  
  24986687.815 7 131305935.240 7     -2014.101 7        45.080                  
  20434759.780 9 107385415.180 9       811.436 9        54.238                  
 02  5 18 00 01 52.0000000  0  7G01G21G10G23G16G07G08                           
  23719277.238 7 124645637.624 7      3322.635 7        47.504                  
  21760434.896 8 114351848.779 8      1714.353 8        52.731                  
  21324282.209 8 112059883.266 8      -802.843 8        53.450                  
  23038219.388 8 121066666.486 8     -2815.006 8        50.811                  
  23519332.092 8 123594919.339 8     -3647.878 8        49.101                  
  24987069.050 7 131307948.206 7     -2012.007 7        45.623                  
  20434605.963 9 107384603.821 9       811.002 9        54.365                  
 02  5 18 00 01 53.0000000  0  7G01G21G10G23G16G07G08                           
  23718641.726 7 124642307.694 7      3340.839 7        47.881                  
  21760103.891 9 114350128.116 9      1729.734 9        55.258                  
  21324436.079 9 112060690.436 9      -813.144 9        54.651                  
  23038756.959 8 121069487.025 8     -2826.408 8        51.463                  
  23520027.518 8 123598569.001 8     -3653.448 8        49.940                  
  24987453.627 7 131309950.498 7     -1985.274 7        46.916                  
  20434451.789 9 107383789.951 9       816.524 9        56.548                  
 02  5 18 00 01 54.0000000  0  7G01G21G10G23G16G07G08                           
  23718002.963 7 124638955.036 7      3363.309 7        47.817                  
  21759772.563 8 114348389.900 8      1747.167 8        53.812                  
  21324593.398 9 112061511.813 9      -829.134 9        55.916                  
  23039297.104 8 121072321.867 8     -2841.795 8        50.903                  
  23520721.158 8 123602222.781 8     -3655.700 8        52.673                  
  24987826.000 7 131311926.595 7     -1961.041 7        45.708                  
  20434296.114 9 107382969.326 9       824.538 9        56.910                  
 02  5 18 00 01 55.0000000  0  7G01G21G10G23G16G07G08                           
  23717363.144 8 124635578.819 8      3382.859 8        48.054                  
  21759441.790 8 114346633.321 8      1762.033 8        52.950                  
  21324753.754 9 112062347.845 9      -842.241 9        56.359                  
  23039836.552 8 121075170.923 8     -2854.416 8        50.547                  
  23521418.050 8 123605881.957 8     -3662.188 8        51.047                  
  24988200.213 7 131313874.944 7     -1935.710 7        46.640                  
  20434140.654 9 107382141.444 9       830.183 9        56.613                  
 02  5 18 00 01 56.0000000  0  7G01G21G10G23G16G07G08                           
  23716717.679 8 124632188.108 8      3398.873 8        48.231                  
  21759107.639 8 114344866.276 8      1772.744 8        51.183                  
  21324915.469 9 112063193.127 9      -851.593 9        56.499                  
  23040383.541 8 121078031.882 8     -2872.797 8        50.261                  
  23522114.567 8 123609538.381 8     -3646.601 8        49.207                  
  24988565.081 7 131315809.305 7     -1927.793 7        46.951                  
  20433984.353 9 107381310.663 9       830.007 9        55.877                  
 02  5 18 00 01 57.0000000  0  7G01G21G10G23G16G07G08                           
  23716066.800 8 124628775.778 8      3424.713 8        49.000                  
  21758764.929 8 114343085.337 8      1790.406 8        52.292                  
  21325079.328 9 112064051.708 9      -865.242 9        55.732                  
  23040931.905 8 121080917.592 8     -2897.719 8        51.587                  
  23522805.472 8 123613175.329 8     -3628.962 8        49.441                  
  24988934.005 7 131317730.247 7     -1913.811 7        47.656                  
  20433825.927 9 107380478.820 9       832.928 9        56.291                  
 02  5 18 00 01 58.0000000  0  7G01G21G10G23G16G07G08                           
  23715414.259 7 124625340.171 7      3443.775 7        47.872                  
  21758421.290 8 114341288.976 8      1804.528 8        53.057                  
  21325245.724 9 112064924.652 9      -879.776 9        54.575                  
  23041484.362 8 121083828.263 8     -2921.415 8        49.650                  
  23523494.252 8 123616794.821 8     -3612.341 8        48.817                  
  24989293.065 7 131319634.929 7     -1898.847 7        47.052                  
  20433665.713 9 107379644.974 9       835.271 9        57.356                  
 02  5 18 00 01 59.0000000  0  7G01G21G10G23G16G07G08                           
  23714757.233 8 124621888.699 8      3448.952 8        48.057                  
  21758082.118 8 114339481.448 8      1808.277 8        53.471                  
  21325414.461 9 112065807.640 9      -884.671 9        56.789                  
  23042042.340 8 121086753.245 8     -2925.714 8        49.523                  
  23524181.745 8 123620408.516 8     -3614.834 8        49.270                  
  24989649.748 7 131321525.627 7     -1882.596 7        45.180                  
  20433505.106 9 107378808.545 9       836.298 9        57.544                  
 02  5 18 00 02  0.0000000  0  7G01G21G10G23G16G07G08                           
  23714099.725 7 124618436.928 7      3444.709 7        47.746                  
  21757737.353 9 114337673.050 9      1804.567 9        54.540                  
  21325579.607 9 112066691.559 9      -879.579 9        54.136                  
  23042598.978 8 121089675.484 8     -2913.632 8        50.936                  
  23524871.453 8 123624029.613 8     -3631.290 8        49.582                  
  24990014.312 8 131323412.621 8     -1888.849 8        48.768                  
  20433343.981 9 107377970.826 9       837.406 9        57.128                  
 02  5 18 00 02  1.0000000  0  7G01G21G10G23G16G07G08                           
  23713445.933 8 124614996.096 8      3442.488 8        48.217                  
  21757389.943 8 114335871.259 8      1804.615 8        53.338                  
  21325746.361 8 112067569.895 8      -880.559 8        51.364                  
  23043149.630 8 121092583.177 8     -2908.116 8        49.067                  
  23525562.895 8 123627666.655 8     -3640.422 8        50.594                  
  24990371.299 7 131325303.808 7     -1884.928 7        47.403                  
  20433182.534 9 107377132.996 9       839.461 9        54.189                  
 02  5 18 00 02  2.0000000  0  7G01G21G10G23G16G07G08                           
  23712787.298 8 124611540.269 8      3465.615 8        48.869                  
  21757048.109 9 114334058.555 9      1817.698 9        55.041                  
  21325914.615 9 112068457.785 9      -893.608 9        54.800                  
  23043706.518 8 121095502.862 8     -2928.763 8        48.099                  
  23526254.408 8 123631301.538 8     -3632.844 8        49.805                  
  24990732.450 7 131327180.145 7     -1865.264 7        46.987                  
  20433020.856 9 107376291.986 9       843.108 9        56.966                  
 02  5 18 00 02  3.0000000  0  7G01G21G10G23G16G07G08                           
  23712128.896 8 124608074.412 8      3466.797 8        49.509                  
  21756704.166 8 114332238.146 8      1822.172 8        53.006                  
  21326084.603 9 112069352.355 9      -896.708 9        55.507                  
  23044264.317 8 121098428.898 8     -2927.888 8        49.283                  
  23526948.173 8 123634938.829 8     -3640.249 8        50.353                  
  24991084.398 7 131329044.785 7     -1860.910 7        47.200                  
  20432857.443 9 107375448.176 9       845.125 9        57.765                  
 02  5 18 00 02  4.0000000  0  7G01G21G10G23G16G07G08                           
  23711467.778 7 124604606.748 7      3468.616 7        47.559                  
  21756352.521 8 114330415.558 8      1821.012 8        51.522                  
  21326257.450 8 112070248.749 8      -897.887 8        53.723                  
  23044819.990 8 121101352.598 8     -2924.517 8        48.862                  
  23527640.544 8 123638584.788 8     -3649.875 8        50.647                  
  24991436.829 7 131330903.461 7     -1858.144 7        46.076                  
  20432695.872 9 107374602.399 9       847.782 9        57.087                  
 02  5 18 00 02  5.0000000  0  7G01G21G10G23G16G07G08                           
  23710807.804 7 124601138.582 7      3465.936 7        47.626                  
  21756006.130 8 114328591.596 8      1823.855 8        52.383                  
  21326429.529 9 112071146.263 9      -897.755 9        55.134                  
  23045374.627 8 121104272.333 8     -2919.718 8        49.516                  
  23528336.632 8 123642241.043 8     -3662.013 8        50.268                  
  24991792.548 7 131332756.816 7     -1853.103 7        44.705                  
  20432536.033 9 107373754.665 9       848.614 9        57.070                  
 02  5 18 00 02  6.0000000  0  7G01G21G10G23G16G07G08                           
  23710150.349 8 124597670.851 8      3466.893 8        48.397                  
  21755663.957 8 114326767.433 8      1823.003 8        53.683                  
  21326601.179 9 112072044.254 9      -898.160 9        55.237                  
  23045930.872 8 121107189.411 8     -2916.231 8        50.446                  
  23529034.596 8 123645903.472 8     -3664.097 8        50.797                  
  24992141.441 7 131334607.887 7     -1846.837 7        44.451                  
  20432376.141 9 107372906.133 9       847.988 9        55.865                  
 02  5 18 00 02  7.0000000  0  7G01G21G10G23G16G07G08                           
  23709487.605 8 124594203.819 8      3465.291 8        48.998                  
  21755312.473 9 114324943.494 9      1823.052 9        55.376                  
  21326770.524 9 112072942.594 9      -898.888 9        55.833                  
  23046484.383 8 121110104.544 8     -2915.616 8        48.899                  
  23529731.434 8 123649570.245 8     -3669.031 8        50.171                  
  24992499.053 7 131336457.835 7     -1851.944 7        44.458                  
  20432216.660 9 107372057.316 9       849.637 9        57.417                  
 02  5 18 00 02  8.0000000  0  7G01G21G10G23G16G07G08                           
  23708829.542 8 124590738.342 8      3467.076 8        48.003                  
  21754964.992 9 114323120.105 9      1823.848 9        54.346                  
  21326939.600 9 112073840.751 9      -897.193 9        54.733                  
  23047040.395 8 121113015.890 8     -2908.580 8        50.419                  
  23530430.256 8 123653243.930 8     -3676.913 8        50.219                  
  24992849.090 7 131338306.320 7     -1848.849 7        44.615                  
  20432056.447 9 107371207.843 9       849.535 9        55.018                  
 02  5 18 00 02  9.0000000  0  7G01G21G10G23G16G07G08                           
  23708170.640 7 124587275.255 7      3460.244 7        47.615                  
  21754622.228 8 114321297.812 8      1822.026 8        53.758                  
  21327109.660 9 112074738.263 9      -896.201 9        54.726                  
  23047592.441 8 121115922.444 8     -2904.373 8        49.734                  
  23531131.830 8 123656925.469 8     -3686.855 8        49.001                  
  24993197.607 7 131340153.842 7     -1851.478 7        44.886                  
  20431897.716 9 107370357.774 9       850.697 9        57.221                  
 02  5 18 00 02 10.0000000  0  7G01G21G10G23G16G07G08                           
  23707512.702 8 124583815.266 8      3458.964 8        48.764                  
  21754273.657 9 114319477.178 9      1819.655 9        54.162                  
  21327280.291 9 112075634.697 9      -895.271 9        55.980                  
  23048145.916 8 121118823.725 8     -2900.280 8        48.649                  
  23531832.778 8 123660614.734 8     -3691.792 8        48.876                  
  24993551.181 7 131342001.181 7     -1844.306 7        46.016                  
  20431737.735 9 107369507.311 9       850.160 9        57.420                  
 02  5 18 00 02 11.0000000  0  7G01G21G10G23G16G07G08                           
  23706854.676 8 124580357.955 8      3455.741 8        49.118                  
  21753923.746 9 114317658.136 9      1819.243 9        54.023                  
  21327454.496 9 112076530.266 9      -895.463 9        54.563                  
  23048690.921 8 121121721.105 8     -2893.337 8        49.382                  
  23532535.799 8 123664309.510 8     -3699.744 8        48.059                  
  24993904.148 7 131343849.000 7     -1846.339 7        46.252                  
  20431576.217 9 107368656.860 9       851.200 9        55.682                  
 02  5 18 00 02 12.0000000  0  7G01G21G10G23G16G07G08                           
  23706195.863 8 124576903.990 8      3447.596 8        48.068                  
  21753582.287 8 114315841.153 8      1814.995 8        53.230                  
  21327623.609 9 112077424.598 9      -892.896 9        54.750                  
  23049247.166 8 121124613.915 8     -2891.137 8        50.775                  
  23533242.036 8 123668010.208 8     -3705.020 8        48.776                  
  24994251.915 7 131345697.770 7     -1848.110 7        45.398                  
  20431412.912 9 107367806.467 9       849.422 9        55.498                  
 02  5 18 00 02 13.0000000  0  7G01G21G10G23G16G07G08                           
  23705541.302 7 124573457.033 7      3442.733 7        47.453                  
  21753237.182 8 114314028.727 8      1807.454 8        52.725                  
