$GPRMC,000030.00,A,4852.4662605,N,00217.5805362,E,1.20,0.00,180502,0.0,E,A*3E
$GPGGA,000030.00,4852.4662605,N,00217.5805362,E,1,06,1.0,-8.477,M,0.000,M,0.0,*52
$GPGSA,A,3,01,08,10,16,21,23,,,,,,,2.2,1.3,1.8,1*29
$GPGSV,2,1,06,01,15,255,47,08,73,299,56,10,56,076,54,16,27,182,50,1*66
$GPGSV,2,2,06,21,45,263,53,23,28,048,50,,,,,,,,,1*63
$GPRMC,000031.00,A,4852.4660618,N,00217.5818016,E,0.53,0.00,180502,0.0,E,A*38
$GPGGA,000031.00,4852.4660618,N,00217.5818016,E,1,06,1.0,-9.739,M,0.000,M,0.0,*59
$GPGSA,A,3,01,08,10,16,21,23,,,,,,,2.2,1.3,1.8,1*29
$GPGSV,2,1,06,01,15,255,47,08,73,299,57,10,56,076,54,16,27,182,50,1*67
$GPGSV,2,2,06,21,45,263,54,23,28,048,50,,,,,,,,,1*64
$GPRMC,000032.00,A,4852.4666250,N,00217.5821019,E,1.28,0.00,180502,0.0,E,A*3D
$GPGGA,000032.00,4852.4666250,N,00217.5821019,E,1,06,1.0,-15.230,M,0.000,M,0.0,*60
$GPGSA,A,3,01,08,10,16,21,23,,,,,,,2.2,1.3,1.8,1*29
$GPGSV,2,1,06,01,15,255,48,08,73,299,57,10,56,076,54,16,27,182,50,1*68
$GPGSV,2,2,06,21,45,263,53,23,28,048,51,,,,,,,,,1*62
$GPRMC,000033.00,A,4852.4665533,N,00217.5806481,E,1.51,0.00,180502,0.0,E,A*33
$GPGGA,000033.00,4852.4665533,N,00217.5806481,E,1,06,1.0,-15.307,M,0.000,M,0.0,*65
$GPGSA,A,3,01,08,10,16,21,23,,,,,,,2.2,1.3,1.8,1*29
$GPGSV,2,1,06,01,15,255,48,08,73,299,56,10,56,076,54,16,27,182,49,1*61
$GPGSV,2,2,06,21,45,263,54,23,28,048,50,,,,,,,,,1*64
$GPRMC,000034.00,A,4852.4668915,N,00217.5813487,E,1.85,0.00,180502,0.0,E,A*3A
$GPGGA,000034.00,4852.4668915,N,00217.5813487,E,1,06,1.0,-13.876,M,0.000,M,0.0,*6E
$GPGSA,A,3,01,08,10,16,21,23,,,,,,,2.2,1.3,1.8,1*29
$GPGSV,2,1,06,01,15,255,48,08,73,299,56,10,56,076,54,16,27,182,50,1*69
$GPGSV,2,2,06,21,45,263,52,23,28,048,50,,,,,,,,,1*62
$GPRMC,000035.00,A,4852.4661291,N,00217.5808847,E,0.37,0.00,180502,0.0,E,A*37
$GPGGA,000035.00,4852.4661291,N,00217.5808847,E,1,06,1.0,-7.633,M,0.000,M,0.0,*51
$GPGSA,A,3,01,08,10,16,21,23,,,,,,,2.2,1.3,1.8,1*29
$GPGSV,2,1,06,01,15,255,47,08,73,299,58,10,56,076,57,16,27,182,50,1*6B
$GPGSV,2,2,06,21,45,263,52,23,27,048,51,,,,,,,,,1*6C
$GPRMC,000036.00,A,4852.4672820,N,00217.5796340,E,0.93,0.00,180502,0.0,E,A*3C
$GPGGA,000036.00,4852.4672820,N,00217.5796340,E,1,06,1.0,-8.346,M,0.000,M,0.0,*5C
$GPGSA,A,3,01,08,10,16,21,23,,,,,,,2.2,1.3,1.8,1*29
$GPGSV,2,1,06,01,15,255,49,08,73,299,57,10,56,076,57,16,27,182,51,1*6B
$GPGSV,2,2,06,21,45,263,54,23,27,048,50,,,,,,,,,1*6B
$GPRMC,000037.00,A,4852.4677481,N,00217.5783545,E,0.60,0.00,180502,0.0,E,A*34
$GPGGA,000037.00,4852.4677481,N,00217.5783545,E,1,06,1.0,-2.647,M,0.000,M,0.0,*56
$GPGSA,A,3,01,08,10,16,21,23,,,,,,,2.2,1.3,1.8,1*29
$GPGSV,2,1,06,01,15,255,47,08,73,299,59,10,56,076,56,16,27,182,49,1*63
$GPGSV,2,2,06,21,45,263,53,23,27,048,50,,,,,,,,,1*6C
$GPRMC,000038.00,A,4852.4663995,N,00217.5801794,E,0.54,0.00,180502,0.0,E,A*3A
$GPGGA,000038.00,4852.4663995,N,00217.5801794,E,1,06,1.0,-2.129,M,0.000,M,0.0,*50
$GPGSA,A,3,01,08,10,16,21,23,,,,,,,2.2,1.3,1.8,1*29
$GPGSV,2,1,06,01,15,255,48,08,73,299,54,10,56,076,55,16,27,182,50,1*6A
$GPGSV,2,2,06,21,45,263,53,23,27,048,50,,,,,,,,,1*6C
$GPRMC,000039.00,A,4852.4669146,N,00217.5808734,E,0.79,0.00,180502,0.0,E,A*3B
$GPGGA,000039.00,4852.4669146,N,00217.5808734,E,1,06,1.0,-7.774,M,0.000,M,0.0,*55
$GPGSA,A,3,01,08,10,16,21,23,,,,,,,2.2,1.3,1.8,1*29
$GPGSV,2,1,06,01,15,255,48,08,73,299,56,10,56,076,54,16,27,182,50,1*69
$GPGSV,2,2,06,21,45,263,52,23,27,048,52,,,,,,,,,1*6F
$GPRMC,000040.00,A,4852.4669723,N,00217.5787090,E,1.61,0.00,180502,0.0,E,A*39
$GPGGA,000040.00,4852.4669723,N,00217.5787090,E,1,06,1.0,-7.054,M,0.000,M,0.0,*5A
$GPGSA,A,3,01,08,10,16,21,23,,,,,,,2.2,1.3,1.8,1*29
$GPGSV,2,1,06,01,15,255,48,08,73,299,57,10,56,076,55,16,27,182,50,1*69
$GPGSV,2,2,06,21,45,263,52,23,27,048,50,,,,,,,,,1*6D
$GPRMC,000041.00,A,4852.4665709,N,00217.5803569,E,0.52,0.00,180502,0.0,E,A*3D
$GPGGA,000041.00,4852.4665709,N,00217.5803569,E,1,06,1.0,-10.919,M,0.000,M,0.0,*69
$GPGSA,A,3,01,08,10,16,21,23,,,,,,,2.2,1.3,1.8,1*29
$GPGSV,2,1,06,01,15,255,47,08,73,299,55,10,56,076,54,16,27,182,50,1*65
$GPGSV,2,2,06,21,45,263,54,23,27,048,50,,,,,,,,,1*6B
$GPRMC,000042.00,A,4852.4658140,N,00217.5820723,E,0.84,0.00,180502,0.0,E,A*3D
$GPGGA,000042.00,4852.4658140,N,00217.5820723,E,1,06,1.0,-14.049,M,0.000,M,0.0,*6A
$GPGSA,A,3,01,08,10,16,21,23,,,,,,,2.2,1.3,1.8,1*29
$GPGSV,2,1,06,01,15,255,49,08,73,299,57,10,56,076,54,16,27,182,50,1*69
$GPGSV,2,2,06,21,45,263,53,23,27,048,50,,,,,,,,,1*6C
$GPRMC,000043.00,A,4852.4667833,N,00217.5812383,E,0.96,0.00,180502,0.0,E,A*31
$GPGGA,000043.00,4852.4667833,N,00217.5812383,E,1,06,1.0,-16.867,M,0.000,M,0.0,*63
$GPGSA,A,3,01,08,10,16,21,23,,,,,,,2.2,1.3,1.8,1*29
$GPGSV,2,1,06,01,15,255,47,08,73,299,56,10,56,076,54,16,27,182,48,1*6F
$GPGSV,2,2,06,21,45,263,54,23,27,048,52,,,,,,,,,1*69
$GPRMC,000044.00,A,4852.4663480,N,00217.5806246,E,0.70,0.00,180502,0.0,E,A*33
$GPGGA,000044.00,4852.4663480,N,00217.5806246,E,1,06,1.0,-13.100,M,0.000,M,0.0,*64
$GPGSA,A,3,01,08,10,16,21,23,,,,,,,2.2,1.3,1.8,1*29
$GPGSV,2,1,06,01,15,255,49,08,73,299,58,10,56,076,56,16,27,182,48,1*6D
$GPGSV,2,2,06,21,45,263,52,23,27,048,51,,,,,,,,,1*6C
$GPRMC,000045.00,A,4852.4664122,N,00217.5802244,E,0.41,0.00,180502,0.0,E,A*3C
$GPGGA,000045.00,4852.4664122,N,00217.5802244,E,1,06,1.0,-10.411,M,0.000,M,0.0,*6F
$GPGSA,A,3,01,08,10,16,21,23,,,,,,,2.2,1.3,1.8,1*29
$GPGSV,2,1,06,01,15,255,48,08,73,299,57,10,56,076,56,16,27,182,48,1*63
$GPGSV,2,2,06,21,45,263,52,23,27,048,50,,,,,,,,,1*6D
$GPRMC,000046.00,A,4852.4672273,N,00217.5808454,E,0.46,0.00,180502,0.0,E,A*35
$GPGGA,000046.00,4852.4672273,N,00217.5808454,E,1,06,1.0,-11.134,M,0.000,M,0.0,*62
$GPGSA,A,3,01,08,10,16,21,23,,,,,,,2.2,1.3,1.8,1*29
$GPGSV,2,1,06,01,15,255,49,08,73,299,55,10,56,076,56,16,27,182,48,1*60
$GPGSV,2,2,06,21,45,263,51,23,27,048,50,,,,,,,,,1*6E
$GPRMC,000047.00,A,4852.4662321,N,00217.5796647,E,1.54,0.00,180502,0.0,E,A*39
$GPGGA,000047.00,4852.4662321,N,00217.5796647,E,1,06,1.0,-4.178,M,0.000,M,0.0,*50
$GPGSA,A,3,01,08,10,16,21,23,,,,,,,2.2,1.3,1.8,1*29
$GPGSV,2,1,06,01,15,255,50,08,73,299,57,10,56,076,58,16,27,182,49,1*65
$GPGSV,2,2,06,21,45,263,52,23,27,048,52,,,,,,,,,1*6F
$GPRMC,000048.00,A,4852.4673102,N,00217.5779611,E,1.32,0.00,180502,0.0,E,A*37
$GPGGA,000048.00,4852.4673102,N,00217.5779611,E,1,06,1.0,-2.649,M,0.000,M,0.0,*5D
$GPGSA,A,3,01,08,10,16,21,23,,,,,,,2.2,1.3,1.8,1*29
$GPGSV,2,1,06,01,15,255,50,08,73,299,57,10,56,076,55,16,27,182,50,1*60
$GPGSV,2,2,06,21,45,263,54,23,27,048,49,,,,,,,,,1*63
$GPRMC,000049.00,A,4852.4672526,N,00217.5791419,E,1.43,0.00,180502,0.0,E,A*3F
$GPGGA,000049.00,4852.4672526,N,00217.5791419,E,1,06,1.0,-5.448,M,0.000,M,0.0,*57
$GPGSA,A,3,01,08,10,16,21,23,,,,,,,2.2,1.3,1.8,1*29
$GPGSV,2,1,06,01,15,255,49,08,73,299,57,10,56,076,54,16,27,182,49,1*61
$GPGSV,2,2,06,21,45,263,51,23,27,048,50,,,,,,,,,1*6E
$GPRMC,000050.00,A,4852.4658291,N,00217.5809982,E,1.13,0.00,180502,0.0,E,A*30
$GPGGA,000050.00,4852.4658291,N,00217.5809982,E,1,06,1.0,-6.864,M,0.000,M,0.0,*5C
$GPGSA,A,3,01,08,10,16,21,23,,,,,,,2.2,1.3,1.8,1*29
$GPGSV,2,1,06,01,15,255,49,08,73,299,56,10,56,076,55,16,27,182,51,1*68
$GPGSV,2,2,06,21,45,263,52,23,27,048,51,,,,,,,,,1*6C
$GPRMC,000051.00,A,4852.4671673,N,00217.5807572,E,1.18,0.00,180502,0.0,E,A*34
$GPGGA,000051.00,4852.4671673,N,00217.5807572,E,1,06,1.0,-9.578,M,0.000,M,0.0,*5C
$GPGSA,A,3,01,08,10,16,21,23,,,,,,,2.2,1.3,1.8,1*29
$GPGSV,2,1,06,01,15,255,49,08,73,299,57,10,56,076,55,16,27,182,52,1*6A
$GPGSV,2,2,06,21,45,263,54,23,27,048,53,,,,,,,,,1*68
$GPRMC,000052.00,A,4852.4667904,N,00217.5797181,E,1.98,137.01,180502,0.0,E,A*3D
$GPGGA,000052.00,4852.4667904,N,00217.5797181,E,1,06,1.0,-10.231,M,0.000,M,0.0,*6B
$GPGSA,A,3,01,08,10,16,21,23,,,,,,,2.2,1.3,1.8,1*29
$GPGSV,2,1,06,01,15,255,48,08,73,299,56,10,56,076,56,16,27,182,49,1*63
$GPGSV,2,2,06,21,45,263,54,23,27,048,51,,,,,,,,,1*6A
$GPRMC,000053.00,A,4852.4661845,N,00217.5818610,E,1.41,137.01,180502,0.0,E,A*3D
$GPGGA,000053.00,4852.4661845,N,00217.5818610,E,1,06,1.0,-15.879,M,0.000,M,0.0,*6C
$GPGSA,A,3,01,08,10,16,21,23,,,,,,,2.2,1.3,1.8,1*29
$GPGSV,2,1,06,01,15,255,48,08,73,299,57,10,56,076,56,16,27,182,49,1*62
$GPGSV,2,2,06,21,45,263,52,23,27,048,49,,,,,,,,,1*65
$GPRMC,000054.00,A,4852.4662704,N,00217.5830270,E,0.42,137.01,180502,0.0,E,A*39
$GPGGA,000054.00,4852.4662704,N,00217.5830270,E,1,06,1.0,-15.773,M,0.000,M,0.0,*6F
$GPGSA,A,3,01,08,10,16,21,23,,,,,,,2.2,1.3,1.8,1*29
$GPGSV,2,1,06,01,15,255,49,08,73,299,57,10,56,076,55,16,27,182,50,1*68
$GPGSV,2,2,06,21,45,263,53,23,27,048,49,,,,,,,,,1*64
$GPRMC,000055.00,A,4852.4663822,N,00217.5810495,E,0.51,137.01,180502,0.0,E,A*3F
$GPGGA,000055.00,4852.4663822,N,00217.5810495,E,1,06,1.0,-12.194,M,0.000,M,0.0,*63
$GPGSA,A,3,01,08,10,16,21,23,,,,,,,2.2,1.3,1.8,1*29
$GPGSV,2,1,06,01,15,255,49,08,73,299,59,10,56,076,58,16,27,182,51,1*6A
$GPGSV,2,2,06,21,45,263,52,23,27,048,50,,,,,,,,,1*6D
$GPRMC,000056.00,A,4852.4665012,N,00217.5808867,E,1.24,137.01,180502,0.0,E,A*3A
$GPGGA,000056.00,4852.4665012,N,00217.5808867,E,1,06,1.0,-11.073,M,0.000,M,0.0,*6E
$GPGSA,A,3,01,08,10,16,21,23,,,,,,,2.2,1.3,1.8,1*29
$GPGSV,2,1,06,01,15,255,48,08,73,299,58,10,56,076,56,16,27,182,48,1*6C
$GPGSV,2,2,06,21,45,263,54,23,27,048,50,,,,,,,,,1*6B
$GPRMC,000057.00,A,4852.4662526,N,00217.5814024,E,1.86,137.01,180502,0.0,E,A*34
$GPGGA,000057.00,4852.4662526,N,00217.5814024,E,1,06,1.0,-6.096,M,0.000,M,0.0,*55
$GPGSA,A,3,01,08,10,16,21,23,,,,,,,2.2,1.3,1.8,1*29
$GPGSV,2,1,06,01,16,255,50,08,73,299,57,10,56,076,55,16,27,182,50,1*63
$GPGSV,2,2,06,21,45,263,53,23,27,048,50,,,,,,,,,1*6C
$GPRMC,000058.00,A,4852.4667130,N,00217.5816869,E,1.12,137.01,180502,0.0,E,A*33
$GPGGA,000058.00,4852.4667130,N,00217.5816869,E,1,06,1.0,-5.223,M,0.000,M,0.0,*50
$GPGSA,A,3,01,08,10,16,21,23,,,,,,,2.2,1.3,1.8,1*29
$GPGSV,2,1,06,01,16,255,48,08,73,299,57,10,56,076,56,16,27,182,51,1*68
$GPGSV,2,2,06,21,45,263,52,23,27,048,50,,,,,,,,,1*6D
$GPRMC,000059.00,A,4852.4667299,N,00217.5797628,E,0.89,137.01,180502,0.0,E,A*3C
$GPGGA,000059.00,4852.4667299,N,00217.5797628,E,1,06,1.0,-0.622,M,0.000,M,0.0,*5C
$GPGSA,A,3,01,08,10,16,21,23,,,,,,,2.2,1.3,1.8,1*29
$GPGSV,2,1,06,01,16,255,50,08,73,299,57,10,56,076,57,16,26,182,52,1*62
$GPGSV,2,2,06,21,45,263,53,23,27,048,51,,,,,,,,,1*6D
$GPRMC,000100.00,A,4852.4668185,N,00217.5792587,E,0.67,137.01,180502,0.0,E,A*33
$GPGGA,000100.00,4852.4668185,N,00217.5792587,E,1,06,1.0,0.260,M,0.000,M,0.0,*7C
$GPGSA,A,3,01,08,10,16,21,23,,,,,,,2.2,1.3,1.8,1*29
$GPGSV,2,1,06,01,16,255,49,08,73,299,56,10,56,076,57,16,26,182,50,1*69
$GPGSV,2,2,06,21,45,263,53,23,27,048,50,,,,,,,,,1*6C
$GPRMC,000101.00,A,4852.4665824,N,00217.5817042,E,0.64,137.01,180502,0.0,E,A*30
$GPGGA,000101.00,4852.4665824,N,00217.5817042,E,1,06,1.0,-4.807,M,0.000,M,0.0,*5E
$GPGSA,A,3,01,08,10,16,21,23,,,,,,,2.2,1.3,1.8,1*29
$GPGSV,2,1,06,01,16,255,48,08,73,299,55,10,56,076,55,16,26,182,50,1*69
$GPGSV,2,2,06,21,45,263,52,23,27,048,51,,,,,,,,,1*6C
$GPRMC,000102.00,A,4852.4655809,N,00217.5811277,E,0.55,137.01,180502,0.0,E,A*3F
$GPGGA,000102.00,4852.4655809,N,00217.5811277,E,1,06,1.0,-5.527,M,0.000,M,0.0,*5D
$GPGSA,A,3,01,08,10,16,21,23,,,,,,,2.2,1.3,1.8,1*29
$GPGSV,2,1,06,01,16,255,49,08,73,299,56,10,56,076,55,16,26,182,49,1*63
$GPGSV,2,2,06,21,45,263,53,23,27,048,50,,,,,,,,,1*6C
$GPRMC,000103.00,A,4852.4671215,N,00217.5809574,E,1.54,137.01,180502,0.0,E,A*32
$GPGGA,000103.00,4852.4671215,N,00217.5809574,E,1,06,1.0,-8.959,M,0.000,M,0.0,*58
$GPGSA,A,3,01,08,10,16,21,23,,,,,,,2.2,1.3,1.8,1*29
$GPGSV,2,1,06,01,16,255,48,08,73,299,56,10,56,076,56,16,26,182,50,1*69
$GPGSV,2,2,06,21,45,263,53,23,27,048,51,,,,,,,,,1*6D
$GPRMC,000104.00,A,4852.4663676,N,00217.5814665,E,1.60,137.01,180502,0.0,E,A*3F
$GPGGA,000104.00,4852.4663676,N,00217.5814665,E,1,06,1.0,-9.865,M,0.000,M,0.0,*5D
$GPGSA,A,3,01,08,10,16,21,23,,,,,,,2.2,1.3,1.8,1*29
$GPGSV,2,1,06,01,16,255,47,08,73,299,58,10,56,076,56,16,26,182,50,1*68
$GPGSV,2,2,06,21,45,263,54,23,27,048,50,,,,,,,,,1*6B
$GPRMC,000105.00,A,4852.4656430,N,00217.5829099,E,2.01,353.08,180502,0.0,E,A*3E
$GPGGA,000105.00,4852.4656430,N,00217.5829099,E,1,06,1.0,-13.273,M,0.000,M,0.0,*67
$GPGSA,A,3,01,08,10,16,21,23,,,,,,,2.2,1.3,1.8,1*29
$GPGSV,2,1,06,01,16,255,48,08,73,299,58,10,56,076,55,16,26,182,50,1*64
$GPGSV,2,2,06,21,45,263,53,23,27,048,50,,,,,,,,,1*6C
$GPRMC,000106.00,A,4852.4668573,N,00217.5825882,E,1.16,353.08,180502,0.0,E,A*3D
$GPGGA,000106.00,4852.4668573,N,00217.5825882,E,1,06,1.0,-18.066,M,0.000,M,0.0,*6C
$GPGSA,A,3,01,08,10,16,21,23,,,,,,,2.2,1.3,1.8,1*29
$GPGSV,2,1,06,01,16,255,48,08,73,299,56,10,56,076,55,16,26,182,51,1*6B
$GPGSV,2,2,06,21,45,263,53,23,27,048,50,,,,,,,,,1*6C
$GPRMC,000107.00,A,4852.4662204,N,00217.5809590,E,1.03,353.08,180502,0.0,E,A*35
$GPGGA,000107.00,4852.4662204,N,00217.5809590,E,1,06,1.0,-11.562,M,0.000,M,0.0,*68
$GPGSA,A,3,01,08,10,16,21,23,,,,,,,2.2,1.3,1.8,1*29
$GPGSV,2,1,06,01,16,255,47,08,73,299,56,10,56,076,54,16,26,182,50,1*64
$GPGSV,2,2,06,21,45,263,51,23,27,048,51,,,,,,,,,1*6F
$GPRMC,000108.00,A,4852.4654342,N,00217.5828766,E,10.30,116.77,180502,0.0,E,A*0F
$GPGGA,000108.00,4852.4654342,N,00217.5828766,E,1,06,1.0,-10.826,M,0.000,M,0.0,*65
$GPGSA,A,3,01,08,10,16,21,23,,,,,,,2.2,1.3,1.8,1*29
$GPGSV,2,1,06,01,16,255,48,08,73,299,56,10,56,076,55,16,26,182,50,1*6A
$GPGSV,2,2,06,21,45,263,52,23,27,048,51,,,,,,,,,1*6C
$GPRMC,000109.00,A,4852.4650420,N,00217.5881266,E,19.21,115.19,180502,0.0,E,A*0D
$GPGGA,000109.00,4852.4650420,N,00217.5881266,E,1,06,1.0,-11.789,M,0.000,M,0.0,*6E
$GPGSA,A,3,01,08,10,16,21,23,,,,,,,2.2,1.3,1.8,1*29
$GPGSV,2,1,06,01,16,255,47,08,73,299,56,10,56,076,54,16,26,182,50,1*64
$GPGSV,2,2,06,21,45,263,54,23,27,048,52,,,,,,,,,1*69
$GPRMC,000110.00,A,4852.4610530,N,00217.5987093,E,29.74,116.13,180502,0.0,E,A*04
$GPGGA,000110.00,4852.4610530,N,00217.5987093,E,1,06,1.0,-7.847,M,0.000,M,0.0,*57
$GPGSA,A,3,01,08,10,16,21,23,,,,,,,2.2,1.3,1.8,1*29
$GPGSV,2,1,06,01,16,255,48,08,73,299,57,10,56,076,55,16,26,182,50,1*6B
$GPGSV,2,2,06,21,45,263,52,23,27,048,50,,,,,,,,,1*6D
$GPRMC,000111.00,A,4852.4572152,N,00217.6094710,E,32.91,116.46,180502,0.0,E,A*07
$GPGGA,000111.00,4852.4572152,N,00217.6094710,E,1,06,1.0,-5.740,M,0.000,M,0.0,*5F
$GPGSA,A,3,01,08,10,16,21,23,,,,,,,2.2,1.3,1.8,1*29
$GPGSV,2,1,06,01,16,255,49,08,73,299,55,10,56,076,57,16,26,182,50,1*6A
$GPGSV,2,2,06,21,45,263,53,23,27,048,51,,,,,,,,,1*6D
$GPRMC,000112.00,A,4852.4546325,N,00217.6202585,E,32.30,115.48,180502,0.0,E,A*04
$GPGGA,000112.00,4852.4546325,N,00217.6202585,E,1,06,1.0,-2.656,M,0.000,M,0.0,*5B
$GPGSA,A,3,01,08,10,16,21,23,,,,,,,2.2,1.3,1.8,1*29
$GPGSV,2,1,06,01,16,255,48,08,73,299,56,10,56,076,56,16,26,182,50,1*69
$GPGSV,2,2,06,21,45,263,54,23,27,048,50,,,,,,,,,1*6B
$GPRMC,000113.00,A,4852.4496031,N,00217.6329430,E,30.78,116.42,180502,0.0,E,A*0F
$GPGGA,000113.00,4852.4496031,N,00217.6329430,E,1,06,1.0,-2.161,M,0.000,M,0.0,*54
$GPGSA,A,3,01,08,10,16,21,23,,,,,,,2.2,1.3,1.8,1*29
$GPGSV,2,1,06,01,16,255,49,08,73,299,57,10,56,076,58,16,26,182,49,1*6F
$GPGSV,2,2,06,21,45,263,54,23,27,048,52,,,,,,,,,1*69
$GPRMC,000114.00,A,4852.4457024,N,00217.6433452,E,21.96,121.82,180502,0.0,E,A*01
$GPGGA,000114.00,4852.4457024,N,00217.6433452,E,1,06,1.0,-1.734,M,0.000,M,0.0,*57
$GPGSA,A,3,01,08,10,16,21,23,,,,,,,2.2,1.3,1.8,1*29
$GPGSV,2,1,06,01,16,255,48,08,73,299,57,10,56,076,56,16,26,182,48,1*61
$GPGSV,2,2,06,21,45,263,52,23,27,048,51,,,,,,,,,1*6C
$GPRMC,000115.00,A,4852.4431744,N,00217.6503000,E,12.06,139.30,180502,0.0,E,A*09
$GPGGA,000115.00,4852.4431744,N,00217.6503000,E,1,06,1.0,-4.616,M,0.000,M,0.0,*52
$GPGSA,A,3,01,08,10,16,21,23,,,,,,,2.2,1.3,1.8,1*29
$GPGSV,2,1,06,01,16,255,46,08,73,299,57,10,56,076,55,16,26,182,48,1*6C
$GPGSV,2,2,06,21,45,263,55,23,27,048,52,,,,,,,,,1*68
$GPRMC,000116.00,A,4852.4401299,N,00217.6509634,E,10.20,162.66,180502,0.0,E,A*0C
$GPGGA,000116.00,4852.4401299,N,00217.6509634,E,1,06,1.0,-5.521,M,0.000,M,0.0,*5A
$GPGSA,A,3,01,08,10,16,21,23,,,,,,,2.2,1.3,1.8,1*29
$GPGSV,2,1,06,01,16,255,47,08,73,298,58,10,56,076,55,16,26,182,50,1*6A
$GPGSV,2,2,06,21,45,263,54,23,27,048,51,,,,,,,,,1*6A
$GPRMC,000117.00,A,4852.4368243,N,00217.6509512,E,19.50,177.65,180502,0.0,E,A*0C
$GPGGA,000117.00,4852.4368243,N,00217.6509512,E,1,06,1.0,-5.982,M,0.000,M,0.0,*56
$GPGSA,A,3,01,08,10,16,21,23,,,,,,,2.2,1.3,1.8,1*29
$GPGSV,2,1,06,01,16,255,49,08,73,298,58,10,56,076,56,16,26,182,50,1*67
$GPGSV,2,2,06,21,45,263,52,23,27,048,50,,,,,,,,,1*6D
$GPRMC,000118.00,A,4852.4300419,N,00217.6535902,E,23.92,179.82,180502,0.0,E,A*06
$GPGGA,000118.00,4852.4300419,N,00217.6535902,E,1,06,1.0,-9.722,M,0.000,M,0.0,*54
$GPGSA,A,3,01,08,10,16,21,23,,,,,,,2.2,1.3,1.8,1*29
$GPGSV,2,1,06,01,16,255,50,08,73,298,56,10,56,076,53,16,26,182,51,1*65
$GPGSV,2,2,06,21,45,263,52,23,27,048,50,,,,,,,,,1*6D
$GPRMC,000119.00,A,4852.4230198,N,00217.6544003,E,23.17,171.80,180502,0.0,E,A*00
$GPGGA,000119.00,4852.4230198,N,00217.6544003,E,1,06,1.0,-10.944,M,0.000,M,0.0,*63
$GPGSA,A,3,01,08,10,16,21,23,,,,,,,2.2,1.3,1.8,1*29
$GPGSV,2,1,06,01,16,255,49,08,74,298,55,10,56,076,52,16,26,182,50,1*69
$GPGSV,2,2,06,21,45,263,54,23,27,048,51,,,,,,,,,1*6A
$GPRMC,000120.00,A,4852.4170797,N,00217.6559368,E,21.24,161.54,180502,0.0,E,A*0C
$GPGGA,000120.00,4852.4170797,N,00217.6559368,E,1,06,1.0,-12.207,M,0.000,M,0.0,*6B
$GPGSA,A,3,01,08,10,16,21,23,,,,,,,2.2,1.3,1.8,1*29
$GPGSV,2,1,06,01,16,255,50,08,74,298,56,10,56,076,53,16,26,182,50,1*63
$GPGSV,2,2,06,21,45,263,52,23,27,048,49,,,,,,,,,1*65
$GPRMC,000121.00,A,4852.4121794,N,00217.6593659,E,21.08,152.42,180502,0.0,E,A*02
$GPGGA,000121.00,4852.4121794,N,00217.6593659,E,1,06,1.0,-14.483,M,0.000,M,0.0,*60
$GPGSA,A,3,01,08,10,16,21,23,,,,,,,2.2,1.3,1.8,1*29
$GPGSV,2,1,06,01,16,255,49,08,74,298,56,10,56,076,52,16,26,182,49,1*62
$GPGSV,2,2,06,21,45,263,53,23,27,048,51,,,,,,,,,1*6D
$GPRMC,000122.00,A,4852.4081824,N,00217.6632576,E,17.93,142.17,180502,0.0,E,A*0E
$GPGGA,000122.00,4852.4081824,N,00217.6632576,E,1,06,1.0,-16.204,M,0.000,M,0.0,*61
$GPGSA,A,3,01,08,10,16,21,23,,,,,,,2.2,1.3,1.8,1*29
$GPGSV,2,1,06,01,16,255,48,08,74,298,58,10,56,076,55,16,26,182,49,1*6A
$GPGSV,2,2,06,21,45,263,53,23,27,048,52,,,,,,,,,1*6E
$GPRMC,000123.00,A,4852.4046302,N,00217.6700292,E,17.90,130.99,180502,0.0,E,A*06
$GPGGA,000123.00,4852.4046302,N,00217.6700292,E,1,06,1.0,-16.938,M,0.000,M,0.0,*6D
$GPGSA,A,3,01,08,10,16,21,23,,,,,,,2.2,1.3,1.8,1*29
$GPGSV,2,1,06,01,16,255,48,08,74,298,54,10,56,076,54,16,26,182,50,1*6F
$GPGSV,2,2,06,21,45,263,51,23,27,048,52,,,,,,,,,1*6C
$GPRMC,000124.00,A,4852.3997062,N,00217.6773220,E,19.34,121.64,180502,0.0,E,A*09
$GPGGA,000124.00,4852.3997062,N,00217.6773220,E,1,06,1.0,-11.892,M,0.000,M,0.0,*66
$GPGSA,A,3,01,08,10,16,21,23,,,,,,,2.2,1.3,1.8,1*29
$GPGSV,2,1,06,01,16,255,48,08,74,298,54,10,56,076,55,16,26,182,49,1*66
$GPGSV,2,2,06,21,45,263,52,23,27,048,51,,,,,,,,,1*6C
$GPRMC,000125.00,A,4852.3982790,N,00217.6823140,E,19.52,114.16,180502,0.0,E,A*0A
$GPGGA,000125.00,4852.3982790,N,00217.6823140,E,1,06,1.0,-11.022,M,0.000,M,0.0,*65
$GPGSA,A,3,01,08,10,16,21,23,,,,,,,2.2,1.3,1.8,1*29
$GPGSV,2,1,06,01,16,255,48,08,74,298,56,10,56,076,56,16,26,182,50,1*6F
$GPGSV,2,2,06,21,45,263,54,23,27,048,50,,,,,,,,,1*6B
$GPRMC,000126.00,A,4852.3963264,N,00217.6912035,E,19.92,105.98,180502,0.0,E,A*02
$GPGGA,000126.00,4852.3963264,N,00217.6912035,E,1,06,1.0,-10.785,M,0.000,M,0.0,*6C
$GPGSA,A,3,01,08,10,16,21,23,,,,,,,2.2,1.3,1.8,1*29
$GPGSV,2,1,06,01,16,255,48,08,74,298,56,10,56,076,56,16,26,182,50,1*6F
$GPGSV,2,2,06,21,45,263,54,23,27,048,50,,,,,,,,,1*6B
$GPRMC,000127.00,A,4852.3959657,N,00217.6979749,E,18.36,96.25,180502,0.0,E,A*3D
$GPGGA,000127.00,4852.3959657,N,00217.6979749,E,1,06,1.0,-9.450,M,0.000,M,0.0,*52
$GPGSA,A,3,01,08,10,16,21,23,,,,,,,2.2,1.3,1.8,1*29
$GPGSV,2,1,06,01,16,255,47,08,74,298,56,10,56,076,56,16,26,182,52,1*62
$GPGSV,2,2,06,21,45,263,53,23,27,048,51,,,,,,,,,1*6D
$GPRMC,000128.00,A,4852.3960471,N,00217.7064803,E,20.25,87.32,180502,0.0,E,A*34
$GPGGA,000128.00,4852.3960471,N,00217.7064803,E,1,06,1.0,-8.255,M,0.000,M,0.0,*56
$GPGSA,A,3,01,08,10,16,21,23,,,,,,,2.2,1.3,1.8,1*29
$GPGSV,2,1,06,01,16,255,48,08,74,298,56,10,56,076,58,16,26,182,50,1*61
$GPGSV,2,2,06,21,45,263,53,23,27,048,50,,,,,,,,,1*6C
$GPRMC,000129.00,A,4852.3967586,N,00217.7134656,E,20.92,78.76,180502,0.0,E,A*3D
$GPGGA,000129.00,4852.3967586,N,00217.7134656,E,1,06,1.0,-2.487,M,0.000,M,0.0,*50
$GPGSA,A,3,01,08,10,16,21,23,,,,,,,2.2,1.3,1.8,1*29
$GPGSV,2,1,06,01,16,255,47,08,74,298,56,10,56,076,57,16,26,182,51,1*60
$GPGSV,2,2,06,21,45,263,54,23,27,048,52,,,,,,,,,1*69
$GPRMC,000130.00,A,4852.3988197,N,00217.7207675,E,22.17,69.03,180502,0.0,E,A*3F
$GPGGA,000130.00,4852.3988197,N,00217.7207675,E,1,06,1.0,-1.910,M,0.000,M,0.0,*5F
$GPGSA,A,3,01,08,10,16,21,23,,,,,,,2.2,1.3,1.8,1*29
$GPGSV,2,1,06,01,16,255,48,08,74,298,55,10,56,076,52,16,26,182,52,1*6A
$GPGSV,2,2,06,21,45,263,53,23,27,048,51,,,,,,,,,1*6D
$GPRMC,000131.00,A,4852.4017754,N,00217.7287544,E,23.06,59.11,180502,0.0,E,A*37
$GPGGA,000131.00,4852.4017754,N,00217.7287544,E,1,06,1.0,0.375,M,0.000,M,0.0,*73
$GPGSA,A,3,01,08,10,16,21,23,,,,,,,2.2,1.3,1.8,1*29
$GPGSV,2,1,06,01,16,255,49,08,74,298,57,10,56,076,54,16,26,182,50,1*6D
$GPGSV,2,2,06,21,45,263,53,23,27,048,48,,,,,,,,,1*65
$GPRMC,000132.00,A,4852.4039526,N,00217.7389852,E,22.24,58.27,180502,0.0,E,A*3F
$GPGGA,000132.00,4852.4039526,N,00217.7389852,E,1,06,1.0,-0.466,M,0.000,M,0.0,*56
$GPGSA,A,3,01,08,10,16,21,23,,,,,,,2.2,1.3,1.8,1*29
$GPGSV,2,1,06,01,16,255,49,08,74,298,56,10,56,076,53,16,26,182,51,1*6A
$GPGSV,2,2,06,21,45,263,54,23,27,048,49,,,,,,,,,1*63
$GPRMC,000133.00,A,4852.4067493,N,00217.7472043,E,16.99,63.01,180502,0.0,E,A*3C
$GPGGA,000133.00,4852.4067493,N,00217.7472043,E,1,06,1.0,-2.283,M,0.000,M,0.0,*57
$GPGSA,A,3,01,08,10,16,21,23,,,,,,,2.2,1.3,1.8,1*29
$GPGSV,2,1,06,01,16,255,48,08,74,298,54,10,56,076,54,16,26,182,50,1*6F
$GPGSV,2,2,06,21,45,263,52,23,27,048,51,,,,,,,,,1*6C
$GPRMC,000134.00,A,4852.4084095,N,00217.7504950,E,9.32,78.23,180502,0.0,E,A*0A
$GPGGA,000134.00,4852.4084095,N,00217.7504950,E,1,06,1.0,-1.715,M,0.000,M,0.0,*5D
$GPGSA,A,3,01,08,10,16,21,23,,,,,,,2.2,1.3,1.8,1*29
$GPGSV,2,1,06,01,16,255,47,08,74,298,55,10,56,076,55,16,26,182,50,1*60
$GPGSV,2,2,06,21,45,263,52,23,27,048,52,,,,,,,,,1*6F
$GPRMC,000135.00,A,4852.4086304,N,00217.7563518,E,17.24,101.18,180502,0.0,E,A*0C
$GPGGA,000135.00,4852.4086304,N,00217.7563518,E,1,06,1.0,-3.585,M,0.000,M,0.0,*5D
$GPGSA,A,3,01,08,10,16,21,23,,,,,,,2.2,1.3,1.8,1*29
$GPGSV,2,1,06,01,16,255,49,08,74,298,54,10,56,076,55,16,26,182,48,1*66
$GPGSV,2,2,06,21,45,263,54,23,27,048,50,,,,,,,,,1*6B
$GPRMC,000136.00,A,4852.4065629,N,00217.7641875,E,27.22,110.30,180502,0.0,E,A*02
$GPGGA,000136.00,4852.4065629,N,00217.7641875,E,1,06,1.0,-4.019,M,0.000,M,0.0,*5B
$GPGSA,A,3,01,08,10,16,21,23,,,,,,,2.2,1.3,1.8,1*29
$GPGSV,2,1,06,01,16,255,48,08,74,298,55,10,56,076,56,16,26,182,49,1*64
$GPGSV,2,2,06,21,45,263,52,23,27,048,50,,,,,,,,,1*6D
$GPRMC,000137.00,A,4852.4043751,N,00217.7780373,E,32.16,112.41,180502,0.0,E,A*0F
$GPGGA,000137.00,4852.4043751,N,00217.7780373,E,1,06,1.0,-8.245,M,0.000,M,0.0,*56
$GPGSA,A,3,01,08,10,16,21,23,,,,,,,2.2,1.3,1.8,1*29
$GPGSV,2,1,06,01,16,255,47,08,74,298,57,10,56,076,56,16,26,182,49,1*69
$GPGSV,2,2,06,21,45,263,53,23,27,048,52,,,,,,,,,1*6E
$GPRMC,000138.00,A,4852.3989716,N,00217.7911407,E,33.25,113.82,180502,0.0,E,A*06
$GPGGA,000138.00,4852.3989716,N,00217.7911407,E,1,06,1.0,-6.132,M,0.000,M,0.0,*5D
$GPGSA,A,3,01,08,10,16,21,23,,,,,,,2.2,1.3,1.8,1*29
$GPGSV,2,1,06,01,16,255,48,08,74,298,54,10,56,076,54,16,26,182,50,1*6F
$GPGSV,2,2,06,21,45,263,50,23,27,048,50,,,,,,,,,1*6F
$GPRMC,000139.00,A,4852.3963786,N,00217.8034045,E,31.74,114.01,180502,0.0,E,A*03
$GPGGA,000139.00,4852.3963786,N,00217.8034045,E,1,06,1.0,-7.937,M,0.000,M,0.0,*5E
$GPGSA,A,3,01,08,10,16,21,23,,,,,,,2.2,1.3,1.8,1*29
$GPGSV,2,1,06,01,16,255,48,08,74,298,54,10,56,076,54,16,26,182,49,1*67
$GPGSV,2,2,06,21,45,263,53,23,27,048,51,,,,,,,,,1*6D
$GPRMC,000140.00,A,4852.3936009,N,00217.8121260,E,23.42,116.78,180502,0.0,E,A*07
$GPGGA,000140.00,4852.3936009,N,00217.8121260,E,1,06,1.0,-8.487,M,0.000,M,0.0,*59
$GPGSA,A,3,01,08,10,16,21,23,,,,,,,2.2,1.3,1.8,1*29
$GPGSV,2,1,06,01,16,255,48,08,74,298,56,10,56,076,55,16,26,182,50,1*6C
$GPGSV,2,2,06,21,45,263,55,23,27,048,52,,,,,,,,,1*68
$GPRMC,000141.00,A,4852.3899957,N,00217.8185075,E,14.48,129.73,180502,0.0,E,A*01
$GPGGA,000141.00,4852.3899957,N,00217.8185075,E,1,06,1.0,-9.709,M,0.000,M,0.0,*52
$GPGSA,A,3,01,08,10,16,21,23,,,,,,,2.2,1.3,1.8,1*29
$GPGSV,2,1,06,01,16,255,48,08,74,298,57,10,56,076,56,16,26,182,53,1*6D
$GPGSV,2,2,06,21,45,263,54,23,27,048,51,,,,,,,,,1*6A
$GPRMC,000142.00,A,4852.3883612,N,00217.8231539,E,7.05,160.54,180502,0.0,E,A*35
$GPGGA,000142.00,4852.3883612,N,00217.8231539,E,1,06,1.0,-13.935,M,0.000,M,0.0,*6F
$GPGSA,A,3,01,08,10,16,21,23,,,,,,,2.2,1.3,1.8,1*29
$GPGSV,2,1,06,01,16,255,48,08,74,298,56,10,56,076,56,16,26,182,51,1*6E
$GPGSV,2,2,06,21,45,263,53,23,27,048,50,,,,,,,,,1*6C
$GPRMC,000143.00,A,4852.3853786,N,00217.8232209,E,13.04,190.07,180502,0.0,E,A*0F
$GPGGA,000143.00,4852.3853786,N,00217.8232209,E,1,06,1.0,-14.670,M,0.000,M,0.0,*61
$GPGSA,A,3,01,08,10,16,21,23,,,,,,,2.2,1.3,1.8,1*29
$GPGSV,2,1,06,01,16,255,48,08,74,298,56,10,56,076,56,16,26,182,49,1*67
$GPGSV,2,2,06,21,45,263,51,23,27,048,50,,,,,,,,,1*6E
$GPRMC,000144.00,A,4852.3809880,N,00217.8191845,E,22.12,207.92,180502,0.0,E,A*02
$GPGGA,000144.00,4852.3809880,N,00217.8191845,E,1,06,1.0,-15.935,M,0.000,M,0.0,*67
$GPGSA,A,3,01,08,10,16,21,23,,,,,,,2.2,1.3,1.8,1*29
$GPGSV,2,1,06,01,16,255,49,08,74,298,56,10,56,076,56,16,26,182,50,1*6E
$GPGSV,2,2,06,21,45,263,52,23,27,048,52,,,,,,,,,1*6F
$GPRMC,000145.00,A,4852.3749843,N,00217.8130932,E,31.45,212.86,180502,0.0,E,A*0C
$GPGGA,000145.00,4852.3749843,N,00217.8130932,E,1,06,1.0,-14.150,M,0.000,M,0.0,*62
$GPGSA,A,3,01,08,10,16,21,23,,,,,,,2.2,1.3,1.8,1*29
$GPGSV,2,1,06,01,16,255,48,08,74,298,57,10,56,076,54,16,26,182,49,1*64
$GPGSV,2,2,06,21,45,263,53,23,27,048,50,,,,,,,,,1*6C
$GPRMC,000146.00,A,4852.3671564,N,00217.8057111,E,32.29,217.53,180502,0.0,E,A*00
$GPGGA,000146.00,4852.3671564,N,00217.8057111,E,1,06,1.0,-13.194,M,0.000,M,0.0,*65
$GPGSA,A,3,01,08,10,16,21,23,,,,,,,2.2,1.3,1.8,1*29
$GPGSV,2,1,06,01,16,255,48,08,74,298,58,10,56,076,57,16,26,182,49,1*68
$GPGSV,2,2,06,21,45,263,54,23,27,048,50,,,,,,,,,1*6B
$GPRMC,000147.00,A,4852.3609453,N,00217.7970918,E,26.64,225.20,180502,0.0,E,A*00
$GPGGA,000147.00,4852.3609453,N,00217.7970918,E,1,06,1.0,-9.327,M,0.000,M,0.0,*5D
$GPGSA,A,3,01,08,10,16,21,23,,,,,,,2.2,1.3,1.8,1*29
$GPGSV,2,1,06,01,16,255,48,08,74,298,57,10,56,076,54,16,26,182,50,1*6C
$GPGSV,2,2,06,21,45,263,54,23,27,048,51,,,,,,,,,1*6A
$GPRMC,000148.00,A,4852.3571974,N,00217.7888029,E,24.49,232.51,180502,0.0,E,A*0B
$GPGGA,000148.00,4852.3571974,N,00217.7888029,E,1,06,1.0,-7.368,M,0.000,M,0.0,*5E
$GPGSA,A,3,01,08,10,16,21,23,,,,,,,2.2,1.3,1.8,1*29
$GPGSV,2,1,06,01,16,255,48,08,74,298,54,10,55,076,51,16,26,182,50,1*69
$GPGSV,2,2,06,21,45,263,53,23,27,048,49,,,,,,,,,1*64
$GPRMC,000149.00,A,4852.3519102,N,00217.7792789,E,32.78,236.54,180502,0.0,E,A*00
$GPGGA,000149.00,4852.3519102,N,00217.7792789,E,1,06,1.0,-5.669,M,0.000,M,0.0,*57
$GPGSA,A,3,01,08,10,16,21,23,,,,,,,2.2,1.3,1.8,1*29
$GPGSV,2,1,06,01,16,255,49,08,74,298,57,10,55,076,55,16,26,182,50,1*6F
$GPGSV,2,2,06,21,45,263,55,23,27,048,48,,,,,,,,,1*63
$GPRMC,000150.00,A,4852.3477175,N,00217.7675633,E,33.09,242.89,180502,0.0,E,A*0D
$GPGGA,000150.00,4852.3477175,N,00217.7675633,E,1,06,1.0,-0.866,M,0.000,M,0.0,*5A
$GPGSA,A,3,01,08,10,16,21,23,,,,,,,2.2,1.3,1.8,1*29
$GPGSV,2,1,06,01,16,255,50,08,74,298,58,10,55,076,56,16,26,182,50,1*6B
$GPGSV,2,2,06,21,45,263,53,23,27,048,49,,,,,,,,,1*64
$GPRMC,000151.00,A,4852.3445446,N,00217.7527450,E,32.70,250.06,180502,0.0,E,A*00
$GPGGA,000151.00,4852.3445446,N,00217.7527450,E,1,06,1.0,-1.998,M,0.000,M,0.0,*5D
$GPGSA,A,3,01,08,10,16,21,23,,,,,,,2.2,1.3,1.8,1*29
$GPGSV,2,1,06,01,16,255,48,08,74,298,57,10,55,075,54,16,26,182,51,1*6D
$GPGSV,2,2,06,21,45,263,52,23,27,048,49,,,,,,,,,1*65
$GPRMC,000152.00,A,4852.3426939,N,00217.7397195,E,32.50,258.48,180502,0.0,E,A*02
$GPGGA,000152.00,4852.3426939,N,00217.7397195,E,1,06,1.0,-5.438,M,0.000,M,0.0,*5C
$GPGSA,A,3,01,08,10,16,21,23,,,,,,,2.2,1.3,1.8,1*29
$GPGSV,2,1,06,01,16,255,48,08,74,298,57,10,55,075,55,16,26,182,50,1*6D
$GPGSV,2,2,06,21,45,263,52,23,27,048,50,,,,,,,,,1*6D
$GPRMC,000153.00,A,4852.3405959,N,00217.7281275,E,32.13,260.91,180502,0.0,E,A*07
$GPGGA,000153.00,4852.3405959,N,00217.7281275,E,1,06,1.0,-5.720,M,0.000,M,0.0,*5B
$GPGSA,A,3,01,08,10,16,21,23,,,,,,,2.2,1.3,1.8,1*29
$GPGSV,2,1,06,01,16,255,48,08,74,298,56,10,55,075,55,16,26,182,51,1*6D
$GPGSV,2,2,06,21,45,263,54,23,27,048,50,,,,,,,,,1*6B
$GPRMC,000154.00,A,4852.3398959,N,00217.7136127,E,32.43,263.91,180502,0.0,E,A*0E
$GPGGA,000154.00,4852.3398959,N,00217.7136127,E,1,06,1.0,-9.733,M,0.000,M,0.0,*5A
$GPGSA,A,3,01,08,10,16,21,23,,,,,,,2.2,1.3,1.8,1*29
$GPGSV,2,1,06,01,16,255,49,08,74,298,58,10,55,075,56,16,26,182,50,1*60
$GPGSV,2,2,06,21,45,263,56,23,27,048,49,,,,,,,,,1*61
$GPRMC,000155.00,A,4852.3385527,N,00217.7007162,E,32.69,270.94,180502,0.0,E,A*0B
$GPGGA,000155.00,4852.3385527,N,00217.7007162,E,1,06,1.0,-7.165,M,0.000,M,0.0,*5B
$GPGSA,A,3,01,08,10,16,21,23,,,,,,,2.2,1.3,1.8,1*29
$GPGSV,2,1,06,01,16,255,48,08,74,298,55,10,55,075,55,16,26,182,50,1*6F
$GPGSV,2,2,06,21,45,263,54,23,27,048,50,,,,,,,,,1*6B
$GPRMC,000156.00,A,4852.3393635,N,00217.6891004,E,32.46,276.76,180502,0.0,E,A*0F
$GPGGA,000156.00,4852.3393635,N,00217.6891004,E,1,06,1.0,-12.036,M,0.000,M,0.0,*6B
$GPGSA,A,3,01,08,10,16,21,23,,,,,,,2.2,1.3,1.8,1*29
$GPGSV,2,1,06,01,16,255,48,08,74,298,57,10,55,075,55,16,26,182,49,1*65
$GPGSV,2,2,06,21,45,263,54,23,27,048,50,,,,,,,,,1*6B
$GPRMC,000157.00,A,4852.3399110,N,00217.6753874,E,32.31,280.56,180502,0.0,E,A*01
$GPGGA,000157.00,4852.3399110,N,00217.6753874,E,1,06,1.0,-12.036,M,0.000,M,0.0,*6E
$GPGSA,A,3,01,08,10,16,21,23,,,,,,,2.2,1.3,1.8,1*29
$GPGSV,2,1,06,01,16,255,49,08,74,298,58,10,55,075,56,16,26,182,49,1*68
$GPGSV,2,2,06,21,45,263,54,23,27,048,49,,,,,,,,,1*63
$GPRMC,000158.00,A,4852.3443285,N,00217.6609312,E,33.03,286.77,180502,0.0,E,A*01
$GPGGA,000158.00,4852.3443285,N,00217.6609312,E,1,06,1.0,-19.516,M,0.000,M,0.0,*67
$GPGSA,A,3,01,08,10,16,21,23,,,,,,,2.2,1.3,1.8,1*29
$GPGSV,2,1,06,01,16,255,49,08,74,298,56,10,55,075,54,16,26,182,48,1*65
$GPGSV,2,2,06,21,45,263,54,23,27,048,50,,,,,,,,,1*6B
$GPRMC,000159.00,A,4852.3460499,N,00217.6473680,E,31.74,289.53,180502,0.0,E,A*00
$GPGGA,000159.00,4852.3460499,N,00217.6473680,E,1,06,1.0,-14.011,M,0.000,M,0.0,*62
$GPGSA,A,3,01,08,10,16,21,23,,,,,,,2.2,1.3,1.8,1*29
$GPGSV,2,1,06,01,16,255,48,08,74,298,56,10,55,075,55,16,26,182,49,1*64
$GPGSV,2,2,06,21,45,263,53,23,27,048,51,,,,,,,,,1*6D
$GPRMC,000200.00,A,4852.3487396,N,00217.6347306,E,30.35,296.38,180502,0.0,E,A*02
$GPGGA,000200.00,4852.3487396,N,00217.6347306,E,1,06,1.0,-9.044,M,0.000,M,0.0,*5B
$GPGSA,A,3,01,08,10,16,21,23,,,,,,,2.2,1.3,1.8,1*29
$GPGSV,2,1,06,01,16,255,48,08,74,298,54,10,55,075,54,16,26,182,50,1*6F
$GPGSV,2,2,06,21,45,263,53,23,27,048,50,,,,,,,,,1*6C
$GPRMC,000201.00,A,4852.3531294,N,00217.6250863,E,23.55,302.38,180502,0.0,E,A*0B
$GPGGA,000201.00,4852.3531294,N,00217.6250863,E,1,06,1.0,-8.678,M,0.000,M,0.0,*52
$GPGSA,A,3,01,08,10,16,21,23,,,,,,,2.2,1.3,1.8,1*29
$GPGSV,2,1,06,01,16,255,49,08,74,298,56,10,55,075,56,16,26,182,48,1*67
$GPGSV,2,2,06,21,45,263,52,23,27,048,50,,,,,,,,,1*6D
$GPRMC,000202.00,A,4852.3568464,N,00217.6168865,E,23.93,308.33,180502,0.0,E,A*08
$GPGGA,000202.00,4852.3568464,N,00217.6168865,E,1,06,1.0,-6.168,M,0.000,M,0.0,*52
$GPGSA,A,3,01,08,10,16,21,23,,,,,,,2.2,1.3,1.8,1*29
$GPGSV,2,1,06,01,16,255,49,08,74,298,56,10,55,075,55,16,26,182,50,1*6D
$GPGSV,2,2,06,21,45,263,51,23,27,048,49,,,,,,,,,1*66
$GPRMC,000203.00,A,4852.3616434,N,00217.6109948,E,24.51,310.05,180502,0.0,E,A*0A
$GPGGA,000203.00,4852.3616434,N,00217.6109948,E,1,06,1.0,-4.224,M,0.000,M,0.0,*5C
$GPGSA,A,3,01,08,10,16,21,23,,,,,,,2.2,1.3,1.8,1*29
$GPGSV,2,1,06,01,16,255,46,08,74,298,57,10,55,075,54,16,26,182,50,1*62
$GPGSV,2,2,06,21,45,263,52,23,27,048,50,,,,,,,,,1*6D
$GPRMC,000204.00,A,4852.3656857,N,00217.6019267,E,22.17,315.20,180502,0.0,E,A*00
$GPGGA,000204.00,4852.3656857,N,00217.6019267,E,1,06,1.0,-1.244,M,0.000,M,0.0,*53
$GPGSA,A,3,01,08,10,16,21,23,,,,,,,2.2,1.3,1.8,1*29
$GPGSV,2,1,06,01,16,255,47,08,74,298,56,10,55,075,57,16,26,182,50,1*61
$GPGSV,2,2,06,21,45,263,52,23,27,048,52,,,,,,,,,1*6F
$GPRMC,000205.00,A,4852.3700018,N,00217.5950922,E,28.51,322.81,180502,0.0,E,A*0A
$GPGGA,000205.00,4852.3700018,N,00217.5950922,E,1,06,1.0,1.329,M,0.000,M,0.0,*79
$GPGSA,A,3,01,08,10,16,21,23,,,,,,,2.2,1.3,1.8,1*29
$GPGSV,2,1,06,01,16,255,47,08,74,298,56,10,55,075,58,16,26,182,50,1*6E
$GPGSV,2,2,06,21,45,263,52,23,27,047,52,,,,,,,,,1*60
$GPRMC,000206.00,A,4852.3781685,N,00217.5886825,E,33.51,329.64,180502,0.0,E,A*04
$GPGGA,000206.00,4852.3781685,N,00217.5886825,E,1,06,1.0,-4.112,M,0.000,M,0.0,*5F
$GPGSA,A,3,01,08,10,16,21,23,,,,,,,2.2,1.3,1.8,1*29
$GPGSV,2,1,06,01,16,255,48,08,74,298,59,10,55,075,57,16,26,182,50,1*61
$GPGSV,2,2,06,21,45,263,53,23,27,047,51,,,,,,,,,1*62
$GPRMC,000207.00,A,4852.3858439,N,00217.5827853,E,31.73,333.59,180502,0.0,E,A*06
$GPGGA,000207.00,4852.3858439,N,00217.5827853,E,1,06,1.0,-7.115,M,0.000,M,0.0,*5E
$GPGSA,A,3,01,08,10,16,21,23,,,,,,,2.2,1.3,1.8,1*29
$GPGSV,2,1,06,01,16,255,48,08,74,298,57,10,55,075,55,16,26,182,50,1*6D
$GPGSV,2,2,06,21,45,263,54,23,27,047,49,,,,,,,,,1*6C
$GPRMC,000208.00,A,4852.3939898,N,00217.5754439,E,32.25,338.03,180502,0.0,E,A*07
$GPGGA,000208.00,4852.3939898,N,00217.5754439,E,1,06,1.0,-8.465,M,0.000,M,0.0,*56
$GPGSA,A,3,01,08,10,16,21,23,,,,,,,2.2,1.3,1.8,1*29
$GPGSV,2,1,06,01,16,255,48,08,74,298,55,10,55,075,54,16,26,182,50,1*6E
$GPGSV,2,2,06,21,45,263,54,23,27,047,51,,,,,,,,,1*65
$GPRMC,000209.00,A,4852.4028294,N,00217.5712452,E,32.51,343.41,180502,0.0,E,A*08
$GPGGA,000209.00,4852.4028294,N,00217.5712452,E,1,06,1.0,-11.261,M,0.000,M,0.0,*6A
$GPGSA,A,3,01,08,10,16,21,23,,,,,,,2.2,1.3,1.8,1*29
$GPGSV,2,1,06,01,16,255,49,08,74,298,57,10,55,075,55,16,26,182,50,1*6C
$GPGSV,2,2,06,21,45,263,52,23,27,047,52,,,,,,,,,1*60
$GPRMC,000210.00,A,4852.4108056,N,00217.5694723,E,32.02,348.31,180502,0.0,E,A*0F
$GPGGA,000210.00,4852.4108056,N,00217.5694723,E,1,06,1.0,-12.458,M,0.000,M,0.0,*68
$GPGSA,A,3,01,08,10,16,21,23,,,,,,,2.2,1.3,1.8,1*29
$GPGSV,2,1,06,01,16,255,48,08,74,298,56,10,55,075,53,16,26,182,50,1*6A
$GPGSV,2,2,06,21,45,263,54,23,27,047,52,,,,,,,,,1*66
$GPRMC,000211.00,A,4852.4203322,N,00217.5672545,E,31.14,351.32,180502,0.0,E,A*03
$GPGGA,000211.00,4852.4203322,N,00217.5672545,E,1,06,1.0,-16.084,M,0.000,M,0.0,*6A
$GPGSA,A,3,01,08,10,16,21,23,,,,,,,2.2,1.3,1.8,1*29
$GPGSV,2,1,06,01,16,255,47,08,74,298,55,10,55,075,53,16,26,182,48,1*6F
$GPGSV,2,2,06,21,45,263,54,23,27,047,50,,,,,,,,,1*64
$GPRMC,000212.00,A,4852.4290966,N,00217.5649594,E,33.37,355.78,180502,0.0,E,A*0D
$GPGGA,000212.00,4852.4290966,N,00217.5649594,E,1,06,1.0,-16.197,M,0.000,M,0.0,*6E
$GPGSA,A,3,01,08,10,16,21,23,,,,,,,2.2,1.3,1.8,1*29
$GPGSV,2,1,06,01,16,255,49,08,74,298,56,10,55,075,56,16,26,182,49,1*66
$GPGSV,2,2,06,21,45,263,53,23,27,047,48,,,,,,,,,1*6A
$GPRMC,000213.00,A,4852.4372779,N,00217.5648247,E,31.62,2.85,180502,0.0,E,A*08
$GPGGA,000213.00,4852.4372779,N,00217.5648247,E,1,06,1.0,-12.381,M,0.000,M,0.0,*6B
$GPGSA,A,3,01,08,10,16,21,23,,,,,,,2.2,1.3,1.8,1*29
$GPGSV,2,1,06,01,16,255,46,08,74,298,54,10,55,075,54,16,26,182,50,1*61
$GPGSV,2,2,06,21,45,263,54,23,27,047,50,,,,,,,,,1*64
$GPRMC,000214.00,A,4852.4468707,N,00217.5670684,E,32.70,8.54,180502,0.0,E,A*0C
$GPGGA,000214.00,4852.4468707,N,00217.5670684,E,1,06,1.0,-11.821,M,0.000,M,0.0,*6B
$GPGSA,A,3,01,08,10,16,21,23,,,,,,,2.2,1.3,1.8,1*29
$GPGSV,2,1,06,01,16,255,48,08,74,298,56,10,55,075,54,16,26,182,50,1*6D
$GPGSV,2,2,06,21,45,263,53,23,27,047,49,,,,,,,,,1*6B
$GPRMC,000215.00,A,4852.4542087,N,00217.5697556,E,23.02,14.59,180502,0.0,E,A*3B
$GPGGA,000215.00,4852.4542087,N,00217.5697556,E,1,06,1.0,-10.662,M,0.000,M,0.0,*61
$GPGSA,A,3,01,08,10,16,21,23,,,,,,,2.2,1.3,1.8,1*29
$GPGSV,2,1,06,01,16,255,48,08,74,298,56,10,55,075,54,16,26,182,50,1*6D
$GPGSV,2,2,06,21,45,263,54,23,27,047,50,,,,,,,,,1*64
$GPRMC,000216.00,A,4852.4593926,N,00217.5719117,E,14.64,17.67,180502,0.0,E,A*3A
$GPGGA,000216.00,4852.4593926,N,00217.5719117,E,1,06,1.0,-11.217,M,0.000,M,0.0,*6D
$GPGSA,A,3,01,08,10,16,21,23,,,,,,,2.2,1.3,1.8,1*29
$GPGSV,2,1,06,01,16,255,48,08,74,298,56,10,55,075,54,16,26,182,50,1*6D
$GPGSV,2,2,06,21,45,263,53,23,27,047,50,,,,,,,,,1*63
$GPRMC,000217.00,A,4852.4611952,N,00217.5720312,E,4.39,20.79,180502,0.0,E,A*0E
$GPGGA,000217.00,4852.4611952,N,00217.5720312,E,1,06,1.0,-6.722,M,0.000,M,0.0,*5E
$GPGSA,A,3,01,08,10,16,21,23,,,,,,,2.2,1.3,1.8,1*29
$GPGSV,2,1,06,01,16,255,48,08,74,298,56,10,55,075,55,16,26,182,49,1*64
$GPGSV,2,2,06,21,45,263,52,23,27,047,50,,,,,,,,,1*62
$GPRMC,000218.00,A,4852.4620318,N,00217.5720864,E,1.04,20.79,180502,0.0,E,A*06
$GPGGA,000218.00,4852.4620318,N,00217.5720864,E,1,06,1.0,-5.417,M,0.000,M,0.0,*5B
$GPGSA,A,3,01,08,10,16,21,23,,,,,,,2.2,1.3,1.8,1*29
$GPGSV,2,1,06,01,16,255,50,08,74,298,56,10,55,075,57,16,26,182,50,1*67
$GPGSV,2,2,06,21,45,263,52,23,27,047,50,,,,,,,,,1*62
$GPRMC,000219.00,A,4852.4613297,N,00217.5715602,E,0.80,20.79,180502,0.0,E,A*04
$GPGGA,000219.00,4852.4613297,N,00217.5715602,E,1,06,1.0,-6.045,M,0.000,M,0.0,*54
$GPGSA,A,3,01,08,10,16,21,23,,,,,,,2.2,1.3,1.8,1*29
$GPGSV,2,1,06,01,16,255,48,08,74,298,56,10,55,075,55,16,26,182,52,1*6E
$GPGSV,2,2,06,21,45,263,51,23,27,047,50,,,,,,,,,1*61
$GPRMC,000220.00,A,4852.4610382,N,00217.5719679,E,1.20,20.79,180502,0.0,E,A*03
$GPGGA,000220.00,4852.4610382,N,00217.5719679,E,1,06,1.0,-5.475,M,0.000,M,0.0,*5C
$GPGSA,A,3,01,08,10,16,21,23,,,,,,,2.2,1.3,1.8,1*29
$GPGSV,2,1,06,01,16,255,50,08,74,298,55,10,55,075,54,16,26,182,51,1*66
$GPGSV,2,2,06,21,45,263,52,23,27,047,50,,,,,,,,,1*62
$GPRMC,000221.00,A,4852.4626903,N,00217.5708489,E,1.88,20.79,180502,0.0,E,A*0B
$GPGGA,000221.00,4852.4626903,N,00217.5708489,E,1,06,1.0,-3.811,M,0.000,M,0.0,*5E
$GPGSA,A,3,01,08,10,16,21,23,,,,,,,2.2,1.3,1.8,1*29
$GPGSV,2,1,06,01,16,255,49,08,74,298,56,10,55,075,55,16,26,182,50,1*6D
$GPGSV,2,2,06,21,45,263,54,23,27,047,50,,,,,,,,,1*64
$GPRMC,000222.00,A,4852.4625720,N,00217.5691341,E,0.78,20.79,180502,0.0,E,A*08
$GPGGA,000222.00,4852.4625720,N,00217.5691341,E,1,06,1.0,-2.101,M,0.000,M,0.0,*5A
$GPGSA,A,3,01,08,10,16,21,23,,,,,,,2.2,1.3,1.8,1*29
$GPGSV,2,1,06,01,16,255,48,08,74,298,55,10,55,075,54,16,26,182,50,1*6E
$GPGSV,2,2,06,21,45,263,54,23,27,047,50,,,,,,,,,1*64
